[{"id":"3581164","name":"San Pedro","latitude":"17.915979","longitude":"-87.965897","country":"BZ"},{"id":"3581194","name":"San Ignacio","latitude":"17.156111","longitude":"-89.071388","country":"BZ"},{"id":"3581398","name":"Punta Gorda","latitude":"16.098351","longitude":"-88.809700","country":"BZ"},{"id":"3581514","name":"Orange Walk","latitude":"18.081240","longitude":"-88.563278","country":"BZ"},{"id":"3582228","name":"Dangriga","latitude":"16.969210","longitude":"-88.232063","country":"BZ"},{"id":"3582305","name":"Corozal","latitude":"18.397940","longitude":"-88.394188","country":"BZ"},{"id":"3582662","name":"Benque Viejo del Carmen","latitude":"17.075001","longitude":"-89.139168","country":"BZ"},{"id":"3582672","name":"Belmopan","latitude":"17.250000","longitude":"-88.766670","country":"BZ"},{"id":"3582677","name":"Belize City","latitude":"17.499519","longitude":"-88.197563","country":"BZ"}]