[{"id":"286245","name":"Sur","latitude":"22.566669","longitude":"59.528889","country":"OM"},{"id":"286282","name":"Al Sohar","latitude":"24.364300","longitude":"56.746811","country":"OM"},{"id":"286293","name":"Sufalat Samail","latitude":"23.316669","longitude":"58.016670","country":"OM"},{"id":"286402","name":"Shinas","latitude":"24.743330","longitude":"56.465832","country":"OM"},{"id":"286621","name":"Salalah","latitude":"17.015051","longitude":"54.092369","country":"OM"},{"id":"286647","name":"Saham","latitude":"24.172220","longitude":"56.888611","country":"OM"},{"id":"286987","name":"Nizwa","latitude":"22.933331","longitude":"57.533329","country":"OM"},{"id":"287286","name":"Muscat","latitude":"23.613871","longitude":"58.592201","country":"OM"},{"id":"287614","name":"Khasab","latitude":"26.179930","longitude":"56.247742","country":"OM"},{"id":"287814","name":"Izki","latitude":"22.933331","longitude":"57.766670","country":"OM"},{"id":"287830","name":"Ibri","latitude":"23.225731","longitude":"56.515720","country":"OM"},{"id":"287832","name":"Ibra","latitude":"22.690571","longitude":"58.533371","country":"OM"},{"id":"288507","name":"Dib Dibba","latitude":"26.197781","longitude":"56.257778","country":"OM"},{"id":"288721","name":"Bidbid","latitude":"23.407860","longitude":"58.128300","country":"OM"},{"id":"288764","name":"Bawshar","latitude":"23.555630","longitude":"58.398899","country":"OM"},{"id":"288789","name":"Barka","latitude":"23.707390","longitude":"57.889080","country":"OM"},{"id":"288899","name":"Bahla","latitude":"22.973391","longitude":"57.299580","country":"OM"},{"id":"288902","name":"Badiyah","latitude":"22.450001","longitude":"58.799999","country":"OM"},{"id":"288955","name":"As Suwayq","latitude":"23.849440","longitude":"57.438610","country":"OM"},{"id":"288967","name":"As Sib al Jadidah","latitude":"23.670271","longitude":"58.189110","country":"OM"},{"id":"289011","name":"Ar Rustaq","latitude":"23.390829","longitude":"57.424438","country":"OM"},{"id":"289142","name":"Al Qabil","latitude":"22.570999","longitude":"58.694721","country":"OM"},{"id":"289174","name":"Al Liwa","latitude":"24.536110","longitude":"56.565559","country":"OM"},{"id":"289199","name":"Al Khaburah","latitude":"23.988640","longitude":"57.098381","country":"OM"},{"id":"289317","name":"Al Buraymi","latitude":"24.250879","longitude":"55.793121","country":"OM"},{"id":"289433","name":"Adam","latitude":"22.375601","longitude":"57.523338","country":"OM"},{"id":"411849","name":"Yanqul","latitude":"23.590509","longitude":"56.550079","country":"OM"},{"id":"412084","name":"Bayt al Awabi","latitude":"23.303240","longitude":"57.524590","country":"OM"}]