[{"id":"3439525","name":"Young","latitude":"-32.683331","longitude":"-57.633331","country":"UY"},{"id":"3439598","name":"Villa del Carmen","latitude":"-33.250000","longitude":"-56.016670","country":"UY"},{"id":"3439619","name":"Vichadero","latitude":"-31.799999","longitude":"-54.716671","country":"UY"},{"id":"3439622","name":"Vergara","latitude":"-32.933331","longitude":"-53.950001","country":"UY"},{"id":"3439749","name":"Trinidad","latitude":"-33.538891","longitude":"-56.888611","country":"UY"},{"id":"3439781","name":"Treinta y Tres","latitude":"-33.233330","longitude":"-54.383331","country":"UY"},{"id":"3439787","name":"Tranqueras","latitude":"-31.200001","longitude":"-55.750000","country":"UY"},{"id":"3439831","name":"Tomas Gomensoro","latitude":"-30.427370","longitude":"-57.436119","country":"UY"},{"id":"3439838","name":"Toledo","latitude":"-34.742222","longitude":"-56.098331","country":"UY"},{"id":"3439902","name":"Tarariras","latitude":"-34.283329","longitude":"-57.616669","country":"UY"},{"id":"3440021","name":"Tala","latitude":"-34.349998","longitude":"-55.766670","country":"UY"},{"id":"3440034","name":"Tacuarembo","latitude":"-31.733330","longitude":"-55.983330","country":"UY"},{"id":"3440063","name":"Solis de Mataojo","latitude":"-34.599998","longitude":"-55.483330","country":"UY"},{"id":"3440379","name":"Sauce","latitude":"-34.646938","longitude":"-56.062778","country":"UY"},{"id":"3440394","name":"Sarandi Grande","latitude":"-33.733330","longitude":"-56.333328","country":"UY"},{"id":"3440400","name":"Sarandi del Yi","latitude":"-33.349998","longitude":"-55.633331","country":"UY"},{"id":"3440554","name":"Santa Rosa","latitude":"-34.497501","longitude":"-56.037220","country":"UY"},{"id":"3440571","name":"Santa Lucia","latitude":"-34.453331","longitude":"-56.390560","country":"UY"},{"id":"3440577","name":"Santa Clara de Olimar","latitude":"-32.916672","longitude":"-54.966671","country":"UY"},{"id":"3440596","name":"San Ramon","latitude":"-34.299999","longitude":"-55.966671","country":"UY"},{"id":"3440639","name":"San Jose de Mayo","latitude":"-34.337502","longitude":"-56.713612","country":"UY"},{"id":"3440654","name":"San Jacinto","latitude":"-34.549999","longitude":"-55.883331","country":"UY"},{"id":"3440696","name":"San Carlos","latitude":"-34.799999","longitude":"-54.916672","country":"UY"},{"id":"3440698","name":"San Bautista","latitude":"-34.433331","longitude":"-55.983330","country":"UY"},{"id":"3440714","name":"Salto","latitude":"-31.383329","longitude":"-57.966671","country":"UY"},{"id":"3440747","name":"Rosario","latitude":"-34.316669","longitude":"-57.349998","country":"UY"},{"id":"3440762","name":"Rodriguez","latitude":"-34.382778","longitude":"-56.541672","country":"UY"},{"id":"3440777","name":"Rocha","latitude":"-34.483330","longitude":"-54.333328","country":"UY"},{"id":"3440781","name":"Rivera","latitude":"-30.905340","longitude":"-55.550758","country":"UY"},{"id":"3440791","name":"Rio Branco","latitude":"-32.566669","longitude":"-53.416672","country":"UY"},{"id":"3440925","name":"Quebracho","latitude":"-31.950001","longitude":"-57.883331","country":"UY"},{"id":"3440939","name":"Punta del Este","latitude":"-34.966671","longitude":"-54.950001","country":"UY"},{"id":"3440963","name":"Progreso","latitude":"-34.665001","longitude":"-56.219440","country":"UY"},{"id":"3441074","name":"Piriapolis","latitude":"-34.868191","longitude":"-55.274361","country":"UY"},{"id":"3441243","name":"Paysandu","latitude":"-32.321388","longitude":"-58.075562","country":"UY"},{"id":"3441273","name":"Paso de los Toros","latitude":"-32.816669","longitude":"-56.516670","country":"UY"},{"id":"3441292","name":"Paso de Carrasco","latitude":"-34.860279","longitude":"-56.052219","country":"UY"},{"id":"3441354","name":"Pando","latitude":"-34.716671","longitude":"-55.950001","country":"UY"},{"id":"3441358","name":"Pan de Azucar","latitude":"-34.799999","longitude":"-55.233330","country":"UY"},{"id":"3441377","name":"Palmitas","latitude":"-33.507191","longitude":"-57.800789","country":"UY"},{"id":"3441442","name":"Ombues de Lavalle","latitude":"-33.916672","longitude":"-57.783329","country":"UY"},{"id":"3441476","name":"Nuevo Berlin","latitude":"-32.983330","longitude":"-58.049999","country":"UY"},{"id":"3441481","name":"Nueva Palmira","latitude":"-33.883331","longitude":"-58.416672","country":"UY"},{"id":"3441483","name":"Nueva Helvecia","latitude":"-34.299999","longitude":"-57.233330","country":"UY"},{"id":"3441575","name":"Montevideo","latitude":"-34.833462","longitude":"-56.167351","country":"UY"},{"id":"3441659","name":"Minas de Corrales","latitude":"-31.583330","longitude":"-55.466671","country":"UY"},{"id":"3441665","name":"Minas","latitude":"-34.375889","longitude":"-55.237709","country":"UY"},{"id":"3441674","name":"Migues","latitude":"-34.483330","longitude":"-55.650002","country":"UY"},{"id":"3441684","name":"Mercedes","latitude":"-33.252399","longitude":"-58.030472","country":"UY"},{"id":"3441702","name":"Melo","latitude":"-32.366669","longitude":"-54.183331","country":"UY"},{"id":"3441894","name":"Maldonado","latitude":"-34.900002","longitude":"-54.950001","country":"UY"},{"id":"3441954","name":"Los Cerrillos","latitude":"-34.605000","longitude":"-56.356392","country":"UY"},{"id":"3441988","name":"Libertad","latitude":"-34.633331","longitude":"-56.619171","country":"UY"},{"id":"3442050","name":"Las Toscas","latitude":"-34.733330","longitude":"-55.716671","country":"UY"},{"id":"3442057","name":"Las Piedras","latitude":"-34.726391","longitude":"-56.220001","country":"UY"},{"id":"3442058","name":"Las Piedras","latitude":"-30.262039","longitude":"-57.581741","country":"UY"},{"id":"3442071","name":"Lascano","latitude":"-33.666672","longitude":"-54.200001","country":"UY"},{"id":"3442098","name":"La Paz","latitude":"-34.761669","longitude":"-56.223610","country":"UY"},{"id":"3442105","name":"La Paloma","latitude":"-34.666672","longitude":"-54.166672","country":"UY"},{"id":"3442206","name":"Juan L. Lacaze","latitude":"-34.433331","longitude":"-57.416672","country":"UY"},{"id":"3442221","name":"Jose Pedro Varela","latitude":"-33.450001","longitude":"-54.533329","country":"UY"},{"id":"3442231","name":"Jose Enrique Rodo","latitude":"-33.683331","longitude":"-57.566669","country":"UY"},{"id":"3442233","name":"Jose Batlle y Ordonez","latitude":"-33.466671","longitude":"-55.116669","country":"UY"},{"id":"3442236","name":"Joaquin Suarez","latitude":"-34.733608","longitude":"-56.036671","country":"UY"},{"id":"3442299","name":"Isidoro Noblia","latitude":"-31.833330","longitude":"-54.166672","country":"UY"},{"id":"3442398","name":"Guichon","latitude":"-32.349998","longitude":"-57.200001","country":"UY"},{"id":"3442568","name":"Fray Bentos","latitude":"-33.132500","longitude":"-58.295559","country":"UY"},{"id":"3442585","name":"Florida","latitude":"-34.095558","longitude":"-56.214169","country":"UY"},{"id":"3442597","name":"Florencio Sanchez","latitude":"-33.883331","longitude":"-57.400002","country":"UY"},{"id":"3442683","name":"Empalme Olmos","latitude":"-34.700001","longitude":"-55.900002","country":"UY"},{"id":"3442716","name":"Ecilda Paullier","latitude":"-34.366669","longitude":"-57.066669","country":"UY"},{"id":"3442727","name":"Durazno","latitude":"-33.413059","longitude":"-56.500561","country":"UY"},{"id":"3442750","name":"Dolores","latitude":"-33.544170","longitude":"-58.197220","country":"UY"},{"id":"3442778","name":"Delta del Tigre","latitude":"-34.763329","longitude":"-56.385281","country":"UY"},{"id":"3442939","name":"Constitucion","latitude":"-31.083330","longitude":"-57.833328","country":"UY"},{"id":"3443013","name":"Colonia del Sacramento","latitude":"-34.466671","longitude":"-57.849998","country":"UY"},{"id":"3443061","name":"Chuy","latitude":"-33.697071","longitude":"-53.461620","country":"UY"},{"id":"3443280","name":"Casupa","latitude":"-34.033329","longitude":"-55.650002","country":"UY"},{"id":"3443289","name":"Castillos","latitude":"-34.166672","longitude":"-53.833328","country":"UY"},{"id":"3443341","name":"Carmelo","latitude":"-33.989170","longitude":"-58.285561","country":"UY"},{"id":"3443352","name":"Cardona","latitude":"-33.883331","longitude":"-57.383331","country":"UY"},{"id":"3443413","name":"Canelones","latitude":"-34.522781","longitude":"-56.277779","country":"UY"},{"id":"3443631","name":"Bella Union","latitude":"-30.275221","longitude":"-57.600700","country":"UY"},{"id":"3443644","name":"Belen","latitude":"-30.783331","longitude":"-57.783329","country":"UY"},{"id":"3443697","name":"Baltasar Brum","latitude":"-30.712940","longitude":"-57.327278","country":"UY"},{"id":"3443737","name":"Atlantida","latitude":"-34.771900","longitude":"-55.758400","country":"UY"},{"id":"3443758","name":"Artigas","latitude":"-30.400000","longitude":"-56.466671","country":"UY"},{"id":"3443909","name":"Aigua","latitude":"-34.200001","longitude":"-54.750000","country":"UY"},{"id":"3480820","name":"Colonia Nicolich","latitude":"-34.813061","longitude":"-56.044720","country":"UY"},{"id":"3480822","name":"Barra de Carrasco","latitude":"-34.877220","longitude":"-56.029720","country":"UY"},{"id":"3480825","name":"Pajas Blancas","latitude":"-34.801670","longitude":"-56.334171","country":"UY"}]