[{"id":"2396253","name":"Tchibanga","latitude":"-2.850000","longitude":"11.033330","country":"GA"},{"id":"2396518","name":"Port-Gentil","latitude":"-0.719330","longitude":"8.781510","country":"GA"},{"id":"2396646","name":"Oyem","latitude":"1.599500","longitude":"11.579330","country":"GA"},{"id":"2396898","name":"Okondja","latitude":"-0.654870","longitude":"13.675330","country":"GA"},{"id":"2397169","name":"Ntoum","latitude":"0.383330","longitude":"9.783330","country":"GA"},{"id":"2397614","name":"Ndende","latitude":"-2.400770","longitude":"11.358130","country":"GA"},{"id":"2397674","name":"Ndjole","latitude":"-0.178270","longitude":"10.764880","country":"GA"},{"id":"2397978","name":"Mounana","latitude":"-1.408500","longitude":"13.158570","country":"GA"},{"id":"2398073","name":"Mouila","latitude":"-1.868460","longitude":"11.055940","country":"GA"},{"id":"2398269","name":"Moanda","latitude":"-1.557460","longitude":"13.217750","country":"GA"},{"id":"2398283","name":"Mitzic","latitude":"0.782060","longitude":"11.549040","country":"GA"},{"id":"2398430","name":"Mimongo","latitude":"-1.619520","longitude":"11.606750","country":"GA"},{"id":"2398929","name":"Mbigou","latitude":"-1.900460","longitude":"11.906000","country":"GA"},{"id":"2399001","name":"Mayumba","latitude":"-3.431980","longitude":"10.655400","country":"GA"},{"id":"2399371","name":"Makokou","latitude":"0.573810","longitude":"12.864190","country":"GA"},{"id":"2399697","name":"Libreville","latitude":"0.392500","longitude":"9.453650","country":"GA"},{"id":"2399831","name":"Lekoni","latitude":"-1.584310","longitude":"14.259050","country":"GA"},{"id":"2399870","name":"Lastoursville","latitude":"-0.814330","longitude":"12.728690","country":"GA"},{"id":"2399888","name":"Lambarene","latitude":"-0.700100","longitude":"10.240550","country":"GA"},{"id":"2399959","name":"Koulamoutou","latitude":"-1.130320","longitude":"12.473590","country":"GA"},{"id":"2400547","name":"Gamba","latitude":"-2.650000","longitude":"10.000000","country":"GA"},{"id":"2400555","name":"Franceville","latitude":"-1.633330","longitude":"13.583570","country":"GA"},{"id":"2400578","name":"Fougamou","latitude":"-1.215440","longitude":"10.583780","country":"GA"},{"id":"2401495","name":"Booue","latitude":"-0.092070","longitude":"11.938460","country":"GA"},{"id":"2401578","name":"Bitam","latitude":"2.075970","longitude":"11.500650","country":"GA"}]