[{"id":"777019","name":"Vardo","latitude":"70.370483","longitude":"31.110661","country":"NO"},{"id":"777073","name":"Vadso","latitude":"70.074364","longitude":"29.748720","country":"NO"},{"id":"777682","name":"Skjervoy","latitude":"70.031143","longitude":"20.971411","country":"NO"},{"id":"779082","name":"Lakselv","latitude":"70.051331","longitude":"24.971821","country":"NO"},{"id":"779303","name":"Kirkenes","latitude":"69.727058","longitude":"30.045780","country":"NO"},{"id":"779350","name":"Karasjok","latitude":"69.471870","longitude":"25.511221","country":"NO"},{"id":"779554","name":"Honningsvag","latitude":"70.982094","longitude":"25.970369","country":"NO"},{"id":"779683","name":"Hammerfest","latitude":"70.663361","longitude":"23.682091","country":"NO"},{"id":"780643","name":"Bjornevatn","latitude":"69.667221","longitude":"29.984720","country":"NO"},{"id":"780717","name":"Batsfjord","latitude":"70.634453","longitude":"29.718479","country":"NO"},{"id":"847633","name":"Alta","latitude":"69.968872","longitude":"23.271650","country":"NO"},{"id":"3131189","name":"Ytre Skalevik","latitude":"58.083328","longitude":"8.016670","country":"NO"},{"id":"3131246","name":"Ytre Arna","latitude":"60.466671","longitude":"5.433330","country":"NO"},{"id":"3131329","name":"Vossevangen","latitude":"60.622959","longitude":"6.422860","country":"NO"},{"id":"3131449","name":"Volda","latitude":"62.147621","longitude":"6.074080","country":"NO"},{"id":"3131538","name":"Vinstra","latitude":"61.595150","longitude":"9.752320","country":"NO"},{"id":"3131684","name":"Vikersund","latitude":"59.965919","longitude":"9.995010","country":"NO"},{"id":"3132058","name":"Vestby","latitude":"59.602371","longitude":"10.746680","country":"NO"},{"id":"3132176","name":"Verdal","latitude":"63.793320","longitude":"11.481700","country":"NO"},{"id":"3132208","name":"Vennesla","latitude":"58.269360","longitude":"7.974130","country":"NO"},{"id":"3132644","name":"Varhaug","latitude":"58.614712","longitude":"5.645710","country":"NO"},{"id":"3132720","name":"Vanse","latitude":"58.116669","longitude":"6.700000","country":"NO"},{"id":"3133349","name":"Ulsteinvik","latitude":"62.343170","longitude":"5.848690","country":"NO"},{"id":"3133402","name":"Ulefoss","latitude":"59.283821","longitude":"9.264590","country":"NO"},{"id":"3133498","name":"Tynset","latitude":"62.275940","longitude":"10.782410","country":"NO"},{"id":"3133681","name":"Tvedestrand","latitude":"58.622028","longitude":"8.931470","country":"NO"},{"id":"3133819","name":"Innbygda","latitude":"61.314838","longitude":"12.263740","country":"NO"},{"id":"3133880","name":"Trondheim","latitude":"63.430489","longitude":"10.395060","country":"NO"},{"id":"3133895","name":"Tromso","latitude":"69.648903","longitude":"18.955080","country":"NO"},{"id":"3134070","name":"Tranby","latitude":"59.816669","longitude":"10.250000","country":"NO"},{"id":"3134331","name":"Tonsberg","latitude":"59.267540","longitude":"10.407620","country":"NO"},{"id":"3134429","name":"Tofte","latitude":"59.542751","longitude":"10.561380","country":"NO"},{"id":"3134521","name":"Tjome","latitude":"59.110901","longitude":"10.393300","country":"NO"},{"id":"3134776","name":"Tau","latitude":"59.066669","longitude":"5.900000","country":"NO"},{"id":"3134865","name":"Tananger","latitude":"58.933331","longitude":"5.600000","country":"NO"},{"id":"3135020","name":"Svolvaer","latitude":"68.234169","longitude":"14.568340","country":"NO"},{"id":"3135124","name":"Svelvik","latitude":"59.613701","longitude":"10.408720","country":"NO"},{"id":"3135377","name":"Sunndalsora","latitude":"62.675449","longitude":"8.551530","country":"NO"},{"id":"3135601","name":"Stryn","latitude":"61.904480","longitude":"6.722640","country":"NO"},{"id":"3135813","name":"Stranda","latitude":"62.309639","longitude":"6.935820","country":"NO"},{"id":"3136690","name":"Stokmarknes","latitude":"68.564621","longitude":"14.910750","country":"NO"},{"id":"3136725","name":"Stokke","latitude":"59.223579","longitude":"10.300330","country":"NO"},{"id":"3136765","name":"Stjordalshalsen","latitude":"63.468102","longitude":"10.926180","country":"NO"},{"id":"3136947","name":"Steinkjer","latitude":"64.014870","longitude":"11.495370","country":"NO"},{"id":"3137091","name":"Stavern","latitude":"59.000000","longitude":"10.033330","country":"NO"},{"id":"3137115","name":"Stavanger","latitude":"58.970051","longitude":"5.733320","country":"NO"},{"id":"3137169","name":"Stange","latitude":"60.718029","longitude":"11.194170","country":"NO"},{"id":"3137245","name":"Spydeberg","latitude":"59.617088","longitude":"11.085590","country":"NO"},{"id":"3137304","name":"Spetalen","latitude":"60.183331","longitude":"11.900000","country":"NO"},{"id":"3137390","name":"Sorumsand","latitude":"59.985088","longitude":"11.239810","country":"NO"},{"id":"3137405","name":"Sortland","latitude":"68.694939","longitude":"15.416180","country":"NO"},{"id":"3137971","name":"Sogne","latitude":"58.083328","longitude":"7.816670","country":"NO"},{"id":"3138423","name":"Skui","latitude":"59.927460","longitude":"10.447500","country":"NO"},{"id":"3138429","name":"Skudeneshavn","latitude":"59.148560","longitude":"5.256870","country":"NO"},{"id":"3139075","name":"Skien","latitude":"59.209621","longitude":"9.608970","country":"NO"},{"id":"3139081","name":"Ski","latitude":"59.719490","longitude":"10.835760","country":"NO"},{"id":"3139244","name":"Skarnes","latitude":"60.252838","longitude":"11.679740","country":"NO"},{"id":"3139765","name":"Setermoen","latitude":"68.860992","longitude":"18.348570","country":"NO"},{"id":"3140056","name":"Sauda","latitude":"59.650589","longitude":"6.354150","country":"NO"},{"id":"3140084","name":"Sarpsborg","latitude":"59.283909","longitude":"11.109620","country":"NO"},{"id":"3140301","name":"Sandnessjoen","latitude":"66.021660","longitude":"12.631580","country":"NO"},{"id":"3140321","name":"Sandnes","latitude":"58.852440","longitude":"5.735210","country":"NO"},{"id":"3140390","name":"Sandefjord","latitude":"59.131180","longitude":"10.216650","country":"NO"},{"id":"3140431","name":"Sandane","latitude":"61.772770","longitude":"6.214960","country":"NO"},{"id":"3140573","name":"Sagvag","latitude":"59.778610","longitude":"5.396110","country":"NO"},{"id":"3140636","name":"Saetre","latitude":"59.681671","longitude":"10.524720","country":"NO"},{"id":"3140825","name":"Rygge","latitude":"59.381729","longitude":"10.751420","country":"NO"},{"id":"3141107","name":"Royken","latitude":"59.747501","longitude":"10.393610","country":"NO"},{"id":"3141156","name":"Rotnes","latitude":"60.057072","longitude":"10.861350","country":"NO"},{"id":"3141310","name":"Rorvik","latitude":"64.862083","longitude":"11.237340","country":"NO"},{"id":"3141332","name":"Roros","latitude":"62.574680","longitude":"11.384200","country":"NO"},{"id":"3141548","name":"Rognan","latitude":"67.095284","longitude":"15.387780","country":"NO"},{"id":"3141682","name":"Rjukan","latitude":"59.878910","longitude":"8.594110","country":"NO"},{"id":"3141747","name":"Risor","latitude":"58.720570","longitude":"9.234220","country":"NO"},{"id":"3141982","name":"Rena","latitude":"61.134838","longitude":"11.364090","country":"NO"},{"id":"3142061","name":"Reinsvik","latitude":"63.099998","longitude":"7.816670","country":"NO"},{"id":"3142228","name":"Raufoss","latitude":"60.726379","longitude":"10.617180","country":"NO"},{"id":"3142520","name":"Rakkestad","latitude":"59.425129","longitude":"11.345350","country":"NO"},{"id":"3142539","name":"Raholt","latitude":"60.266670","longitude":"11.183330","country":"NO"},{"id":"3142657","name":"Porsgrunn","latitude":"59.140541","longitude":"9.656100","country":"NO"},{"id":"3143034","name":"Ovre Ardal","latitude":"61.316669","longitude":"7.800000","country":"NO"},{"id":"3143244","name":"Oslo","latitude":"59.912731","longitude":"10.746090","country":"NO"},{"id":"3143513","name":"Oppdal","latitude":"62.594311","longitude":"9.691200","country":"NO"},{"id":"3143830","name":"Odda","latitude":"60.069118","longitude":"6.545650","country":"NO"},{"id":"3144075","name":"Notodden","latitude":"59.559361","longitude":"9.258530","country":"NO"},{"id":"3144110","name":"Norheimsund","latitude":"60.370892","longitude":"6.145620","country":"NO"},{"id":"3144369","name":"Nordfjordeid","latitude":"61.906261","longitude":"5.991540","country":"NO"},{"id":"3144733","name":"Nesbyen","latitude":"60.568089","longitude":"9.102740","country":"NO"},{"id":"3144987","name":"Narvik","latitude":"68.438377","longitude":"17.427200","country":"NO"},{"id":"3145023","name":"Namsos","latitude":"64.466240","longitude":"11.495720","country":"NO"},{"id":"3145080","name":"Naerbo","latitude":"58.666672","longitude":"5.650000","country":"NO"},{"id":"3145094","name":"Mysen","latitude":"59.553539","longitude":"11.325780","country":"NO"},{"id":"3145148","name":"Myre","latitude":"69.103607","longitude":"15.949170","country":"NO"},{"id":"3145375","name":"Moss","latitude":"59.434029","longitude":"10.657710","country":"NO"},{"id":"3145386","name":"Mosjoen","latitude":"65.835991","longitude":"13.190760","country":"NO"},{"id":"3145580","name":"Molde","latitude":"62.737518","longitude":"7.159120","country":"NO"},{"id":"3145614","name":"Mo i Rana","latitude":"66.312782","longitude":"14.142780","country":"NO"},{"id":"3145689","name":"Moelv","latitude":"60.933331","longitude":"10.700000","country":"NO"},{"id":"3146125","name":"Melhus","latitude":"63.285549","longitude":"10.278060","country":"NO"},{"id":"3146160","name":"Melbu","latitude":"68.504440","longitude":"14.829720","country":"NO"},{"id":"3146270","name":"Maura","latitude":"60.250000","longitude":"11.016670","country":"NO"},{"id":"3146463","name":"Mandal","latitude":"58.027401","longitude":"7.453420","country":"NO"},{"id":"3146470","name":"Malvik","latitude":"63.433331","longitude":"10.683330","country":"NO"},{"id":"3146487","name":"Maloy","latitude":"61.935349","longitude":"5.113620","country":"NO"},{"id":"3146631","name":"Lysaker","latitude":"59.909939","longitude":"10.635450","country":"NO"},{"id":"3146684","name":"Lyngdal","latitude":"58.137600","longitude":"7.070020","country":"NO"},{"id":"3146897","name":"Loten","latitude":"60.817120","longitude":"11.337560","country":"NO"},{"id":"3146942","name":"Lopsmarka","latitude":"67.313431","longitude":"14.449340","country":"NO"},{"id":"3147026","name":"Lom","latitude":"61.833328","longitude":"8.550000","country":"NO"},{"id":"3147104","name":"Loding","latitude":"67.300003","longitude":"14.750000","country":"NO"},{"id":"3147465","name":"Lillestrom","latitude":"59.955971","longitude":"11.049180","country":"NO"},{"id":"3147467","name":"Lillesand","latitude":"58.248791","longitude":"8.377800","country":"NO"},{"id":"3147474","name":"Lillehammer","latitude":"61.115139","longitude":"10.466280","country":"NO"},{"id":"3147498","name":"Liknes","latitude":"58.319191","longitude":"6.958370","country":"NO"},{"id":"3147698","name":"Levanger","latitude":"63.746441","longitude":"11.299630","country":"NO"},{"id":"3147720","name":"Lervik","latitude":"59.266670","longitude":"10.750000","country":"NO"},{"id":"3147822","name":"Leirvik","latitude":"59.779770","longitude":"5.500510","country":"NO"},{"id":"3148129","name":"Larvik","latitude":"59.053280","longitude":"10.035170","country":"NO"},{"id":"3148602","name":"Kyrksaeterora","latitude":"63.290569","longitude":"9.089090","country":"NO"},{"id":"3149312","name":"Kristiansund","latitude":"63.110451","longitude":"7.727950","country":"NO"},{"id":"3149318","name":"Kristiansand","latitude":"58.146709","longitude":"7.995600","country":"NO"},{"id":"3149412","name":"Kragero","latitude":"58.869301","longitude":"9.414940","country":"NO"},{"id":"3149512","name":"Kopervik","latitude":"59.283539","longitude":"5.306690","country":"NO"},{"id":"3149533","name":"Kongsvinger","latitude":"60.190491","longitude":"11.997720","country":"NO"},{"id":"3149563","name":"Kongsberg","latitude":"59.668579","longitude":"9.650170","country":"NO"},{"id":"3149720","name":"Knarrviki","latitude":"60.542221","longitude":"5.288330","country":"NO"},{"id":"3149813","name":"Klofta","latitude":"60.066669","longitude":"11.150000","country":"NO"},{"id":"3150742","name":"Jorpeland","latitude":"59.022511","longitude":"6.040780","country":"NO"},{"id":"3150842","name":"Jevnaker","latitude":"60.241428","longitude":"10.385030","country":"NO"},{"id":"3150851","name":"Jessheim","latitude":"60.141510","longitude":"11.175150","country":"NO"},{"id":"3151574","name":"Hoyanger","latitude":"61.220360","longitude":"6.074940","country":"NO"},{"id":"3151719","name":"Hov","latitude":"60.698700","longitude":"10.351930","country":"NO"},{"id":"3151770","name":"Horten","latitude":"59.417210","longitude":"10.483430","country":"NO"},{"id":"3151917","name":"Honefoss","latitude":"60.168041","longitude":"10.256470","country":"NO"},{"id":"3151942","name":"Hommelvik","latitude":"63.410831","longitude":"10.794240","country":"NO"},{"id":"3152132","name":"Holmestrand","latitude":"59.487610","longitude":"10.317610","country":"NO"},{"id":"3152565","name":"Hjelmeland","latitude":"59.233330","longitude":"6.183330","country":"NO"},{"id":"3152884","name":"Hermansverk","latitude":"61.184608","longitude":"6.850160","country":"NO"},{"id":"3153623","name":"Haugesund","latitude":"59.413780","longitude":"5.268000","country":"NO"},{"id":"3153694","name":"Hauge","latitude":"58.343609","longitude":"6.281210","country":"NO"},{"id":"3153823","name":"Harstad","latitude":"68.798332","longitude":"16.541651","country":"NO"},{"id":"3153861","name":"Hareid","latitude":"62.371361","longitude":"6.026340","country":"NO"},{"id":"3154084","name":"Hamar","latitude":"60.794498","longitude":"11.067980","country":"NO"},{"id":"3154209","name":"Halden","latitude":"59.124779","longitude":"11.387540","country":"NO"},{"id":"3154539","name":"Gullhaug","latitude":"59.500000","longitude":"10.250000","country":"NO"},{"id":"3155041","name":"Grimstad","latitude":"58.340500","longitude":"8.593430","country":"NO"},{"id":"3155422","name":"Gol","latitude":"60.701401","longitude":"8.945720","country":"NO"},{"id":"3155573","name":"Gjovik","latitude":"60.795738","longitude":"10.691550","country":"NO"},{"id":"3155710","name":"Gjerdrum","latitude":"60.083328","longitude":"11.100000","country":"NO"},{"id":"3155913","name":"Geilo","latitude":"60.533310","longitude":"8.207650","country":"NO"},{"id":"3156529","name":"Fredrikstad","latitude":"59.218102","longitude":"10.929800","country":"NO"},{"id":"3156804","name":"Forde","latitude":"61.452171","longitude":"5.857170","country":"NO"},{"id":"3156980","name":"Floro","latitude":"61.599571","longitude":"5.032800","country":"NO"},{"id":"3157090","name":"Flekkefjord","latitude":"58.297050","longitude":"6.660690","country":"NO"},{"id":"3157162","name":"Flateby","latitude":"59.833328","longitude":"11.166670","country":"NO"},{"id":"3157549","name":"Finnsnes","latitude":"69.229591","longitude":"17.981140","country":"NO"},{"id":"3157679","name":"Fevik","latitude":"58.379379","longitude":"8.676580","country":"NO"},{"id":"3157686","name":"Fetsund","latitude":"59.928982","longitude":"11.162470","country":"NO"},{"id":"3157781","name":"Fauske","latitude":"67.258827","longitude":"15.391810","country":"NO"},{"id":"3157799","name":"Farsund","latitude":"58.094791","longitude":"6.804680","country":"NO"},{"id":"3157889","name":"Fagerstrand","latitude":"59.734718","longitude":"10.593060","country":"NO"},{"id":"3157977","name":"Evjen","latitude":"68.266670","longitude":"13.733330","country":"NO"},{"id":"3158300","name":"Elverum","latitude":"60.881908","longitude":"11.562310","country":"NO"},{"id":"3158792","name":"Egersund","latitude":"58.451328","longitude":"5.999700","country":"NO"},{"id":"3158960","name":"Drobak","latitude":"59.663330","longitude":"10.629750","country":"NO"},{"id":"3159016","name":"Drammen","latitude":"59.743889","longitude":"10.204490","country":"NO"},{"id":"3159143","name":"Dokka","latitude":"60.840012","longitude":"10.061800","country":"NO"},{"id":"3159822","name":"Bryne","latitude":"58.735359","longitude":"5.647660","country":"NO"},{"id":"3159894","name":"Brumunddal","latitude":"60.880951","longitude":"10.939480","country":"NO"},{"id":"3159954","name":"Bronnoysund","latitude":"65.462502","longitude":"12.199730","country":"NO"},{"id":"3160310","name":"Brattvag","latitude":"62.600151","longitude":"6.443390","country":"NO"},{"id":"3160881","name":"Bodo","latitude":"67.279999","longitude":"14.405010","country":"NO"},{"id":"3160911","name":"Bo","latitude":"59.412991","longitude":"9.069300","country":"NO"},{"id":"3161346","name":"Bjorkelangen","latitude":"59.884781","longitude":"11.569420","country":"NO"},{"id":"3161532","name":"Birkeland","latitude":"58.330910","longitude":"8.232290","country":"NO"},{"id":"3161732","name":"Bergen","latitude":"60.392990","longitude":"5.324150","country":"NO"},{"id":"3162385","name":"Aurskog","latitude":"59.916672","longitude":"11.433330","country":"NO"},{"id":"3162475","name":"Auli","latitude":"60.034500","longitude":"11.360460","country":"NO"},{"id":"3162651","name":"Askim","latitude":"59.583260","longitude":"11.162860","country":"NO"},{"id":"3162682","name":"Asgardstrand","latitude":"59.348888","longitude":"10.467500","country":"NO"},{"id":"3162797","name":"As","latitude":"59.664719","longitude":"10.794650","country":"NO"},{"id":"3162906","name":"Arnes","latitude":"60.121052","longitude":"11.466340","country":"NO"},{"id":"3162924","name":"Indre Arna","latitude":"60.424721","longitude":"5.476390","country":"NO"},{"id":"3162955","name":"Arendal","latitude":"58.461510","longitude":"8.772530","country":"NO"},{"id":"3163146","name":"Andenes","latitude":"69.314278","longitude":"16.119390","country":"NO"},{"id":"3163155","name":"Andalsnes","latitude":"62.567490","longitude":"7.687090","country":"NO"},{"id":"3163392","name":"Alesund","latitude":"62.472252","longitude":"6.154920","country":"NO"},{"id":"3163410","name":"Al","latitude":"60.628208","longitude":"8.562790","country":"NO"},{"id":"3163443","name":"Akrehamn","latitude":"59.266670","longitude":"5.183330","country":"NO"},{"id":"3205608","name":"Vormedal","latitude":"59.355000","longitude":"5.318890","country":"NO"},{"id":"3227582","name":"Hommersak","latitude":"58.931671","longitude":"5.851110","country":"NO"},{"id":"3229577","name":"Aroysund","latitude":"59.180561","longitude":"10.455000","country":"NO"},{"id":"3336585","name":"Nesoddtangen","latitude":"59.865528","longitude":"10.659400","country":"NO"},{"id":"3336587","name":"Askoy","latitude":"60.400002","longitude":"5.183330","country":"NO"},{"id":"3336588","name":"Orsta","latitude":"62.202900","longitude":"6.127220","country":"NO"},{"id":"3336590","name":"Ryggebyen","latitude":"59.375000","longitude":"10.750000","country":"NO"},{"id":"3336591","name":"Vedavagen","latitude":"59.291672","longitude":"5.233330","country":"NO"},{"id":"3345453","name":"Vestnes","latitude":"62.626438","longitude":"7.088380","country":"NO"},{"id":"6697344","name":"Ytrebygda","latitude":"60.305038","longitude":"5.282360","country":"NO"},{"id":"7280466","name":"Frosta","latitude":"63.589100","longitude":"10.742300","country":"NO"},{"id":"7288344","name":"Vik","latitude":"61.057121","longitude":"6.578060","country":"NO"},{"id":"7288345","name":"Sogndal","latitude":"61.228291","longitude":"7.100260","country":"NO"}]