[{"id":"327651","name":"Teseney","latitude":"15.110000","longitude":"36.657501","country":"ER"},{"id":"330546","name":"Massawa","latitude":"15.609720","longitude":"39.450001","country":"ER"},{"id":"333287","name":"Keren","latitude":"15.777780","longitude":"38.458061","country":"ER"},{"id":"338345","name":"Edd","latitude":"13.929720","longitude":"41.692501","country":"ER"},{"id":"339537","name":"Dekemhare","latitude":"15.070000","longitude":"39.047501","country":"ER"},{"id":"342711","name":"Barentu","latitude":"15.113890","longitude":"37.592781","country":"ER"},{"id":"343300","name":"Asmera","latitude":"15.333330","longitude":"38.933331","country":"ER"},{"id":"343386","name":"Assab","latitude":"13.009170","longitude":"42.739441","country":"ER"},{"id":"344426","name":"Akordat","latitude":"15.548610","longitude":"37.886669","country":"ER"},{"id":"344901","name":"Mendefera","latitude":"14.887220","longitude":"38.815281","country":"ER"},{"id":"345046","name":"Adi Keyh","latitude":"14.844440","longitude":"39.377220","country":"ER"}]