[{"id":"783809","name":"Zrnovci","latitude":"41.854172","longitude":"22.444441","country":"MK"},{"id":"783845","name":"Zletovo","latitude":"41.988609","longitude":"22.236111","country":"MK"},{"id":"783877","name":"Zitose","latitude":"41.420830","longitude":"21.290560","country":"MK"},{"id":"783926","name":"Zhelino","latitude":"41.980282","longitude":"21.064171","country":"MK"},{"id":"783938","name":"Zelenikovo","latitude":"41.886669","longitude":"21.586941","country":"MK"},{"id":"784027","name":"Zajas","latitude":"41.607220","longitude":"20.938330","country":"MK"},{"id":"784114","name":"Vrutok","latitude":"41.768608","longitude":"20.839170","country":"MK"},{"id":"784205","name":"Vratnica","latitude":"42.143330","longitude":"21.116940","country":"MK"},{"id":"784212","name":"Vrapciste","latitude":"41.833889","longitude":"20.885281","country":"MK"},{"id":"784424","name":"Vinica","latitude":"41.882778","longitude":"22.509171","country":"MK"},{"id":"784462","name":"Vevcani","latitude":"41.240559","longitude":"20.593330","country":"MK"},{"id":"784679","name":"Velesta","latitude":"41.240829","longitude":"20.643890","country":"MK"},{"id":"784692","name":"Vatasa","latitude":"41.416939","longitude":"22.018890","country":"MK"},{"id":"784700","name":"Vasilevo","latitude":"41.476109","longitude":"22.641670","country":"MK"},{"id":"784711","name":"Varos","latitude":"41.357220","longitude":"21.532499","country":"MK"},{"id":"784733","name":"Valandovo","latitude":"41.316940","longitude":"22.561110","country":"MK"},{"id":"784737","name":"Vaksince","latitude":"42.206108","longitude":"21.663059","country":"MK"},{"id":"785011","name":"Topolcani","latitude":"41.228611","longitude":"21.431391","country":"MK"},{"id":"785058","name":"Veles","latitude":"41.715561","longitude":"21.775560","country":"MK"},{"id":"785082","name":"Tetovo","latitude":"42.010559","longitude":"20.971390","country":"MK"},{"id":"785113","name":"Tearce","latitude":"42.074440","longitude":"21.052500","country":"MK"},{"id":"785201","name":"Sveti Nikole","latitude":"41.869560","longitude":"21.952740","country":"MK"},{"id":"785270","name":"Susica","latitude":"41.437222","longitude":"22.836390","country":"MK"},{"id":"785345","name":"Studenichani","latitude":"41.915829","longitude":"21.530560","country":"MK"},{"id":"785380","name":"Strumica","latitude":"41.437500","longitude":"22.643330","country":"MK"},{"id":"785387","name":"Struga","latitude":"41.178059","longitude":"20.676109","country":"MK"},{"id":"785466","name":"Stojakovo","latitude":"41.155560","longitude":"22.577499","country":"MK"},{"id":"785482","name":"Shtip","latitude":"41.745831","longitude":"22.195829","country":"MK"},{"id":"785515","name":"Staro Nagorichane","latitude":"42.198059","longitude":"21.828609","country":"MK"},{"id":"785537","name":"Star Dojran","latitude":"41.187500","longitude":"22.720831","country":"MK"},{"id":"785639","name":"Srbinovo","latitude":"41.705830","longitude":"20.960279","country":"MK"},{"id":"785669","name":"Sopotnica","latitude":"41.294720","longitude":"21.155001","country":"MK"},{"id":"785679","name":"Sopishte","latitude":"41.954720","longitude":"21.427500","country":"MK"},{"id":"785759","name":"Slupchane","latitude":"42.173328","longitude":"21.627781","country":"MK"},{"id":"785802","name":"Slatino","latitude":"42.067780","longitude":"21.037500","country":"MK"},{"id":"785842","name":"Skopje","latitude":"42.000000","longitude":"21.433331","country":"MK"},{"id":"785881","name":"Sipkovica","latitude":"42.035000","longitude":"20.915560","country":"MK"},{"id":"786005","name":"Selce","latitude":"42.034721","longitude":"20.939720","country":"MK"},{"id":"786093","name":"Saraj","latitude":"42.000000","longitude":"21.327780","country":"MK"},{"id":"786171","name":"Rusinovo","latitude":"41.683331","longitude":"22.808331","country":"MK"},{"id":"786238","name":"Rostusha","latitude":"41.610001","longitude":"20.600000","country":"MK"},{"id":"786239","name":"Rosoman","latitude":"41.516109","longitude":"21.949720","country":"MK"},{"id":"786251","name":"Romanovce","latitude":"42.094719","longitude":"21.693060","country":"MK"},{"id":"786341","name":"Resen","latitude":"41.088890","longitude":"21.012220","country":"MK"},{"id":"786477","name":"Rankovce","latitude":"42.169640","longitude":"22.116171","country":"MK"},{"id":"786565","name":"Radovish","latitude":"41.638329","longitude":"22.464720","country":"MK"},{"id":"786582","name":"Radolishta","latitude":"41.164169","longitude":"20.623329","country":"MK"},{"id":"786595","name":"Radishani","latitude":"42.061111","longitude":"21.447781","country":"MK"},{"id":"786674","name":"Prsovce","latitude":"42.083611","longitude":"21.061390","country":"MK"},{"id":"786700","name":"Probishtip","latitude":"42.003059","longitude":"22.178610","country":"MK"},{"id":"786735","name":"Prilep","latitude":"41.346390","longitude":"21.554440","country":"MK"},{"id":"786969","name":"Podares","latitude":"41.613892","longitude":"22.542219","country":"MK"},{"id":"787016","name":"Plasnica","latitude":"41.467220","longitude":"21.123060","country":"MK"},{"id":"787052","name":"Pirok","latitude":"41.910831","longitude":"20.910561","country":"MK"},{"id":"787072","name":"Petrovec","latitude":"41.938889","longitude":"21.615000","country":"MK"},{"id":"787147","name":"Pehcevo","latitude":"41.759441","longitude":"22.890560","country":"MK"},{"id":"787301","name":"Otlja","latitude":"42.143890","longitude":"21.587780","country":"MK"},{"id":"787416","name":"Orizari","latitude":"41.922779","longitude":"22.446939","country":"MK"},{"id":"787448","name":"Oraovica","latitude":"41.625832","longitude":"22.513330","country":"MK"},{"id":"787475","name":"Oktisi","latitude":"41.232498","longitude":"20.607220","country":"MK"},{"id":"787487","name":"Ohrid","latitude":"41.117222","longitude":"20.801941","country":"MK"},{"id":"787526","name":"Obleshevo","latitude":"41.883331","longitude":"22.333891","country":"MK"},{"id":"787574","name":"Novo Selo","latitude":"41.413891","longitude":"22.881109","country":"MK"},{"id":"787624","name":"Novaci","latitude":"41.041939","longitude":"21.456110","country":"MK"},{"id":"787692","name":"Nerashte","latitude":"42.106670","longitude":"21.108891","country":"MK"},{"id":"787715","name":"Negotino","latitude":"41.878609","longitude":"20.883890","country":"MK"},{"id":"787716","name":"Negotino","latitude":"41.483891","longitude":"22.089170","country":"MK"},{"id":"787772","name":"Murtino","latitude":"41.415279","longitude":"22.726669","country":"MK"},{"id":"787778","name":"Demir Hisar","latitude":"41.221668","longitude":"21.203060","country":"MK"},{"id":"787877","name":"Mogila","latitude":"41.108330","longitude":"21.378611","country":"MK"},{"id":"787902","name":"Misleshevo","latitude":"41.185001","longitude":"20.708611","country":"MK"},{"id":"787928","name":"Miravci","latitude":"41.307781","longitude":"22.434999","country":"MK"},{"id":"788021","name":"Meseista","latitude":"41.238609","longitude":"20.776670","country":"MK"},{"id":"788105","name":"Matejche","latitude":"42.125561","longitude":"21.597780","country":"MK"},{"id":"788145","name":"Marino","latitude":"41.993061","longitude":"21.591110","country":"MK"},{"id":"788516","name":"Lojane","latitude":"42.233330","longitude":"21.665001","country":"MK"},{"id":"788654","name":"Lipkovo","latitude":"42.156391","longitude":"21.585279","country":"MK"},{"id":"788774","name":"Lazani","latitude":"41.442219","longitude":"21.315830","country":"MK"},{"id":"788819","name":"Labunishta","latitude":"41.268608","longitude":"20.596109","country":"MK"},{"id":"788886","name":"Kumanovo","latitude":"42.132221","longitude":"21.714439","country":"MK"},{"id":"788906","name":"Kukurecani","latitude":"41.095558","longitude":"21.325560","country":"MK"},{"id":"788915","name":"Kuklish","latitude":"41.405281","longitude":"22.665279","country":"MK"},{"id":"788961","name":"Krushevo","latitude":"41.368889","longitude":"21.248890","country":"MK"},{"id":"789028","name":"Krivogashtani","latitude":"41.336109","longitude":"21.333059","country":"MK"},{"id":"789045","name":"Kriva Palanka","latitude":"42.201939","longitude":"22.331940","country":"MK"},{"id":"789091","name":"Kratovo","latitude":"42.079170","longitude":"22.181391","country":"MK"},{"id":"789339","name":"Kondovo","latitude":"42.011669","longitude":"21.313610","country":"MK"},{"id":"789342","name":"Konce","latitude":"41.495831","longitude":"22.385000","country":"MK"},{"id":"789403","name":"Kochani","latitude":"41.916389","longitude":"22.412781","country":"MK"},{"id":"789527","name":"Kicevo","latitude":"41.514439","longitude":"20.963329","country":"MK"},{"id":"789541","name":"Kavadarci","latitude":"41.433060","longitude":"22.011940","country":"MK"},{"id":"789563","name":"Karbinci","latitude":"41.816669","longitude":"22.237499","country":"MK"},{"id":"789611","name":"Kamenjane","latitude":"41.944439","longitude":"20.926670","country":"MK"},{"id":"789629","name":"Makedonska Kamenica","latitude":"42.020000","longitude":"22.591940","country":"MK"},{"id":"789734","name":"Jurumleri","latitude":"41.967220","longitude":"21.556940","country":"MK"},{"id":"789822","name":"Jegunovce","latitude":"42.073608","longitude":"21.123610","country":"MK"},{"id":"790018","name":"Ilovica","latitude":"41.470558","longitude":"22.798611","country":"MK"},{"id":"790034","name":"Idrizovo","latitude":"41.960831","longitude":"21.575560","country":"MK"},{"id":"790217","name":"Gradsko","latitude":"41.577499","longitude":"21.942780","country":"MK"},{"id":"790248","name":"Gradec","latitude":"41.896111","longitude":"20.904169","country":"MK"},{"id":"790295","name":"Gostivar","latitude":"41.797218","longitude":"20.908331","country":"MK"},{"id":"790319","name":"Gorno Orizari","latitude":"41.685829","longitude":"21.733610","country":"MK"},{"id":"790320","name":"Gorno Orizari","latitude":"41.051109","longitude":"21.346939","country":"MK"},{"id":"790634","name":"Golema Recica","latitude":"41.990280","longitude":"20.945829","country":"MK"},{"id":"790744","name":"Gevgelija","latitude":"41.139172","longitude":"22.502501","country":"MK"},{"id":"790812","name":"Forino","latitude":"41.824169","longitude":"20.962500","country":"MK"},{"id":"790848","name":"Lozovo","latitude":"41.783890","longitude":"21.905560","country":"MK"},{"id":"790857","name":"Dzepciste","latitude":"42.032780","longitude":"21.000000","country":"MK"},{"id":"791009","name":"Drugovo","latitude":"41.484169","longitude":"20.923330","country":"MK"},{"id":"791332","name":"Dolno Palciste","latitude":"41.968060","longitude":"20.926109","country":"MK"},{"id":"791363","name":"Dolneni","latitude":"41.425282","longitude":"21.454720","country":"MK"},{"id":"791371","name":"Dolna Banjica","latitude":"41.786110","longitude":"20.906111","country":"MK"},{"id":"791407","name":"Dobrusevo","latitude":"41.168610","longitude":"21.482500","country":"MK"},{"id":"791419","name":"Dobroste","latitude":"42.103329","longitude":"21.077780","country":"MK"},{"id":"791443","name":"Dobri Dol","latitude":"41.865829","longitude":"20.887501","country":"MK"},{"id":"791542","name":"Demir Kapija","latitude":"41.404999","longitude":"22.248890","country":"MK"},{"id":"791548","name":"Delogozda","latitude":"41.257221","longitude":"20.723610","country":"MK"},{"id":"791559","name":"Delchevo","latitude":"41.967220","longitude":"22.769440","country":"MK"},{"id":"791606","name":"Debar","latitude":"41.525002","longitude":"20.527500","country":"MK"},{"id":"791720","name":"Chucher - Sandevo","latitude":"42.103611","longitude":"21.382219","country":"MK"},{"id":"791954","name":"Cesinovo","latitude":"41.871391","longitude":"22.289169","country":"MK"},{"id":"792007","name":"Celopek","latitude":"41.931671","longitude":"21.013330","country":"MK"},{"id":"792019","name":"Chegrane","latitude":"41.838890","longitude":"20.975830","country":"MK"},{"id":"792034","name":"Caska","latitude":"41.650558","longitude":"21.662220","country":"MK"},{"id":"792227","name":"Brvenica","latitude":"41.967220","longitude":"20.980829","country":"MK"},{"id":"792257","name":"Makedonski Brod","latitude":"41.513611","longitude":"21.215281","country":"MK"},{"id":"792419","name":"Bosilovo","latitude":"41.440559","longitude":"22.727779","country":"MK"},{"id":"792501","name":"Bogovinje","latitude":"41.923611","longitude":"20.913610","country":"MK"},{"id":"792523","name":"Bogdanci","latitude":"41.203060","longitude":"22.575560","country":"MK"},{"id":"792553","name":"Blatec","latitude":"41.837780","longitude":"22.578060","country":"MK"},{"id":"792578","name":"Bitola","latitude":"41.031109","longitude":"21.340281","country":"MK"},{"id":"792592","name":"Bistrica","latitude":"40.983330","longitude":"21.366671","country":"MK"},{"id":"792656","name":"Berovo","latitude":"41.703060","longitude":"22.857780","country":"MK"},{"id":"792767","name":"Belcista","latitude":"41.302780","longitude":"20.830280","country":"MK"},{"id":"792809","name":"Bedinje","latitude":"42.141670","longitude":"21.696390","country":"MK"},{"id":"792835","name":"Batinci","latitude":"41.919720","longitude":"21.481939","country":"MK"},{"id":"793113","name":"Arachinovo","latitude":"42.026390","longitude":"21.561939","country":"MK"},{"id":"795062","name":"Poroj","latitude":"42.030830","longitude":"20.992500","country":"MK"},{"id":"833357","name":"Ilinden","latitude":"41.996109","longitude":"21.582220","country":"MK"}]