[{"id":"1282027","name":"Male","latitude":"4.174800","longitude":"73.508881","country":"MV"},{"id":"1282256","name":"Hithadhoo","latitude":"-0.600000","longitude":"73.083328","country":"MV"},{"id":"1337605","name":"Mahibadhoo","latitude":"3.783330","longitude":"72.966667","country":"MV"},{"id":"1337606","name":"Eydhafushi","latitude":"5.103270","longitude":"73.070778","country":"MV"},{"id":"1337610","name":"Thinadhoo","latitude":"0.533330","longitude":"72.933327","country":"MV"},{"id":"1337612","name":"Dhidhdhoo","latitude":"6.883330","longitude":"73.099998","country":"MV"},{"id":"1337613","name":"Kulhudhuffushi","latitude":"6.622070","longitude":"73.069977","country":"MV"},{"id":"1337616","name":"Naifaru","latitude":"5.444380","longitude":"73.365707","country":"MV"},{"id":"7910632","name":"Vilufushi","latitude":"2.503060","longitude":"73.308594","country":"MV"}]