[{"id":"162627","name":"Yabrud","latitude":"33.967361","longitude":"36.657410","country":"SY"},{"id":"163270","name":"Tayyibat al Imam","latitude":"35.265480","longitude":"36.710621","country":"SY"},{"id":"163345","name":"Tartouss","latitude":"34.889019","longitude":"35.886589","country":"SY"},{"id":"163476","name":"Tall Rifat","latitude":"36.473621","longitude":"37.096722","country":"SY"},{"id":"163533","name":"Tall Kalakh","latitude":"34.668419","longitude":"36.259949","country":"SY"},{"id":"163779","name":"Tallbisah","latitude":"34.840630","longitude":"36.730930","country":"SY"},{"id":"163806","name":"Tafas","latitude":"32.735641","longitude":"36.066940","country":"SY"},{"id":"163808","name":"Tadmur","latitude":"34.560768","longitude":"38.280548","country":"SY"},{"id":"163811","name":"Tadif","latitude":"36.348141","longitude":"37.530899","country":"SY"},{"id":"163915","name":"Souran","latitude":"35.291592","longitude":"36.748760","country":"SY"},{"id":"164025","name":"Subaykhan","latitude":"34.854439","longitude":"40.608330","country":"SY"},{"id":"164328","name":"Shaykh Miskin","latitude":"32.829441","longitude":"36.159328","country":"SY"},{"id":"164626","name":"Shahba","latitude":"32.855141","longitude":"36.628960","country":"SY"},{"id":"164816","name":"Saraqib","latitude":"35.864471","longitude":"36.805908","country":"SY"},{"id":"164898","name":"Salqin","latitude":"36.138088","longitude":"36.453220","country":"SY"},{"id":"164947","name":"Salamiyah","latitude":"35.011269","longitude":"37.053242","country":"SY"},{"id":"164952","name":"Salakhid","latitude":"32.872711","longitude":"36.572708","country":"SY"},{"id":"165060","name":"Satita","latitude":"34.818359","longitude":"36.113762","country":"SY"},{"id":"165929","name":"Qatana","latitude":"33.435440","longitude":"36.081478","country":"SY"},{"id":"165997","name":"Jasim","latitude":"32.992329","longitude":"36.060181","country":"SY"},{"id":"166111","name":"Qarah","latitude":"34.152699","longitude":"36.741520","country":"SY"},{"id":"166331","name":"Nubl","latitude":"36.377102","longitude":"36.992378","country":"SY"},{"id":"166719","name":"Mukharram al Fawqani","latitude":"34.815060","longitude":"37.086140","country":"SY"},{"id":"167046","name":"Masyaf","latitude":"35.065300","longitude":"36.340599","country":"SY"},{"id":"167357","name":"Manbij","latitude":"36.528149","longitude":"37.954948","country":"SY"},{"id":"167375","name":"Malula","latitude":"33.844200","longitude":"36.546890","country":"SY"},{"id":"167605","name":"Maarrat Misrin","latitude":"36.013371","longitude":"36.672539","country":"SY"},{"id":"168325","name":"Khan Shaykhun","latitude":"35.440632","longitude":"36.649948","country":"SY"},{"id":"168620","name":"Kafr Zaytah","latitude":"35.374489","longitude":"36.602982","country":"SY"},{"id":"168629","name":"Kafr Takharim","latitude":"36.116840","longitude":"36.515282","country":"SY"},{"id":"168661","name":"Kafr Nabl","latitude":"35.613762","longitude":"36.564491","country":"SY"},{"id":"168668","name":"Kafr Laha","latitude":"34.894691","longitude":"36.495819","country":"SY"},{"id":"169023","name":"Jisr ash Shughur","latitude":"35.814259","longitude":"36.320621","country":"SY"},{"id":"169113","name":"Jayrud","latitude":"33.807400","longitude":"36.740360","country":"SY"},{"id":"169179","name":"Jarabulus","latitude":"36.817501","longitude":"38.011108","country":"SY"},{"id":"169304","name":"Jablah","latitude":"35.361370","longitude":"35.925621","country":"SY"},{"id":"169341","name":"Izra","latitude":"32.870602","longitude":"36.254532","country":"SY"},{"id":"169372","name":"Irbin","latitude":"33.539940","longitude":"36.367161","country":"SY"},{"id":"169375","name":"Inkhil","latitude":"33.017971","longitude":"36.128059","country":"SY"},{"id":"169389","name":"Idlib","latitude":"35.930618","longitude":"36.633930","country":"SY"},{"id":"169577","name":"Homs","latitude":"34.726822","longitude":"36.723389","country":"SY"},{"id":"169897","name":"Hirista","latitude":"33.558990","longitude":"36.364319","country":"SY"},{"id":"170017","name":"Hamah","latitude":"35.131790","longitude":"36.757832","country":"SY"},{"id":"170044","name":"Halfaya","latitude":"35.259949","longitude":"36.605721","country":"SY"},{"id":"170063","name":"Aleppo","latitude":"36.201241","longitude":"37.161171","country":"SY"},{"id":"170572","name":"Duraykish","latitude":"34.896721","longitude":"36.132919","country":"SY"},{"id":"170592","name":"Douma","latitude":"33.571751","longitude":"36.402699","country":"SY"},{"id":"170654","name":"Damascus","latitude":"33.510201","longitude":"36.291279","country":"SY"},{"id":"170785","name":"Dayr Hafir","latitude":"36.156940","longitude":"37.707779","country":"SY"},{"id":"170794","name":"Dayr az Zawr","latitude":"35.335880","longitude":"40.140839","country":"SY"},{"id":"170887","name":"Ad Darbasiyah","latitude":"37.072788","longitude":"40.651989","country":"SY"},{"id":"170892","name":"Darayya","latitude":"33.458969","longitude":"36.237419","country":"SY"},{"id":"171451","name":"Binnish","latitude":"35.955540","longitude":"36.713928","country":"SY"},{"id":"171830","name":"Baniyas","latitude":"35.181881","longitude":"35.948711","country":"SY"},{"id":"172059","name":"Az Zabadani","latitude":"33.724880","longitude":"36.100498","country":"SY"},{"id":"172082","name":"Izaz","latitude":"36.586620","longitude":"37.046280","country":"SY"},{"id":"172349","name":"At Tall","latitude":"33.610329","longitude":"36.310699","country":"SY"},{"id":"172374","name":"Thawrah","latitude":"35.846882","longitude":"38.544270","country":"SY"},{"id":"172408","name":"As Suwayda","latitude":"32.708961","longitude":"36.569511","country":"SY"},{"id":"172469","name":"Sanamayn","latitude":"33.072269","longitude":"36.183819","country":"SY"},{"id":"172503","name":"Safirah","latitude":"36.076962","longitude":"37.372509","country":"SY"},{"id":"172946","name":"Ar Rastan","latitude":"34.926529","longitude":"36.732380","country":"SY"},{"id":"172955","name":"Ar Raqqah","latitude":"35.950001","longitude":"39.016670","country":"SY"},{"id":"173193","name":"An Nabk","latitude":"34.025471","longitude":"36.728371","country":"SY"},{"id":"173312","name":"Al Qutayfah","latitude":"33.738480","longitude":"36.600712","country":"SY"},{"id":"173322","name":"Al Qusayr","latitude":"34.509140","longitude":"36.579750","country":"SY"},{"id":"173334","name":"Al Qunaytirah","latitude":"33.125938","longitude":"35.824612","country":"SY"},{"id":"173361","name":"Al Qaryatayn","latitude":"34.229561","longitude":"37.240662","country":"SY"},{"id":"173480","name":"Mayadin","latitude":"35.020889","longitude":"40.453461","country":"SY"},{"id":"173576","name":"Latakia","latitude":"35.514839","longitude":"35.776840","country":"SY"},{"id":"173598","name":"Al Kiswah","latitude":"33.357201","longitude":"36.242779","country":"SY"},{"id":"173811","name":"Al Hasakah","latitude":"36.502369","longitude":"40.747719","country":"SY"},{"id":"173819","name":"Al Harak","latitude":"32.749321","longitude":"36.309940","country":"SY"},{"id":"174018","name":"Al Bab","latitude":"36.369942","longitude":"37.517879","country":"SY"},{"id":"174186","name":"Afrin","latitude":"36.515980","longitude":"36.863049","country":"SY"},{"id":"174259","name":"Ad Dana","latitude":"36.212521","longitude":"36.769779","country":"SY"},{"id":"174448","name":"Albu Kamal","latitude":"34.450001","longitude":"40.918610","country":"SY"},{"id":"174506","name":"Hajin","latitude":"34.692699","longitude":"40.827000","country":"SY"},{"id":"6943439","name":null,"latitude":"35.086380","longitude":"36.206051","country":"SY"}]