[{"id":"290104","name":"Sitrah","latitude":"26.154720","longitude":"50.620560","country":"BH"},{"id":"290187","name":"Madinat Isa","latitude":"26.173611","longitude":"50.547779","country":"BH"},{"id":"290215","name":"Jidd Hafs","latitude":"26.218611","longitude":"50.547779","country":"BH"},{"id":"290247","name":"Madinat Hamad","latitude":"26.115280","longitude":"50.506939","country":"BH"},{"id":"290269","name":"Dar Kulayb","latitude":"26.068609","longitude":"50.503891","country":"BH"},{"id":"290332","name":"Al Muharraq","latitude":"26.257219","longitude":"50.611938","country":"BH"},{"id":"290340","name":"Manama","latitude":"26.215361","longitude":"50.583199","country":"BH"},{"id":"290363","name":"Al Hadd","latitude":"26.245560","longitude":"50.654171","country":"BH"},{"id":"385038","name":"Ar Rifa","latitude":"26.129999","longitude":"50.555000","country":"BH"}]