[{"id":"2526435","name":"Zaio","latitude":"34.942822","longitude":"-2.732900","country":"MA"},{"id":"2526452","name":"Zagora","latitude":"30.332411","longitude":"-5.838400","country":"MA"},{"id":"2526488","name":"Youssoufia","latitude":"32.246342","longitude":"-8.529410","country":"MA"},{"id":"2527089","name":"Tiznit","latitude":"29.697420","longitude":"-9.731620","country":"MA"},{"id":"2527645","name":"Tirhanimine","latitude":"35.236191","longitude":"-3.954530","country":"MA"},{"id":"2527915","name":"Tineghir","latitude":"31.515711","longitude":"-5.534280","country":"MA"},{"id":"2528659","name":"Tiflet","latitude":"33.894691","longitude":"-6.306500","country":"MA"},{"id":"2528910","name":"Tetouan","latitude":"35.571091","longitude":"-5.372420","country":"MA"},{"id":"2529317","name":"Taza","latitude":"34.209999","longitude":"-4.010000","country":"MA"},{"id":"2529649","name":"Taroudant","latitude":"30.470280","longitude":"-8.876950","country":"MA"},{"id":"2529923","name":"Tarfaya","latitude":"27.935780","longitude":"-12.921840","country":"MA"},{"id":"2530048","name":"Taourirt","latitude":"34.407299","longitude":"-2.897320","country":"MA"},{"id":"2530155","name":"Taounate","latitude":"34.538219","longitude":"-4.641430","country":"MA"},{"id":"2530241","name":"Tan-Tan","latitude":"28.437990","longitude":"-11.103210","country":"MA"},{"id":"2530335","name":"Tangier","latitude":"35.780579","longitude":"-5.813650","country":"MA"},{"id":"2531480","name":"Tahala","latitude":"34.048450","longitude":"-4.427950","country":"MA"},{"id":"2531877","name":"Tafraout","latitude":"29.724489","longitude":"-8.974700","country":"MA"},{"id":"2532394","name":"Souq Larba al Gharb","latitude":"34.686642","longitude":"-6.002720","country":"MA"},{"id":"2532822","name":"Sidi Yahia el Gharb","latitude":"34.306519","longitude":"-6.306180","country":"MA"},{"id":"2532918","name":"Sidi Smail","latitude":"32.822681","longitude":"-8.508100","country":"MA"},{"id":"2532945","name":"Sidi Slimane","latitude":"34.264778","longitude":"-5.925980","country":"MA"},{"id":"2533191","name":"Sidi Qacem","latitude":"34.221489","longitude":"-5.707750","country":"MA"},{"id":"2534515","name":"Sidi Ifni","latitude":"29.379749","longitude":"-10.172990","country":"MA"},{"id":"2536074","name":"Sidi Bennour","latitude":"32.652359","longitude":"-8.427690","country":"MA"},{"id":"2537406","name":"Settat","latitude":"33.000702","longitude":"-7.620350","country":"MA"},{"id":"2537545","name":"Sefrou","latitude":"33.831860","longitude":"-4.828000","country":"MA"},{"id":"2537763","name":"Sale","latitude":"34.038921","longitude":"-6.816600","country":"MA"},{"id":"2537881","name":"Safi","latitude":"32.299389","longitude":"-9.237180","country":"MA"},{"id":"2538475","name":"Rabat","latitude":"34.013248","longitude":"-6.832550","country":"MA"},{"id":"2539134","name":"Oulad Teima","latitude":"30.394670","longitude":"-9.208970","country":"MA"},{"id":"2540483","name":"Oujda","latitude":"34.680519","longitude":"-1.907640","country":"MA"},{"id":"2540689","name":"Oued Zem","latitude":"32.862701","longitude":"-6.573590","country":"MA"},{"id":"2540810","name":"Ouazzane","latitude":"34.797112","longitude":"-5.582240","country":"MA"},{"id":"2540850","name":"Ouarzazat","latitude":"30.918940","longitude":"-6.893410","country":"MA"},{"id":"2541210","name":"Nouaseur","latitude":"33.380199","longitude":"-7.621050","country":"MA"},{"id":"2541479","name":"Nador","latitude":"35.174042","longitude":"-2.928660","country":"MA"},{"id":"2542051","name":"Mohammedia","latitude":"33.706589","longitude":"-7.394420","country":"MA"},{"id":"2542227","name":"Midelt","latitude":"32.685200","longitude":"-4.745120","country":"MA"},{"id":"2542715","name":"Meknes","latitude":"33.893520","longitude":"-5.547270","country":"MA"},{"id":"2542866","name":"Mechra Belqsiri","latitude":"34.573959","longitude":"-5.953720","country":"MA"},{"id":"2542987","name":"Martil","latitude":"35.616619","longitude":"-5.275220","country":"MA"},{"id":"2542997","name":"Marrakesh","latitude":"31.631479","longitude":"-8.008280","country":"MA"},{"id":"2543394","name":"Ifrane","latitude":"31.702169","longitude":"-6.349400","country":"MA"},{"id":"2543549","name":"Larache","latitude":"35.193211","longitude":"-6.155720","country":"MA"},{"id":"2544001","name":"Ksar el Kebir","latitude":"35.001740","longitude":"-5.905340","country":"MA"},{"id":"2544248","name":"Khouribga","latitude":"32.881081","longitude":"-6.906300","country":"MA"},{"id":"2544333","name":"Khenifra","latitude":"32.939098","longitude":"-5.668600","country":"MA"},{"id":"2544571","name":"Kenitra","latitude":"34.261009","longitude":"-6.580200","country":"MA"},{"id":"2544720","name":"Kasba Tadla","latitude":"32.597698","longitude":"-6.268440","country":"MA"},{"id":"2545017","name":"Jerada","latitude":"34.310001","longitude":"-2.160000","country":"MA"},{"id":"2545985","name":"Imzourene","latitude":"35.150002","longitude":"-3.860000","country":"MA"},{"id":"2548489","name":"Guercif","latitude":"34.225681","longitude":"-3.353610","country":"MA"},{"id":"2548526","name":"Guelmim","latitude":"28.986959","longitude":"-10.057380","country":"MA"},{"id":"2548830","name":"Fkih Ben Salah","latitude":"32.500931","longitude":"-6.690620","country":"MA"},{"id":"2548851","name":"Figuig (Centre)","latitude":"32.108910","longitude":"-1.228550","country":"MA"},{"id":"2548885","name":"Fes","latitude":"34.037151","longitude":"-4.999800","country":"MA"},{"id":"2549263","name":"Essaouira","latitude":"31.512501","longitude":"-9.770000","country":"MA"},{"id":"2550078","name":"El Jadida","latitude":"33.254921","longitude":"-8.506020","country":"MA"},{"id":"2550252","name":"El Hajeb","latitude":"33.687859","longitude":"-5.371000","country":"MA"},{"id":"2550806","name":"El Aioun","latitude":"34.583191","longitude":"-2.506120","country":"MA"},{"id":"2553455","name":"Chefchaouene","latitude":"35.168781","longitude":"-5.263600","country":"MA"},{"id":"2553604","name":"Casablanca","latitude":"33.592781","longitude":"-7.619160","country":"MA"},{"id":"2553751","name":"Bouznika","latitude":"33.789421","longitude":"-7.159680","country":"MA"},{"id":"2555467","name":"Berkane","latitude":"34.919998","longitude":"-2.320000","country":"MA"},{"id":"2555745","name":"Beni Mellal","latitude":"32.337250","longitude":"-6.349840","country":"MA"},{"id":"2556272","name":"Berrechid","latitude":"33.265530","longitude":"-7.587540","country":"MA"},{"id":"2556464","name":"Azrou","latitude":"33.434429","longitude":"-5.221260","country":"MA"},{"id":"2556657","name":"Azemmour","latitude":"33.289520","longitude":"-8.342500","country":"MA"},{"id":"2557055","name":"Asilah","latitude":"35.465019","longitude":"-6.034800","country":"MA"},{"id":"2558470","name":"Khemisset","latitude":"33.824039","longitude":"-6.066270","country":"MA"},{"id":"2561124","name":"Ahfir","latitude":"34.953678","longitude":"-2.100270","country":"MA"},{"id":"2561668","name":"Agadir","latitude":"30.420179","longitude":"-9.598150","country":"MA"},{"id":"2562055","name":"Skhirat","latitude":"33.849838","longitude":"-7.040370","country":"MA"},{"id":"2565267","name":"Mhamid","latitude":"29.820000","longitude":"-5.720000","country":"MA"},{"id":"6546693","name":"Boujniba","latitude":"32.900459","longitude":"-6.774640","country":"MA"}]