[{"id":"662114","name":"Ghioca","latitude":"44.316669","longitude":"24.733330","country":"RO"},{"id":"662118","name":"Zvoristea","latitude":"47.833328","longitude":"26.283331","country":"RO"},{"id":"662130","name":"Zorleni","latitude":"46.266670","longitude":"27.716669","country":"RO"},{"id":"662161","name":"Zlatna","latitude":"46.116669","longitude":"23.216669","country":"RO"},{"id":"662187","name":"Zimnicea","latitude":"43.666672","longitude":"25.366671","country":"RO"},{"id":"662197","name":"Zimandu Nou","latitude":"46.283329","longitude":"21.400000","country":"RO"},{"id":"662204","name":"Ziduri","latitude":"45.299999","longitude":"27.083330","country":"RO"},{"id":"662217","name":"Zetea","latitude":"46.383331","longitude":"25.366671","country":"RO"},{"id":"662225","name":"Zemes","latitude":"46.583328","longitude":"26.416670","country":"RO"},{"id":"662254","name":"Zavoi","latitude":"45.516670","longitude":"22.416670","country":"RO"},{"id":"662259","name":"Zavoaia","latitude":"44.950001","longitude":"27.483330","country":"RO"},{"id":"662274","name":"Zatreni","latitude":"44.766670","longitude":"23.850000","country":"RO"},{"id":"662285","name":"Zarnesti","latitude":"45.299999","longitude":"26.866671","country":"RO"},{"id":"662293","name":"Zarand","latitude":"46.400002","longitude":"21.650000","country":"RO"},{"id":"662302","name":"Zapodeni","latitude":"46.750000","longitude":"27.650000","country":"RO"},{"id":"662315","name":"Zanesti","latitude":"46.816669","longitude":"26.549999","country":"RO"},{"id":"662317","name":"Zamostea","latitude":"47.866669","longitude":"26.200001","country":"RO"},{"id":"662327","name":"Zam","latitude":"46.000000","longitude":"22.450001","country":"RO"},{"id":"662334","name":"Zalau","latitude":"47.200001","longitude":"23.049999","country":"RO"},{"id":"662349","name":"Zagra","latitude":"47.333328","longitude":"24.283331","country":"RO"},{"id":"662352","name":"Zagon","latitude":"45.766670","longitude":"26.116671","country":"RO"},{"id":"662366","name":"Zabrani","latitude":"46.066669","longitude":"21.549999","country":"RO"},{"id":"662373","name":"Zabala","latitude":"45.900002","longitude":"26.183331","country":"RO"},{"id":"662376","name":"Vutcani","latitude":"46.466671","longitude":"27.966669","country":"RO"},{"id":"662379","name":"Vurpar","latitude":"46.000000","longitude":"23.466669","country":"RO"},{"id":"662380","name":"Vurpar","latitude":"45.900002","longitude":"24.350000","country":"RO"},{"id":"662382","name":"Vulturu de Sus","latitude":"45.616669","longitude":"27.416670","country":"RO"},{"id":"662394","name":"Vulturesti","latitude":"47.516670","longitude":"26.450001","country":"RO"},{"id":"662395","name":"Vulturesti","latitude":"46.816669","longitude":"27.533331","country":"RO"},{"id":"662397","name":"Vulturesti","latitude":"44.733330","longitude":"24.316669","country":"RO"},{"id":"662401","name":"Vultureni","latitude":"46.366669","longitude":"27.283331","country":"RO"},{"id":"662412","name":"Vulpeni","latitude":"44.466671","longitude":"23.916670","country":"RO"},{"id":"662424","name":"Vulcana Bai","latitude":"45.083328","longitude":"25.383329","country":"RO"},{"id":"662431","name":"Vulcan","latitude":"45.633331","longitude":"25.416670","country":"RO"},{"id":"662432","name":"Vulcan","latitude":"45.383331","longitude":"23.266670","country":"RO"},{"id":"662437","name":"Vrancioaia","latitude":"45.849998","longitude":"26.733330","country":"RO"},{"id":"662455","name":"Voslobeni","latitude":"46.650002","longitude":"25.633329","country":"RO"},{"id":"662463","name":"Vorona Teodoru","latitude":"47.549999","longitude":"26.600000","country":"RO"},{"id":"662473","name":"Vorniceni","latitude":"47.983330","longitude":"26.666670","country":"RO"},{"id":"662476","name":"Voluntari","latitude":"44.466671","longitude":"26.133329","country":"RO"},{"id":"662478","name":"Volovat","latitude":"47.816669","longitude":"25.900000","country":"RO"},{"id":"662486","name":"Voloiacu","latitude":"44.616669","longitude":"23.100000","country":"RO"},{"id":"662498","name":"Voivodeni","latitude":"46.700001","longitude":"24.633329","country":"RO"},{"id":"662508","name":"Voiteg","latitude":"45.468891","longitude":"21.239170","country":"RO"},{"id":"662516","name":"Voinesti","latitude":"47.066669","longitude":"27.416670","country":"RO"},{"id":"662518","name":"Voinesti","latitude":"46.566669","longitude":"27.416670","country":"RO"},{"id":"662521","name":"Voinesti","latitude":"45.066669","longitude":"25.250000","country":"RO"},{"id":"662531","name":"Voineasa","latitude":"44.283329","longitude":"24.133329","country":"RO"},{"id":"662533","name":"Voila","latitude":"45.816669","longitude":"24.850000","country":"RO"},{"id":"662553","name":"Vlasinesti","latitude":"47.933331","longitude":"26.883329","country":"RO"},{"id":"662570","name":"Vlahita","latitude":"46.349998","longitude":"25.516670","country":"RO"},{"id":"662583","name":"Vlad Tepes","latitude":"44.349998","longitude":"27.083330","country":"RO"},{"id":"662598","name":"Vladimiru","latitude":"44.833328","longitude":"23.566669","country":"RO"},{"id":"662600","name":"Vladimirescu","latitude":"46.150002","longitude":"21.400000","country":"RO"},{"id":"662605","name":"Vladila","latitude":"44.000000","longitude":"24.400000","country":"RO"},{"id":"662620","name":"Vladesti","latitude":"45.849998","longitude":"28.083330","country":"RO"},{"id":"662622","name":"Vladesti","latitude":"45.116669","longitude":"24.299999","country":"RO"},{"id":"662635","name":"Vladeni","latitude":"47.716671","longitude":"26.516670","country":"RO"},{"id":"662636","name":"Vladeni","latitude":"47.416672","longitude":"27.333330","country":"RO"},{"id":"662640","name":"Vladeni","latitude":"44.616669","longitude":"27.883329","country":"RO"},{"id":"662645","name":"Vladaia","latitude":"44.349998","longitude":"23.033331","country":"RO"},{"id":"662651","name":"Viziru","latitude":"45.016670","longitude":"27.700001","country":"RO"},{"id":"662655","name":"Vizantea-Manastireasca","latitude":"45.983330","longitude":"26.783331","country":"RO"},{"id":"662658","name":"Vitomiresti","latitude":"44.866669","longitude":"24.400000","country":"RO"},{"id":"662668","name":"Vitanesti","latitude":"44.000000","longitude":"25.416670","country":"RO"},{"id":"662687","name":"Visinesti","latitude":"45.099998","longitude":"25.549999","country":"RO"},{"id":"662695","name":"Visina","latitude":"44.583328","longitude":"25.333330","country":"RO"},{"id":"662697","name":"Visina","latitude":"43.866669","longitude":"24.450001","country":"RO"},{"id":"662699","name":"Viseu de Sus","latitude":"47.716671","longitude":"24.433331","country":"RO"},{"id":"662702","name":"Viseu de Jos","latitude":"47.725578","longitude":"24.366131","country":"RO"},{"id":"662709","name":"Visani","latitude":"45.150002","longitude":"27.283331","country":"RO"},{"id":"662717","name":"Varvoru","latitude":"44.233330","longitude":"23.633329","country":"RO"},{"id":"662731","name":"Vartoapele de Jos","latitude":"44.183331","longitude":"25.200001","country":"RO"},{"id":"662759","name":"Varlezi","latitude":"45.900002","longitude":"27.850000","country":"RO"},{"id":"662769","name":"Varfurile","latitude":"46.316669","longitude":"22.516670","country":"RO"},{"id":"662772","name":"Varfuri","latitude":"45.099998","longitude":"25.516670","country":"RO"},{"id":"662785","name":"Varciorog","latitude":"46.966671","longitude":"22.299999","country":"RO"},{"id":"662787","name":"Viperesti","latitude":"45.233330","longitude":"26.466669","country":"RO"},{"id":"662796","name":"Vintileasca","latitude":"45.599998","longitude":"26.733330","country":"RO"},{"id":"662801","name":"Vintila Voda","latitude":"45.466671","longitude":"26.716669","country":"RO"},{"id":"662805","name":"Vanju-Mare","latitude":"44.425282","longitude":"22.869720","country":"RO"},{"id":"662811","name":"Vinga","latitude":"46.016670","longitude":"21.200001","country":"RO"},{"id":"662820","name":"Vinderei","latitude":"46.150002","longitude":"27.799999","country":"RO"},{"id":"662822","name":"Vanatori-Neamt","latitude":"47.200001","longitude":"26.316669","country":"RO"},{"id":"662824","name":"Vanatorii Mici","latitude":"44.490280","longitude":"25.558889","country":"RO"},{"id":"662837","name":"Vanatori","latitude":"47.233330","longitude":"27.533331","country":"RO"},{"id":"662840","name":"Vanatori","latitude":"46.233330","longitude":"24.933331","country":"RO"},{"id":"662841","name":"Vanatori","latitude":"45.733330","longitude":"27.250000","country":"RO"},{"id":"662842","name":"Vanatori","latitude":"45.533329","longitude":"28.016670","country":"RO"},{"id":"662844","name":"Vanatori","latitude":"44.242779","longitude":"22.928890","country":"RO"},{"id":"662884","name":"Valcele","latitude":"45.849998","longitude":"25.683331","country":"RO"},{"id":"662914","name":"Viisoara","latitude":"48.166672","longitude":"26.733330","country":"RO"},{"id":"662918","name":"Viisoara","latitude":"46.933331","longitude":"26.233330","country":"RO"},{"id":"662920","name":"Viisoara","latitude":"46.549999","longitude":"23.916670","country":"RO"},{"id":"662921","name":"Viisoara","latitude":"46.383331","longitude":"27.883329","country":"RO"},{"id":"662932","name":"Viisoara","latitude":"43.783329","longitude":"25.166670","country":"RO"},{"id":"662936","name":"Viile Satu Mare","latitude":"47.666672","longitude":"22.950001","country":"RO"},{"id":"662970","name":"Vidra","latitude":"45.916672","longitude":"26.900000","country":"RO"},{"id":"662971","name":"Vidra","latitude":"44.260559","longitude":"26.169720","country":"RO"},{"id":"662976","name":"Videle","latitude":"44.278061","longitude":"25.524441","country":"RO"},{"id":"662979","name":"Victor Vlad Delamarina","latitude":"45.640560","longitude":"21.892780","country":"RO"},{"id":"662985","name":"Victoria","latitude":"47.283329","longitude":"27.583330","country":"RO"},{"id":"662988","name":"Victoria","latitude":"44.816669","longitude":"27.616671","country":"RO"},{"id":"662992","name":"Vicovu de Sus","latitude":"47.933331","longitude":"25.683331","country":"RO"},{"id":"662994","name":"Vicovu de Jos","latitude":"47.900002","longitude":"25.733330","country":"RO"},{"id":"663014","name":"Vetis","latitude":"47.799999","longitude":"22.766670","country":"RO"},{"id":"663018","name":"Vetel","latitude":"45.900002","longitude":"22.816669","country":"RO"},{"id":"663035","name":"Vernesti","latitude":"45.216671","longitude":"26.733330","country":"RO"},{"id":"663042","name":"Verguleasa","latitude":"44.650002","longitude":"24.316669","country":"RO"},{"id":"663045","name":"Veresti","latitude":"47.599998","longitude":"26.433331","country":"RO"},{"id":"663078","name":"Vela","latitude":"44.283329","longitude":"23.416670","country":"RO"},{"id":"663086","name":"Vedea","latitude":"44.783329","longitude":"24.616671","country":"RO"},{"id":"663087","name":"Vedea","latitude":"44.083328","longitude":"25.066669","country":"RO"},{"id":"663088","name":"Vedea","latitude":"43.783329","longitude":"25.783331","country":"RO"},{"id":"663098","name":"Vatra Moldovitei","latitude":"47.650002","longitude":"25.566669","country":"RO"},{"id":"663100","name":"Vatra Dornei","latitude":"47.349998","longitude":"25.366671","country":"RO"},{"id":"663105","name":"Vatava","latitude":"46.966671","longitude":"24.766670","country":"RO"},{"id":"663111","name":"Vata de Jos","latitude":"46.183331","longitude":"22.600000","country":"RO"},{"id":"663118","name":"Vaslui","latitude":"46.633331","longitude":"27.733330","country":"RO"},{"id":"663128","name":"Vasilati","latitude":"44.287781","longitude":"26.447500","country":"RO"},{"id":"663135","name":"Vascau","latitude":"46.466671","longitude":"22.466669","country":"RO"},{"id":"663171","name":"Varias","latitude":"46.016670","longitude":"20.950001","country":"RO"},{"id":"663173","name":"Vargata","latitude":"46.566669","longitude":"24.799999","country":"RO"},{"id":"663178","name":"Varbilau","latitude":"45.183331","longitude":"25.950001","country":"RO"},{"id":"663197","name":"Varasti","latitude":"44.237782","longitude":"26.248610","country":"RO"},{"id":"663205","name":"Varadia de Mures","latitude":"46.016670","longitude":"22.150000","country":"RO"},{"id":"663226","name":"Vama","latitude":"47.833328","longitude":"23.400000","country":"RO"},{"id":"663227","name":"Vama","latitude":"47.566669","longitude":"25.683331","country":"RO"},{"id":"663234","name":"Valu lui Traian","latitude":"44.166672","longitude":"28.466669","country":"RO"},{"id":"663256","name":"Valenii de Munte","latitude":"45.183331","longitude":"26.033331","country":"RO"},{"id":"663261","name":"Valeni- Dambovita","latitude":"45.166672","longitude":"25.183331","country":"RO"},{"id":"663297","name":"Valeni","latitude":"44.233330","longitude":"24.783331","country":"RO"},{"id":"663306","name":"Valea Vinului","latitude":"47.716671","longitude":"23.183331","country":"RO"},{"id":"663314","name":"Valea Viilor","latitude":"46.083328","longitude":"24.283331","country":"RO"},{"id":"663331","name":"Valea Ursului","latitude":"46.816669","longitude":"27.083330","country":"RO"},{"id":"663386","name":"Valea Stanciului","latitude":"43.983330","longitude":"23.866671","country":"RO"},{"id":"663548","name":"Valea Nucarilor","latitude":"45.033329","longitude":"28.933331","country":"RO"},{"id":"663575","name":"Valea Moldovei","latitude":"47.466671","longitude":"26.033331","country":"RO"},{"id":"663632","name":"Valea Mare","latitude":"44.783329","longitude":"25.233330","country":"RO"},{"id":"663634","name":"Valea Mare","latitude":"44.666672","longitude":"24.000000","country":"RO"},{"id":"663636","name":"Valea Mare","latitude":"44.466671","longitude":"24.433331","country":"RO"},{"id":"663692","name":"Valea lui Mihai","latitude":"47.516670","longitude":"22.150000","country":"RO"},{"id":"663733","name":"Valea Iasului","latitude":"45.183331","longitude":"24.716669","country":"RO"},{"id":"663777","name":"Valea Dragului","latitude":"44.212219","longitude":"26.303610","country":"RO"},{"id":"663798","name":"Valea Danului","latitude":"45.183331","longitude":"24.650000","country":"RO"},{"id":"663813","name":"Valea Crisului","latitude":"45.916672","longitude":"25.766670","country":"RO"},{"id":"663834","name":"Valea Ciorii","latitude":"44.716671","longitude":"27.566669","country":"RO"},{"id":"663840","name":"Valea Chioarului","latitude":"47.433331","longitude":"23.483330","country":"RO"},{"id":"663849","name":"Valea Caselor","latitude":"45.349998","longitude":"25.166670","country":"RO"},{"id":"663863","name":"Valea Calugareasca","latitude":"44.966671","longitude":"26.150000","country":"RO"},{"id":"663926","name":"Valea Argovei","latitude":"44.349998","longitude":"26.783331","country":"RO"},{"id":"663950","name":"Valcau de Jos","latitude":"47.116669","longitude":"22.733330","country":"RO"},{"id":"663968","name":"Vaideeni","latitude":"45.166672","longitude":"23.933331","country":"RO"},{"id":"663976","name":"Vagiulesti","latitude":"44.716671","longitude":"23.083330","country":"RO"},{"id":"663996","name":"Vadu Pasii","latitude":"45.166672","longitude":"26.900000","country":"RO"},{"id":"664003","name":"Vadu Moldovei","latitude":"47.383331","longitude":"26.366671","country":"RO"},{"id":"664006","name":"Vadu Izei","latitude":"47.933331","longitude":"23.883329","country":"RO"},{"id":"664011","name":"Vadu Crisului","latitude":"46.983330","longitude":"22.516670","country":"RO"},{"id":"664020","name":"Vadeni","latitude":"45.366669","longitude":"27.933331","country":"RO"},{"id":"664022","name":"Vadastrita","latitude":"43.849998","longitude":"24.333330","country":"RO"},{"id":"664024","name":"Vadastra","latitude":"43.866669","longitude":"24.366671","country":"RO"},{"id":"664029","name":"Vad","latitude":"47.200001","longitude":"23.750000","country":"RO"},{"id":"664034","name":"Vaculesti","latitude":"47.883331","longitude":"26.416670","country":"RO"},{"id":"664041","name":"Vacaresti","latitude":"44.849998","longitude":"25.483330","country":"RO"},{"id":"664044","name":"Vacareni","latitude":"45.324150","longitude":"28.195120","country":"RO"},{"id":"664069","name":"Urzicuta","latitude":"44.016670","longitude":"23.549999","country":"RO"},{"id":"664074","name":"Urziceni","latitude":"44.716671","longitude":"26.633329","country":"RO"},{"id":"664127","name":"Urmenis","latitude":"46.766670","longitude":"24.366671","country":"RO"},{"id":"664150","name":"Urlati","latitude":"44.983330","longitude":"26.233330","country":"RO"},{"id":"664152","name":"Uriu","latitude":"47.200001","longitude":"24.049999","country":"RO"},{"id":"664163","name":"Uricani","latitude":"45.337311","longitude":"23.152399","country":"RO"},{"id":"664169","name":"Urechesti","latitude":"46.133331","longitude":"27.083330","country":"RO"},{"id":"664170","name":"Urechesti","latitude":"45.599998","longitude":"27.066669","country":"RO"},{"id":"664175","name":"Urecheni","latitude":"47.166672","longitude":"26.516670","country":"RO"},{"id":"664184","name":"Urdari","latitude":"44.799999","longitude":"23.299999","country":"RO"},{"id":"664193","name":"Unteni","latitude":"47.799999","longitude":"26.783331","country":"RO"},{"id":"664203","name":"Unirea","latitude":"45.116669","longitude":"27.816669","country":"RO"},{"id":"664204","name":"Unirea","latitude":"44.266670","longitude":"27.633329","country":"RO"},{"id":"664205","name":"Unirea","latitude":"44.150002","longitude":"23.183331","country":"RO"},{"id":"664215","name":"Ungureni-Jianu","latitude":"47.883331","longitude":"26.783331","country":"RO"},{"id":"664226","name":"Ungureni","latitude":"46.516670","longitude":"26.950001","country":"RO"},{"id":"664261","name":"Unguras","latitude":"47.116669","longitude":"24.049999","country":"RO"},{"id":"664263","name":"Ungra","latitude":"45.983330","longitude":"25.266670","country":"RO"},{"id":"664266","name":"Ungheni-Prut","latitude":"47.200001","longitude":"27.783331","country":"RO"},{"id":"664271","name":"Ungheni","latitude":"46.483330","longitude":"24.466669","country":"RO"},{"id":"664273","name":"Ungheni","latitude":"44.500000","longitude":"24.966669","country":"RO"},{"id":"664281","name":"Umbraresti","latitude":"45.716671","longitude":"27.466669","country":"RO"},{"id":"664286","name":"Ulmu","latitude":"44.950001","longitude":"27.316669","country":"RO"},{"id":"664287","name":"Ulmu","latitude":"44.266670","longitude":"26.916670","country":"RO"},{"id":"664294","name":"Ulmi","latitude":"44.900002","longitude":"25.500000","country":"RO"},{"id":"664295","name":"Ulmi","latitude":"44.486671","longitude":"25.780279","country":"RO"},{"id":"664311","name":"Ulmeni","latitude":"47.466671","longitude":"23.299999","country":"RO"},{"id":"664312","name":"Ulmeni","latitude":"45.066669","longitude":"26.650000","country":"RO"},{"id":"664314","name":"Ulmeni","latitude":"44.150002","longitude":"26.716669","country":"RO"},{"id":"664317","name":"Ulma","latitude":"47.883331","longitude":"25.299999","country":"RO"},{"id":"664329","name":"Uliesti","latitude":"44.583328","longitude":"25.416670","country":"RO"},{"id":"664344","name":"Uivar","latitude":"45.658058","longitude":"20.905830","country":"RO"},{"id":"664372","name":"Udesti","latitude":"47.566669","longitude":"26.416670","country":"RO"},{"id":"664385","name":"Uda","latitude":"44.916672","longitude":"24.566669","country":"RO"},{"id":"664390","name":"Ucea de Sus","latitude":"45.750000","longitude":"24.683331","country":"RO"},{"id":"664397","name":"Tuzla","latitude":"44.000000","longitude":"28.633329","country":"RO"},{"id":"664404","name":"Tutova","latitude":"46.116669","longitude":"27.549999","country":"RO"},{"id":"664406","name":"Tutora","latitude":"47.133331","longitude":"27.783331","country":"RO"},{"id":"664419","name":"Tusnad","latitude":"46.200001","longitude":"25.900000","country":"RO"},{"id":"664425","name":"Turulung","latitude":"47.933331","longitude":"23.083330","country":"RO"},{"id":"664432","name":"Turt","latitude":"47.983330","longitude":"23.216669","country":"RO"},{"id":"664436","name":"Turnu Rosu","latitude":"45.633331","longitude":"24.299999","country":"RO"},{"id":"664437","name":"Turnu Magurele","latitude":"43.750000","longitude":"24.866671","country":"RO"},{"id":"664447","name":"Turia","latitude":"46.033329","longitude":"26.049999","country":"RO"},{"id":"664451","name":"Tureni","latitude":"46.629341","longitude":"23.702400","country":"RO"},{"id":"664459","name":"Turdas","latitude":"45.849998","longitude":"23.116671","country":"RO"},{"id":"664460","name":"Turda","latitude":"46.566669","longitude":"23.783331","country":"RO"},{"id":"664464","name":"Turcoaia","latitude":"45.116669","longitude":"28.183331","country":"RO"},{"id":"664467","name":"Turcinesti","latitude":"45.099998","longitude":"23.333330","country":"RO"},{"id":"664475","name":"Turceni","latitude":"44.683331","longitude":"23.366671","country":"RO"},{"id":"664481","name":"Turburea","latitude":"44.716671","longitude":"23.516670","country":"RO"},{"id":"664487","name":"Tupilati","latitude":"47.066669","longitude":"26.633329","country":"RO"},{"id":"664493","name":"Tunelu-Teliu","latitude":"45.700001","longitude":"25.850000","country":"RO"},{"id":"664502","name":"Tunari","latitude":"44.549999","longitude":"26.150000","country":"RO"},{"id":"664505","name":"Tulucesti","latitude":"45.566669","longitude":"28.033331","country":"RO"},{"id":"664507","name":"Tulnici","latitude":"45.916672","longitude":"26.666670","country":"RO"},{"id":"664511","name":"Tulghes","latitude":"46.950001","longitude":"25.766670","country":"RO"},{"id":"664518","name":"Tulcea","latitude":"45.166672","longitude":"28.799999","country":"RO"},{"id":"664521","name":"Tulca","latitude":"46.783329","longitude":"21.783331","country":"RO"},{"id":"664534","name":"Tuglui","latitude":"44.183331","longitude":"23.816669","country":"RO"},{"id":"664539","name":"Tufesti","latitude":"45.049999","longitude":"27.816669","country":"RO"},{"id":"664544","name":"Tufeni","latitude":"44.366669","longitude":"24.783331","country":"RO"},{"id":"664564","name":"Suceveni","latitude":"46.012218","longitude":"28.018061","country":"RO"},{"id":"664565","name":"Tudor Vladimirescu","latitude":"45.566669","longitude":"27.650000","country":"RO"},{"id":"664566","name":"Tudor Vladimirescu","latitude":"45.216671","longitude":"27.799999","country":"RO"},{"id":"664575","name":"Tudora","latitude":"47.516670","longitude":"26.633329","country":"RO"},{"id":"664578","name":"Trusesti","latitude":"47.766670","longitude":"27.016670","country":"RO"},{"id":"664591","name":"Troianul","latitude":"44.000000","longitude":"25.000000","country":"RO"},{"id":"664598","name":"Trivalea-Mosteni","latitude":"44.266670","longitude":"25.233330","country":"RO"},{"id":"664602","name":"Tritenii de Jos","latitude":"46.583328","longitude":"24.000000","country":"RO"},{"id":"664609","name":"Trifesti","latitude":"47.450001","longitude":"27.516670","country":"RO"},{"id":"664610","name":"Trifesti","latitude":"46.916672","longitude":"26.816669","country":"RO"},{"id":"664666","name":"Traian Vuia","latitude":"45.799999","longitude":"22.066669","country":"RO"},{"id":"664677","name":"Traian","latitude":"46.633331","longitude":"27.033331","country":"RO"},{"id":"664680","name":"Traian","latitude":"45.183331","longitude":"27.733330","country":"RO"},{"id":"664686","name":"Traian","latitude":"44.016670","longitude":"24.450001","country":"RO"},{"id":"664687","name":"Traian","latitude":"43.766670","longitude":"25.000000","country":"RO"},{"id":"664698","name":"Totesti","latitude":"45.566669","longitude":"22.883329","country":"RO"},{"id":"664716","name":"Tormac","latitude":"45.520828","longitude":"21.493610","country":"RO"},{"id":"664722","name":"Topraisar","latitude":"44.016670","longitude":"28.450001","country":"RO"},{"id":"664724","name":"Toporu","latitude":"44.010559","longitude":"25.652781","country":"RO"},{"id":"664729","name":"Topoloveni","latitude":"44.816669","longitude":"25.083330","country":"RO"},{"id":"664731","name":"Topolovatu Mare","latitude":"45.773891","longitude":"21.618891","country":"RO"},{"id":"664736","name":"Topolog","latitude":"44.883331","longitude":"28.366671","country":"RO"},{"id":"664755","name":"Topliceni","latitude":"45.416672","longitude":"27.000000","country":"RO"},{"id":"664759","name":"Toplet","latitude":"44.797218","longitude":"22.394440","country":"RO"},{"id":"664796","name":"Tomsani","latitude":"45.116669","longitude":"24.049999","country":"RO"},{"id":"664797","name":"Tomsani","latitude":"44.950001","longitude":"26.283331","country":"RO"},{"id":"664819","name":"Tomesti","latitude":"47.116669","longitude":"27.683331","country":"RO"},{"id":"664825","name":"Tomesti","latitude":"45.783329","longitude":"22.299999","country":"RO"},{"id":"664858","name":"Todiresti","latitude":"47.700001","longitude":"26.033331","country":"RO"},{"id":"664859","name":"Todiresti","latitude":"47.316669","longitude":"26.833330","country":"RO"},{"id":"664860","name":"Todiresti","latitude":"46.849998","longitude":"27.366671","country":"RO"},{"id":"664865","name":"Todireni","latitude":"47.616669","longitude":"27.116671","country":"RO"},{"id":"664891","name":"Titu","latitude":"44.650002","longitude":"25.533331","country":"RO"},{"id":"664902","name":"Titesti","latitude":"45.016670","longitude":"25.000000","country":"RO"},{"id":"664910","name":"Tismana","latitude":"45.049999","longitude":"22.966669","country":"RO"},{"id":"664922","name":"Tisau","latitude":"45.166672","longitude":"26.516670","country":"RO"},{"id":"664938","name":"Tarsoltel","latitude":"47.950001","longitude":"23.350000","country":"RO"},{"id":"664957","name":"Tarnova","latitude":"46.316669","longitude":"21.799999","country":"RO"},{"id":"664991","name":"Targu Trotus","latitude":"46.266670","longitude":"26.666670","country":"RO"},{"id":"664999","name":"Targusor","latitude":"44.450001","longitude":"28.416670","country":"RO"},{"id":"665000","name":"Targu Secuiesc","latitude":"46.000000","longitude":"26.133329","country":"RO"},{"id":"665002","name":"Targu Ocna","latitude":"46.283329","longitude":"26.616671","country":"RO"},{"id":"665003","name":"Targu Neamt","latitude":"47.200001","longitude":"26.366671","country":"RO"},{"id":"665004","name":"Targu-Mures","latitude":"46.542450","longitude":"24.557470","country":"RO"},{"id":"665010","name":"Targu Jiu","latitude":"45.049999","longitude":"23.283331","country":"RO"},{"id":"665013","name":"Targu Frumos","latitude":"47.200001","longitude":"27.000000","country":"RO"},{"id":"665017","name":"Targu Carbunesti","latitude":"44.950001","longitude":"23.516670","country":"RO"},{"id":"665019","name":"Targsoru Vechi","latitude":"44.866669","longitude":"25.916670","country":"RO"},{"id":"665024","name":"Targoviste","latitude":"44.933331","longitude":"25.450001","country":"RO"},{"id":"665027","name":"Tiream","latitude":"47.616669","longitude":"22.466669","country":"RO"},{"id":"665050","name":"Tintesti","latitude":"45.066669","longitude":"26.866671","country":"RO"},{"id":"665061","name":"Tinosu","latitude":"44.816669","longitude":"26.016670","country":"RO"},{"id":"665083","name":"Tamna","latitude":"44.566669","longitude":"23.016670","country":"RO"},{"id":"665087","name":"Timisoara","latitude":"45.749439","longitude":"21.227221","country":"RO"},{"id":"665089","name":"Timisesti","latitude":"47.233330","longitude":"26.549999","country":"RO"},{"id":"665104","name":"Tileagd","latitude":"47.066669","longitude":"22.200001","country":"RO"},{"id":"665110","name":"Tiha Bargaului","latitude":"47.233330","longitude":"24.766670","country":"RO"},{"id":"665113","name":"Tigveni","latitude":"45.133331","longitude":"24.583330","country":"RO"},{"id":"665140","name":"Tiganesti","latitude":"43.900002","longitude":"25.366671","country":"RO"},{"id":"665145","name":"Tiganasi","latitude":"47.333328","longitude":"27.466669","country":"RO"},{"id":"665151","name":"Tifesti","latitude":"45.849998","longitude":"27.100000","country":"RO"},{"id":"665168","name":"Ticleni","latitude":"44.883331","longitude":"23.400000","country":"RO"},{"id":"665176","name":"Tichilesti","latitude":"45.116669","longitude":"27.900000","country":"RO"},{"id":"665182","name":"Tibucani","latitude":"47.099998","longitude":"26.533331","country":"RO"},{"id":"665193","name":"Tibanesti","latitude":"46.916672","longitude":"27.333330","country":"RO"},{"id":"665196","name":"Tibana","latitude":"46.983330","longitude":"27.333330","country":"RO"},{"id":"665199","name":"Tia Mare","latitude":"43.866669","longitude":"24.633329","country":"RO"},{"id":"665204","name":"Tetoiu","latitude":"44.750000","longitude":"23.916670","country":"RO"},{"id":"665218","name":"Teslui","latitude":"44.516670","longitude":"24.366671","country":"RO"},{"id":"665225","name":"Terpezita","latitude":"44.283329","longitude":"23.516670","country":"RO"},{"id":"665231","name":"Teremia Mare","latitude":"45.935280","longitude":"20.525000","country":"RO"},{"id":"665235","name":"Teregova","latitude":"45.150002","longitude":"22.283331","country":"RO"},{"id":"665242","name":"Tepu","latitude":"45.966671","longitude":"27.366671","country":"RO"},{"id":"665268","name":"Teliucu Inferior","latitude":"45.716671","longitude":"22.883329","country":"RO"},{"id":"665277","name":"Telesti","latitude":"45.000000","longitude":"23.083330","country":"RO"},{"id":"665290","name":"Telega","latitude":"45.133331","longitude":"25.783331","country":"RO"},{"id":"665304","name":"Telciu","latitude":"47.433331","longitude":"24.400000","country":"RO"},{"id":"665318","name":"Teius","latitude":"46.200001","longitude":"23.683331","country":"RO"},{"id":"665337","name":"Teisani","latitude":"45.233330","longitude":"25.983330","country":"RO"},{"id":"665355","name":"Tecuci","latitude":"45.849731","longitude":"27.434410","country":"RO"},{"id":"665359","name":"Techirghiol","latitude":"44.049999","longitude":"28.600000","country":"RO"},{"id":"665371","name":"Teaca","latitude":"46.916672","longitude":"24.516670","country":"RO"},{"id":"665377","name":"Tazlau","latitude":"46.716671","longitude":"26.466669","country":"RO"},{"id":"665382","name":"Tautii Magherus","latitude":"47.650002","longitude":"23.483330","country":"RO"},{"id":"665387","name":"Tauteu","latitude":"47.266670","longitude":"22.333330","country":"RO"},{"id":"665394","name":"Taut","latitude":"46.283329","longitude":"21.916670","country":"RO"},{"id":"665425","name":"Tatarusi","latitude":"47.349998","longitude":"26.600000","country":"RO"},{"id":"665450","name":"Corni","latitude":"46.216671","longitude":"27.200001","country":"RO"},{"id":"665452","name":"Tataranu","latitude":"45.516670","longitude":"27.316669","country":"RO"},{"id":"665459","name":"Tatarani","latitude":"45.000000","longitude":"25.266670","country":"RO"},{"id":"665469","name":"Tasnad","latitude":"47.483330","longitude":"22.583330","country":"RO"},{"id":"665471","name":"Tasca","latitude":"46.900002","longitude":"26.016670","country":"RO"},{"id":"665479","name":"Tartasesti","latitude":"44.577221","longitude":"25.812780","country":"RO"},{"id":"665497","name":"Tarlungeni","latitude":"45.633331","longitude":"25.750000","country":"RO"},{"id":"665517","name":"Tarcea","latitude":"47.450001","longitude":"22.183331","country":"RO"},{"id":"665521","name":"Tarcau","latitude":"46.866669","longitude":"26.133329","country":"RO"},{"id":"665525","name":"Tarcaia","latitude":"46.633331","longitude":"22.366671","country":"RO"},{"id":"665536","name":"Tansa","latitude":"46.916672","longitude":"27.233330","country":"RO"},{"id":"665540","name":"Tandarei","latitude":"44.650002","longitude":"27.666670","country":"RO"},{"id":"665545","name":"Tanasoaia","latitude":"46.099998","longitude":"27.366671","country":"RO"},{"id":"665550","name":"Tanacu","latitude":"46.683331","longitude":"27.816669","country":"RO"},{"id":"665556","name":"Tamasi","latitude":"46.483330","longitude":"26.983330","country":"RO"},{"id":"665568","name":"Tamaseni","latitude":"46.983330","longitude":"26.933331","country":"RO"},{"id":"665578","name":"Tamadau Mare","latitude":"44.466671","longitude":"26.549999","country":"RO"},{"id":"665588","name":"Talpa-Trivalea","latitude":"44.283329","longitude":"25.283331","country":"RO"},{"id":"665628","name":"Taga","latitude":"46.950001","longitude":"24.049999","country":"RO"},{"id":"665636","name":"Tacuta","latitude":"46.916672","longitude":"27.683331","country":"RO"},{"id":"665664","name":"Sutesti","latitude":"45.216671","longitude":"27.433331","country":"RO"},{"id":"665690","name":"Suseni","latitude":"46.813808","longitude":"24.731939","country":"RO"},{"id":"665691","name":"Suseni","latitude":"46.666672","longitude":"25.549999","country":"RO"},{"id":"665700","name":"Suseni","latitude":"44.716671","longitude":"24.950001","country":"RO"},{"id":"665708","name":"Susani","latitude":"44.583328","longitude":"24.100000","country":"RO"},{"id":"665729","name":"Surduc","latitude":"47.250000","longitude":"23.350000","country":"RO"},{"id":"665738","name":"Surdila-Gaiseanca","latitude":"45.066669","longitude":"27.333330","country":"RO"},{"id":"665750","name":"Sura Mica","latitude":"45.833328","longitude":"24.066669","country":"RO"},{"id":"665752","name":"Sura Mare","latitude":"45.849998","longitude":"24.166670","country":"RO"},{"id":"665754","name":"Suraia","latitude":"45.683331","longitude":"27.400000","country":"RO"},{"id":"665758","name":"Supuru de Jos","latitude":"47.466671","longitude":"22.799999","country":"RO"},{"id":"665764","name":"Suplac","latitude":"46.383331","longitude":"24.516670","country":"RO"},{"id":"665767","name":"Suncuius","latitude":"46.933331","longitude":"22.533331","country":"RO"},{"id":"665786","name":"Sulita-Targ","latitude":"47.650002","longitude":"26.916670","country":"RO"},{"id":"665790","name":"Sulina","latitude":"45.155899","longitude":"29.653561","country":"RO"},{"id":"665794","name":"Suletea","latitude":"46.283329","longitude":"27.900000","country":"RO"},{"id":"665799","name":"Suici","latitude":"45.250000","longitude":"24.533331","country":"RO"},{"id":"665809","name":"Suharau","latitude":"48.133331","longitude":"26.416670","country":"RO"},{"id":"665813","name":"Suhaia","latitude":"43.733330","longitude":"25.250000","country":"RO"},{"id":"665820","name":"Sugag","latitude":"45.766670","longitude":"23.633329","country":"RO"},{"id":"665835","name":"Suditi","latitude":"44.583328","longitude":"27.600000","country":"RO"},{"id":"665839","name":"Suciu de Sus","latitude":"47.433331","longitude":"24.033331","country":"RO"},{"id":"665845","name":"Sucevita","latitude":"47.783329","longitude":"25.716669","country":"RO"},{"id":"665850","name":"Suceava","latitude":"47.633331","longitude":"26.250000","country":"RO"},{"id":"665875","name":"Subcetate","latitude":"46.849998","longitude":"25.450001","country":"RO"},{"id":"665879","name":"Suatu","latitude":"46.766670","longitude":"23.966669","country":"RO"},{"id":"665899","name":"Stulpicani","latitude":"47.466671","longitude":"25.766670","country":"RO"},{"id":"665909","name":"Studina","latitude":"43.966671","longitude":"24.416670","country":"RO"},{"id":"665914","name":"Strunga","latitude":"47.166672","longitude":"26.983330","country":"RO"},{"id":"665921","name":"Strugari","latitude":"46.533329","longitude":"26.716669","country":"RO"},{"id":"665933","name":"Stroesti","latitude":"47.616669","longitude":"26.133329","country":"RO"},{"id":"665938","name":"Stroesti","latitude":"45.083328","longitude":"23.900000","country":"RO"},{"id":"665946","name":"Stramtura","latitude":"47.783329","longitude":"24.133329","country":"RO"},{"id":"665982","name":"Stremt","latitude":"46.216671","longitude":"23.633329","country":"RO"},{"id":"665990","name":"Strejesti","latitude":"44.533329","longitude":"24.266670","country":"RO"},{"id":"665997","name":"Strehaia","latitude":"44.616669","longitude":"23.200001","country":"RO"},{"id":"666007","name":"Straoane","latitude":"45.933331","longitude":"27.049999","country":"RO"},{"id":"666012","name":"Straja","latitude":"47.916672","longitude":"25.549999","country":"RO"},{"id":"666029","name":"Storobaneasa","latitude":"43.883331","longitude":"25.450001","country":"RO"},{"id":"666031","name":"Storesti","latitude":"47.549999","longitude":"26.866671","country":"RO"},{"id":"666035","name":"Stolnici","latitude":"44.566669","longitude":"24.783331","country":"RO"},{"id":"666037","name":"Stolniceni-Prajescu","latitude":"47.198582","longitude":"26.748100","country":"RO"},{"id":"666048","name":"Stoina","latitude":"44.683331","longitude":"23.633329","country":"RO"},{"id":"666050","name":"Stoilesti","latitude":"44.900002","longitude":"24.383329","country":"RO"},{"id":"666058","name":"Stoicanesti","latitude":"44.183331","longitude":"24.633329","country":"RO"},{"id":"666067","name":"Stoenesti","latitude":"45.250000","longitude":"25.166670","country":"RO"},{"id":"666069","name":"Stoenesti","latitude":"45.116669","longitude":"24.166670","country":"RO"},{"id":"666074","name":"Stoenesti","latitude":"44.144440","longitude":"25.895000","country":"RO"},{"id":"666075","name":"Stoenesti","latitude":"44.116669","longitude":"24.500000","country":"RO"},{"id":"666085","name":"Stiubieni","latitude":"47.966671","longitude":"26.783331","country":"RO"},{"id":"666146","name":"Stalpu","latitude":"45.083328","longitude":"26.716669","country":"RO"},{"id":"666149","name":"Stalpeni","latitude":"45.049999","longitude":"24.966669","country":"RO"},{"id":"666187","name":"Stejaru","latitude":"44.766670","longitude":"28.549999","country":"RO"},{"id":"666193","name":"Stejaru","latitude":"44.183331","longitude":"24.883329","country":"RO"},{"id":"666198","name":"Stejari","latitude":"44.766670","longitude":"23.683331","country":"RO"},{"id":"666211","name":"Stefesti","latitude":"45.216671","longitude":"25.900000","country":"RO"},{"id":"666214","name":"Stefan Voda","latitude":"44.316669","longitude":"27.316669","country":"RO"},{"id":"666217","name":"Stefanesti-Sat","latitude":"47.783329","longitude":"27.183331","country":"RO"},{"id":"666223","name":"Stefanestii de Jos","latitude":"44.533329","longitude":"26.200001","country":"RO"},{"id":"666235","name":"Stefanesti","latitude":"44.866669","longitude":"24.933331","country":"RO"},{"id":"666238","name":"Stefanesti","latitude":"44.616669","longitude":"24.250000","country":"RO"},{"id":"666248","name":"Stefan cel Mare","latitude":"46.983330","longitude":"26.516670","country":"RO"},{"id":"666249","name":"Stefan cel Mare","latitude":"46.716671","longitude":"27.633329","country":"RO"},{"id":"666251","name":"Stefan cel Mare","latitude":"44.500000","longitude":"25.250000","country":"RO"},{"id":"666253","name":"Stefan cel Mare","latitude":"43.816669","longitude":"24.216669","country":"RO"},{"id":"666263","name":"Stauceni","latitude":"47.716671","longitude":"26.750000","country":"RO"},{"id":"666271","name":"Starchiojd","latitude":"45.316669","longitude":"26.183331","country":"RO"},{"id":"666276","name":"Stanita","latitude":"47.016670","longitude":"27.100000","country":"RO"},{"id":"666284","name":"Stanisesti","latitude":"46.433331","longitude":"27.299999","country":"RO"},{"id":"666287","name":"Stanilesti","latitude":"46.618328","longitude":"28.171391","country":"RO"},{"id":"666300","name":"Stanesti","latitude":"45.116669","longitude":"23.250000","country":"RO"},{"id":"666305","name":"Stanesti","latitude":"43.916672","longitude":"25.833330","country":"RO"},{"id":"666309","name":"Stancuta","latitude":"44.900002","longitude":"27.833330","country":"RO"},{"id":"666334","name":"Spring","latitude":"45.966671","longitude":"23.783331","country":"RO"},{"id":"666336","name":"Sprincenata","latitude":"44.083328","longitude":"24.633329","country":"RO"},{"id":"666360","name":"Spineni","latitude":"44.700001","longitude":"24.566669","country":"RO"},{"id":"666369","name":"Spermezeu","latitude":"47.299999","longitude":"24.150000","country":"RO"},{"id":"666385","name":"Spantov","latitude":"44.116669","longitude":"26.783331","country":"RO"},{"id":"666395","name":"Sovata","latitude":"46.583328","longitude":"25.066669","country":"RO"},{"id":"666404","name":"Sotrile","latitude":"45.216671","longitude":"25.716669","country":"RO"},{"id":"666435","name":"Sopotu","latitude":"44.416672","longitude":"23.500000","country":"RO"},{"id":"666443","name":"Sona","latitude":"46.216671","longitude":"24.016670","country":"RO"},{"id":"666451","name":"Somova","latitude":"45.183331","longitude":"28.666670","country":"RO"},{"id":"666467","name":"Somes-Odorhei","latitude":"47.316669","longitude":"23.266670","country":"RO"},{"id":"666475","name":"Somcuta Mare","latitude":"47.516670","longitude":"23.466669","country":"RO"},{"id":"666480","name":"Solovastru","latitude":"46.766670","longitude":"24.766670","country":"RO"},{"id":"666483","name":"Solont","latitude":"46.549999","longitude":"26.516670","country":"RO"},{"id":"666500","name":"Solesti","latitude":"46.766670","longitude":"27.783331","country":"RO"},{"id":"666504","name":"Soldanu","latitude":"44.216671","longitude":"26.516670","country":"RO"},{"id":"666509","name":"Solca","latitude":"47.700001","longitude":"25.850000","country":"RO"},{"id":"666524","name":"Soimus","latitude":"45.916672","longitude":"22.900000","country":"RO"},{"id":"666528","name":"Soimi","latitude":"46.683331","longitude":"22.116671","country":"RO"},{"id":"666533","name":"Soimari","latitude":"45.183331","longitude":"26.200001","country":"RO"},{"id":"666557","name":"Sohodol","latitude":"46.349998","longitude":"23.033331","country":"RO"},{"id":"666561","name":"Sohatu","latitude":"44.316669","longitude":"26.500000","country":"RO"},{"id":"666565","name":"Sofronea","latitude":"46.266670","longitude":"21.299999","country":"RO"},{"id":"666576","name":"Socond","latitude":"47.566669","longitude":"22.950001","country":"RO"},{"id":"666580","name":"Socol","latitude":"44.860828","longitude":"21.370279","country":"RO"},{"id":"666583","name":"Socodor","latitude":"46.516670","longitude":"21.433331","country":"RO"},{"id":"666611","name":"Snagov","latitude":"44.700001","longitude":"26.183331","country":"RO"},{"id":"666619","name":"Smardioasa","latitude":"43.849998","longitude":"25.433331","country":"RO"},{"id":"666625","name":"Smardan","latitude":"45.483330","longitude":"27.933331","country":"RO"},{"id":"666641","name":"Smeeni","latitude":"44.983330","longitude":"26.850000","country":"RO"},{"id":"666663","name":"Slobozia Moara","latitude":"44.599998","longitude":"25.716669","country":"RO"},{"id":"666665","name":"Slobozia-Mandra","latitude":"43.916672","longitude":"24.700001","country":"RO"},{"id":"666670","name":"Slobozia-Conache","latitude":"45.583328","longitude":"27.783331","country":"RO"},{"id":"666673","name":"Slobozia-Ciorasti","latitude":"45.616669","longitude":"27.200001","country":"RO"},{"id":"666674","name":"Slobozia-Campineanca","latitude":"45.700001","longitude":"27.133329","country":"RO"},{"id":"666676","name":"Slobozia Bradului","latitude":"45.500000","longitude":"27.049999","country":"RO"},{"id":"666716","name":"Slobozia","latitude":"44.516670","longitude":"25.233330","country":"RO"},{"id":"666719","name":"Slobozia","latitude":"43.849998","longitude":"25.900000","country":"RO"},{"id":"666724","name":"Slivilesti","latitude":"44.783329","longitude":"23.133329","country":"RO"},{"id":"666728","name":"Slimnic","latitude":"45.916672","longitude":"24.166670","country":"RO"},{"id":"666752","name":"Slatioara","latitude":"45.116669","longitude":"23.916670","country":"RO"},{"id":"666753","name":"Slatioara","latitude":"44.400002","longitude":"24.316669","country":"RO"},{"id":"666759","name":"Slatina-Timis","latitude":"45.250000","longitude":"22.283331","country":"RO"},{"id":"666765","name":"Slatina","latitude":"47.450001","longitude":"26.016670","country":"RO"},{"id":"666767","name":"Slatina","latitude":"44.433331","longitude":"24.366671","country":"RO"},{"id":"666770","name":"Slanic-Moldova","latitude":"46.200001","longitude":"26.433331","country":"RO"},{"id":"666775","name":"Slanic","latitude":"45.250000","longitude":"25.933331","country":"RO"},{"id":"666790","name":"Sita Buzaului","latitude":"45.650002","longitude":"26.066669","country":"RO"},{"id":"666809","name":"Sirna","latitude":"44.799999","longitude":"25.950001","country":"RO"},{"id":"666819","name":"Sirineasa","latitude":"44.933331","longitude":"24.200001","country":"RO"},{"id":"666821","name":"Siria","latitude":"46.266670","longitude":"21.633329","country":"RO"},{"id":"666828","name":"Siretel","latitude":"47.400002","longitude":"26.733330","country":"RO"},{"id":"666830","name":"Siret","latitude":"47.950001","longitude":"26.066669","country":"RO"},{"id":"666877","name":"Sipote","latitude":"47.466671","longitude":"27.216669","country":"RO"},{"id":"666887","name":"Sanzieni","latitude":"46.049999","longitude":"26.133329","country":"RO"},{"id":"666908","name":"Santimbru","latitude":"46.133331","longitude":"23.650000","country":"RO"},{"id":"666916","name":"Sintereag","latitude":"47.183331","longitude":"24.299999","country":"RO"},{"id":"666922","name":"Sintea Mare","latitude":"46.516670","longitude":"21.600000","country":"RO"},{"id":"666928","name":"Santandrei","latitude":"47.066151","longitude":"21.853519","country":"RO"},{"id":"666936","name":"Santana","latitude":"46.349998","longitude":"21.500000","country":"RO"},{"id":"666942","name":"Santa Maria","latitude":"47.616669","longitude":"27.350000","country":"RO"},{"id":"666946","name":"Sansimion","latitude":"46.250000","longitude":"25.883329","country":"RO"},{"id":"666950","name":"Sanpetru Mare","latitude":"46.049999","longitude":"20.666670","country":"RO"},{"id":"666963","name":"Sanpaul","latitude":"46.883331","longitude":"23.416670","country":"RO"},{"id":"666964","name":"Sanpaul","latitude":"46.450001","longitude":"24.350000","country":"RO"},{"id":"666973","name":"Sannicolau Mare","latitude":"46.083328","longitude":"20.633329","country":"RO"},{"id":"666981","name":"Sanmihaiu Roman","latitude":"45.704441","longitude":"21.088890","country":"RO"},{"id":"667008","name":"Sanmartin","latitude":"46.266670","longitude":"25.933331","country":"RO"},{"id":"667020","name":"Singureni","latitude":"44.233608","longitude":"25.943331","country":"RO"},{"id":"667023","name":"Sangeru","latitude":"45.133331","longitude":"26.350000","country":"RO"},{"id":"667034","name":"Sangeorgiu de Mures","latitude":"46.569599","longitude":"24.594530","country":"RO"},{"id":"667043","name":"Sinesti","latitude":"47.116669","longitude":"27.183331","country":"RO"},{"id":"667045","name":"Sinesti","latitude":"44.950001","longitude":"23.850000","country":"RO"},{"id":"667046","name":"Sinesti","latitude":"44.566669","longitude":"26.383329","country":"RO"},{"id":"667055","name":"Sandominic","latitude":"46.584000","longitude":"25.780279","country":"RO"},{"id":"667059","name":"Sancraiu de Mures","latitude":"46.551189","longitude":"24.526630","country":"RO"},{"id":"667069","name":"Sancraieni","latitude":"46.314388","longitude":"25.839411","country":"RO"},{"id":"667074","name":"Sancel","latitude":"46.200001","longitude":"23.950001","country":"RO"},{"id":"667076","name":"Sinca Veche","latitude":"45.766670","longitude":"25.166670","country":"RO"},{"id":"667089","name":"Sanandrei","latitude":"45.853062","longitude":"21.168060","country":"RO"},{"id":"667091","name":"Sinaia","latitude":"45.349998","longitude":"25.549999","country":"RO"},{"id":"667094","name":"Simonesti","latitude":"46.333328","longitude":"25.100000","country":"RO"},{"id":"667098","name":"Simnicu de Sus","latitude":"44.383331","longitude":"23.799999","country":"RO"},{"id":"667101","name":"Simleu Silvaniei","latitude":"47.233330","longitude":"22.799999","country":"RO"},{"id":"667109","name":"Siminicea","latitude":"47.700001","longitude":"26.400000","country":"RO"},{"id":"667118","name":"Simian","latitude":"47.483330","longitude":"22.100000","country":"RO"},{"id":"667119","name":"Simian","latitude":"44.614170","longitude":"22.707220","country":"RO"},{"id":"667121","name":"Simeria","latitude":"45.849998","longitude":"23.016670","country":"RO"},{"id":"667148","name":"Simand","latitude":"46.433331","longitude":"21.450001","country":"RO"},{"id":"667195","name":"Silistea","latitude":"44.383331","longitude":"25.350000","country":"RO"},{"id":"667216","name":"Sihlea","latitude":"45.500000","longitude":"27.116671","country":"RO"},{"id":"667227","name":"Sighetu Marmatiei","latitude":"47.933331","longitude":"23.883329","country":"RO"},{"id":"667232","name":"Sieut","latitude":"46.983330","longitude":"24.650000","country":"RO"},{"id":"667235","name":"Sieu-Odorhei","latitude":"47.150002","longitude":"24.316669","country":"RO"},{"id":"667238","name":"Sieu-Magherus","latitude":"47.083328","longitude":"24.383329","country":"RO"},{"id":"667242","name":"Sieu","latitude":"47.016670","longitude":"24.600000","country":"RO"},{"id":"667243","name":"Siculeni","latitude":"46.416672","longitude":"25.750000","country":"RO"},{"id":"667245","name":"Sicula","latitude":"46.433331","longitude":"21.750000","country":"RO"},{"id":"667256","name":"Sichevita","latitude":"44.735001","longitude":"21.848610","country":"RO"},{"id":"667262","name":"Sic","latitude":"46.933331","longitude":"23.883329","country":"RO"},{"id":"667265","name":"Sibot","latitude":"45.950001","longitude":"23.333330","country":"RO"},{"id":"667268","name":"Sibiu","latitude":"45.799999","longitude":"24.150000","country":"RO"},{"id":"667303","name":"Sfantu-Gheorghe","latitude":"45.866669","longitude":"25.783331","country":"RO"},{"id":"667306","name":"Sfantu Gheorghe","latitude":"44.650002","longitude":"26.833330","country":"RO"},{"id":"667350","name":"Sercaia","latitude":"45.833328","longitude":"25.133329","country":"RO"},{"id":"667380","name":"Serbanesti","latitude":"44.333328","longitude":"24.700001","country":"RO"},{"id":"667395","name":"Sendriceni","latitude":"47.950001","longitude":"26.299999","country":"RO"},{"id":"667402","name":"Sendreni","latitude":"45.400002","longitude":"27.916670","country":"RO"},{"id":"667408","name":"Semlac","latitude":"46.116669","longitude":"20.933331","country":"RO"},{"id":"667420","name":"Selimbar","latitude":"45.766670","longitude":"24.200001","country":"RO"},{"id":"667424","name":"Seleus","latitude":"46.383331","longitude":"21.716669","country":"RO"},{"id":"667429","name":"Selaru","latitude":"44.466671","longitude":"25.299999","country":"RO"},{"id":"667434","name":"Seitin","latitude":"46.099998","longitude":"20.850000","country":"RO"},{"id":"667437","name":"Seini","latitude":"47.750000","longitude":"23.283331","country":"RO"},{"id":"667441","name":"Seimeni","latitude":"44.383331","longitude":"28.066669","country":"RO"},{"id":"667445","name":"Seica Mare","latitude":"46.016670","longitude":"24.150000","country":"RO"},{"id":"667449","name":"Segarcea Vale","latitude":"43.816669","longitude":"24.799999","country":"RO"},{"id":"667453","name":"Segarcea","latitude":"44.099998","longitude":"23.750000","country":"RO"},{"id":"667458","name":"Secusigiu","latitude":"46.083328","longitude":"20.983330","country":"RO"},{"id":"667465","name":"Secuieni","latitude":"46.650002","longitude":"27.100000","country":"RO"},{"id":"667515","name":"Sebis","latitude":"46.366669","longitude":"22.116671","country":"RO"},{"id":"667526","name":"Sebes","latitude":"45.966671","longitude":"23.566669","country":"RO"},{"id":"667532","name":"Seaca de Camp","latitude":"43.933331","longitude":"23.216669","country":"RO"},{"id":"667545","name":"Seaca","latitude":"44.166672","longitude":"24.750000","country":"RO"},{"id":"667546","name":"Seaca","latitude":"43.750000","longitude":"25.066669","country":"RO"},{"id":"667548","name":"Scutelnici","latitude":"44.849998","longitude":"26.916670","country":"RO"},{"id":"667553","name":"Scurtu Mare","latitude":"44.349998","longitude":"25.266670","country":"RO"},{"id":"667564","name":"Scundu","latitude":"44.833328","longitude":"24.200001","country":"RO"},{"id":"667572","name":"Scrioastea","latitude":"44.150002","longitude":"24.950001","country":"RO"},{"id":"667582","name":"Scortoasa","latitude":"45.366669","longitude":"26.666670","country":"RO"},{"id":"667585","name":"Scorteni","latitude":"46.549999","longitude":"26.650000","country":"RO"},{"id":"667586","name":"Scorteni","latitude":"45.099998","longitude":"25.850000","country":"RO"},{"id":"667593","name":"Scornicesti","latitude":"44.566669","longitude":"24.549999","country":"RO"},{"id":"667606","name":"Scobinti","latitude":"47.383331","longitude":"26.933331","country":"RO"},{"id":"667612","name":"Scoarta","latitude":"45.016670","longitude":"23.450001","country":"RO"},{"id":"667620","name":"Scanteia","latitude":"46.916672","longitude":"27.566669","country":"RO"},{"id":"667646","name":"Schitu-Golesti","latitude":"45.200001","longitude":"25.000000","country":"RO"},{"id":"667653","name":"Schitu-Duca","latitude":"47.033329","longitude":"27.766670","country":"RO"},{"id":"667669","name":"Schitu","latitude":"44.349998","longitude":"24.566669","country":"RO"},{"id":"667670","name":"Schitu","latitude":"44.140831","longitude":"25.836670","country":"RO"},{"id":"667676","name":"Valeni","latitude":"46.592781","longitude":"28.062500","country":"RO"},{"id":"667691","name":"Schela","latitude":"45.500000","longitude":"27.816669","country":"RO"},{"id":"667692","name":"Schela","latitude":"45.166672","longitude":"23.299999","country":"RO"},{"id":"667706","name":"Scheia","latitude":"47.650002","longitude":"26.233330","country":"RO"},{"id":"667708","name":"Scheia","latitude":"46.933331","longitude":"27.516670","country":"RO"},{"id":"667727","name":"Scarisoara","latitude":"44.000000","longitude":"24.566669","country":"RO"},{"id":"667739","name":"Scaesti","latitude":"44.466671","longitude":"23.583330","country":"RO"},{"id":"667748","name":"Savarsin","latitude":"46.016670","longitude":"22.233330","country":"RO"},{"id":"667751","name":"Savinesti","latitude":"46.849998","longitude":"26.466669","country":"RO"},{"id":"667757","name":"Saveni","latitude":"47.950001","longitude":"26.866671","country":"RO"},{"id":"667759","name":"Saveni","latitude":"44.599998","longitude":"27.650000","country":"RO"},{"id":"667763","name":"Savadisla","latitude":"46.683331","longitude":"23.450001","country":"RO"},{"id":"667771","name":"Saulia","latitude":"46.633331","longitude":"24.216669","country":"RO"},{"id":"667774","name":"Saulesti","latitude":"44.799999","longitude":"23.483330","country":"RO"},{"id":"667793","name":"Satu Nou Calopar","latitude":"44.166672","longitude":"23.766670","country":"RO"},{"id":"667872","name":"Satu Mare","latitude":"47.833328","longitude":"26.016670","country":"RO"},{"id":"667873","name":"Satu Mare","latitude":"47.799999","longitude":"22.883329","country":"RO"},{"id":"667882","name":"Satulung","latitude":"47.566669","longitude":"23.433331","country":"RO"},{"id":"667900","name":"Satchinez","latitude":"45.937500","longitude":"21.040560","country":"RO"},{"id":"667917","name":"Sascut","latitude":"46.200001","longitude":"27.100000","country":"RO"},{"id":"667919","name":"Sasciori","latitude":"45.866669","longitude":"23.583330","country":"RO"},{"id":"667923","name":"Saschiz","latitude":"46.183331","longitude":"24.966669","country":"RO"},{"id":"667950","name":"Sarulesti","latitude":"44.416672","longitude":"26.650000","country":"RO"},{"id":"667952","name":"Saru Dornei","latitude":"47.283329","longitude":"25.350000","country":"RO"},{"id":"667966","name":"Sarmasu","latitude":"46.750000","longitude":"24.166670","country":"RO"},{"id":"667970","name":"Sarmasag","latitude":"47.349998","longitude":"22.833330","country":"RO"},{"id":"667972","name":"Sarmas","latitude":"46.883331","longitude":"25.466669","country":"RO"},{"id":"667991","name":"Sarichioi","latitude":"44.950001","longitude":"28.850000","country":"RO"},{"id":"668073","name":"Sapoca","latitude":"45.250000","longitude":"26.750000","country":"RO"},{"id":"668076","name":"Sapanta","latitude":"47.966671","longitude":"23.700001","country":"RO"},{"id":"668089","name":"Santau","latitude":"47.516670","longitude":"22.516670","country":"RO"},{"id":"668091","name":"Ujrad","latitude":"47.450001","longitude":"24.900000","country":"RO"},{"id":"668096","name":"Sanislau","latitude":"47.633331","longitude":"22.333330","country":"RO"},{"id":"668104","name":"Sanduleni","latitude":"46.450001","longitude":"26.733330","country":"RO"},{"id":"668119","name":"Samarinesti","latitude":"44.750000","longitude":"23.049999","country":"RO"},{"id":"668124","name":"Salva","latitude":"47.299999","longitude":"24.350000","country":"RO"},{"id":"668128","name":"Salsig","latitude":"47.533329","longitude":"23.299999","country":"RO"},{"id":"668129","name":"Salonta","latitude":"46.799999","longitude":"21.650000","country":"RO"},{"id":"668142","name":"Salistea de Sus","latitude":"47.650002","longitude":"24.350000","country":"RO"},{"id":"668143","name":"Salistea-Deal","latitude":"45.900002","longitude":"23.400000","country":"RO"},{"id":"668153","name":"Saliste","latitude":"45.796329","longitude":"23.886770","country":"RO"},{"id":"668167","name":"Salcuta","latitude":"44.250000","longitude":"23.433331","country":"RO"},{"id":"668186","name":"Salcioara","latitude":"44.716671","longitude":"25.583330","country":"RO"},{"id":"668188","name":"Salcioara","latitude":"44.533329","longitude":"26.883329","country":"RO"},{"id":"668193","name":"Salciile","latitude":"44.816669","longitude":"26.483330","country":"RO"},{"id":"668198","name":"Salcia Tudor","latitude":"45.366669","longitude":"27.516670","country":"RO"},{"id":"668214","name":"Salcia","latitude":"44.140831","longitude":"22.927780","country":"RO"},{"id":"668215","name":"Salcia","latitude":"43.950001","longitude":"24.916670","country":"RO"},{"id":"668219","name":"Salcea","latitude":"47.650002","longitude":"26.366671","country":"RO"},{"id":"668226","name":"Salatrucu","latitude":"45.333328","longitude":"24.516670","country":"RO"},{"id":"668229","name":"Salatrucel","latitude":"45.250000","longitude":"24.383329","country":"RO"},{"id":"668236","name":"Salatig","latitude":"47.366669","longitude":"23.133329","country":"RO"},{"id":"668238","name":"Salasu de Sus","latitude":"45.516670","longitude":"22.950001","country":"RO"},{"id":"668243","name":"Salard","latitude":"47.216671","longitude":"22.049999","country":"RO"},{"id":"668252","name":"Salacea","latitude":"47.466671","longitude":"22.316669","country":"RO"},{"id":"668257","name":"Sahateni","latitude":"45.033329","longitude":"26.516670","country":"RO"},{"id":"668261","name":"Sagu","latitude":"46.049999","longitude":"21.283331","country":"RO"},{"id":"668263","name":"Sagna","latitude":"46.983330","longitude":"27.016670","country":"RO"},{"id":"668266","name":"Sageata","latitude":"45.099998","longitude":"26.983330","country":"RO"},{"id":"668269","name":"Sag","latitude":"45.648609","longitude":"21.175560","country":"RO"},{"id":"668278","name":"Sadu","latitude":"45.666672","longitude":"24.183331","country":"RO"},{"id":"668286","name":"Sadova","latitude":"47.533329","longitude":"25.500000","country":"RO"},{"id":"668287","name":"Sadova","latitude":"43.900002","longitude":"23.950001","country":"RO"},{"id":"668297","name":"Szekelyhid","latitude":"47.349998","longitude":"22.100000","country":"RO"},{"id":"668304","name":"Sacosu Turcesc","latitude":"45.651939","longitude":"21.428890","country":"RO"},{"id":"668314","name":"Sacele","latitude":"45.617401","longitude":"25.694269","country":"RO"},{"id":"668315","name":"Sacele","latitude":"44.483330","longitude":"28.650000","country":"RO"},{"id":"668320","name":"Sacel","latitude":"47.633331","longitude":"24.433331","country":"RO"},{"id":"668342","name":"Sacalaz","latitude":"45.758331","longitude":"21.112221","country":"RO"},{"id":"668365","name":"Sabaoani","latitude":"47.016670","longitude":"26.850000","country":"RO"},{"id":"668382","name":"Rusii Munti","latitude":"46.916672","longitude":"24.850000","country":"RO"},{"id":"668394","name":"Rusetu","latitude":"44.950001","longitude":"27.216669","country":"RO"},{"id":"668431","name":"Rusanesti","latitude":"43.933331","longitude":"24.600000","country":"RO"},{"id":"668435","name":"Rus","latitude":"47.283329","longitude":"23.600000","country":"RO"},{"id":"668442","name":"Rupea","latitude":"46.033329","longitude":"25.216669","country":"RO"},{"id":"668465","name":"Runcu","latitude":"45.183331","longitude":"25.383329","country":"RO"},{"id":"668467","name":"Runcu","latitude":"45.116669","longitude":"23.133329","country":"RO"},{"id":"668488","name":"Ruginoasa","latitude":"47.250000","longitude":"26.850000","country":"RO"},{"id":"668495","name":"Ruginesti","latitude":"46.066669","longitude":"27.116671","country":"RO"},{"id":"668542","name":"Rucar","latitude":"45.400002","longitude":"25.166670","country":"RO"},{"id":"668546","name":"Roznov","latitude":"46.833328","longitude":"26.516670","country":"RO"},{"id":"668548","name":"Rozavlea","latitude":"47.733330","longitude":"24.216669","country":"RO"},{"id":"668552","name":"Pecica","latitude":"46.166672","longitude":"21.066669","country":"RO"},{"id":"668555","name":"Rovinari","latitude":"44.916672","longitude":"23.183331","country":"RO"},{"id":"668569","name":"Rotunda","latitude":"43.983330","longitude":"24.316669","country":"RO"},{"id":"668605","name":"Rosiori de Vede","latitude":"44.116669","longitude":"24.983330","country":"RO"},{"id":"668618","name":"Rosiori","latitude":"46.716671","longitude":"27.083330","country":"RO"},{"id":"668620","name":"Rosiori","latitude":"44.799999","longitude":"27.383329","country":"RO"},{"id":"668628","name":"Rosiile","latitude":"44.866669","longitude":"23.933331","country":"RO"},{"id":"668631","name":"Rosiesti","latitude":"46.433331","longitude":"27.883329","country":"RO"},{"id":"668645","name":"Rosia de Amaradia","latitude":"45.049999","longitude":"23.750000","country":"RO"},{"id":"668653","name":"Rosia","latitude":"46.799999","longitude":"22.400000","country":"RO"},{"id":"668656","name":"Rosia","latitude":"45.816669","longitude":"24.316669","country":"RO"},{"id":"668660","name":"Roseti","latitude":"44.216671","longitude":"27.433331","country":"RO"},{"id":"668681","name":"Rona de Sus","latitude":"47.900002","longitude":"24.049999","country":"RO"},{"id":"668683","name":"Rona de Jos","latitude":"47.916672","longitude":"24.016670","country":"RO"},{"id":"668693","name":"Romos","latitude":"45.833328","longitude":"23.283331","country":"RO"},{"id":"668698","name":"Romani","latitude":"46.783329","longitude":"26.683331","country":"RO"},{"id":"668723","name":"Romanu","latitude":"45.283329","longitude":"27.733330","country":"RO"},{"id":"668732","name":"Roman","latitude":"46.916672","longitude":"26.916670","country":"RO"},{"id":"668737","name":"Roma","latitude":"47.833328","longitude":"26.600000","country":"RO"},{"id":"668766","name":"Roesti","latitude":"44.916672","longitude":"24.083330","country":"RO"},{"id":"668772","name":"Rodna","latitude":"47.416672","longitude":"24.816669","country":"RO"},{"id":"668781","name":"Rociu","latitude":"44.666672","longitude":"25.033331","country":"RO"},{"id":"668799","name":"Roata de Jos","latitude":"44.410831","longitude":"25.543329","country":"RO"},{"id":"668815","name":"Rau de Mori","latitude":"45.483330","longitude":"22.850000","country":"RO"},{"id":"668828","name":"Rasnov","latitude":"45.583328","longitude":"25.450001","country":"RO"},{"id":"668849","name":"Ripiceni","latitude":"47.950001","longitude":"27.133329","country":"RO"},{"id":"668872","name":"Ramnicu Valcea","latitude":"45.099998","longitude":"24.366671","country":"RO"},{"id":"668873","name":"Ramnicu Sarat","latitude":"45.383331","longitude":"27.049999","country":"RO"},{"id":"668883","name":"Ramnicelu","latitude":"45.283329","longitude":"27.533331","country":"RO"},{"id":"668911","name":"Rafov","latitude":"44.866669","longitude":"26.133329","country":"RO"},{"id":"668913","name":"Rieni","latitude":"46.566669","longitude":"22.450001","country":"RO"},{"id":"668915","name":"Raciu","latitude":"46.683331","longitude":"24.400000","country":"RO"},{"id":"668933","name":"Reviga","latitude":"44.716671","longitude":"27.100000","country":"RO"},{"id":"668954","name":"Resita","latitude":"45.300831","longitude":"21.889170","country":"RO"},{"id":"668963","name":"Repedea","latitude":"47.833328","longitude":"24.400000","country":"RO"},{"id":"668973","name":"Remeti","latitude":"47.983330","longitude":"23.633329","country":"RO"},{"id":"668979","name":"Remetea Mare","latitude":"45.779442","longitude":"21.376110","country":"RO"},{"id":"668983","name":"Remetea Chioarului","latitude":"47.533329","longitude":"23.549999","country":"RO"},{"id":"668986","name":"Remetea","latitude":"46.783329","longitude":"25.450001","country":"RO"},{"id":"668987","name":"Remetea","latitude":"46.733330","longitude":"22.350000","country":"RO"},{"id":"668988","name":"Remetea","latitude":"46.574322","longitude":"24.513590","country":"RO"},{"id":"668994","name":"Reghiu","latitude":"45.783329","longitude":"26.833330","country":"RO"},{"id":"668995","name":"Reghin-Sat","latitude":"46.783329","longitude":"24.716669","country":"RO"},{"id":"669013","name":"Rediu","latitude":"47.216671","longitude":"27.500000","country":"RO"},{"id":"669018","name":"Rediu","latitude":"46.750000","longitude":"26.566669","country":"RO"},{"id":"669022","name":"Rediu","latitude":"45.716671","longitude":"27.833330","country":"RO"},{"id":"669026","name":"Redea","latitude":"44.049999","longitude":"24.299999","country":"RO"},{"id":"669029","name":"Reci","latitude":"45.849998","longitude":"25.933331","country":"RO"},{"id":"669043","name":"Recea","latitude":"47.633331","longitude":"23.516670","country":"RO"},{"id":"669051","name":"Recea","latitude":"45.713341","longitude":"24.931520","country":"RO"},{"id":"669054","name":"Recea","latitude":"44.533329","longitude":"25.016670","country":"RO"},{"id":"669058","name":"Recas","latitude":"45.798889","longitude":"21.500830","country":"RO"},{"id":"669060","name":"Rebrisoara","latitude":"47.283329","longitude":"24.450001","country":"RO"},{"id":"669064","name":"Rebricea","latitude":"46.866669","longitude":"27.549999","country":"RO"},{"id":"669067","name":"Rebra","latitude":"47.316669","longitude":"24.500000","country":"RO"},{"id":"669072","name":"Razvad","latitude":"44.933331","longitude":"25.533331","country":"RO"},{"id":"669088","name":"Razboeni","latitude":"47.083328","longitude":"26.533331","country":"RO"},{"id":"669098","name":"Rauseni","latitude":"47.566669","longitude":"27.200001","country":"RO"},{"id":"669102","name":"Raucesti","latitude":"47.250000","longitude":"26.416670","country":"RO"},{"id":"669116","name":"Ratesti","latitude":"44.733330","longitude":"25.133329","country":"RO"},{"id":"669126","name":"Rasuceni","latitude":"44.091671","longitude":"25.663891","country":"RO"},{"id":"669128","name":"Rastu","latitude":"43.883331","longitude":"23.283331","country":"RO"},{"id":"669133","name":"Rastolita","latitude":"46.972580","longitude":"24.992870","country":"RO"},{"id":"669148","name":"Rasova","latitude":"44.250000","longitude":"27.933331","country":"RO"},{"id":"669156","name":"Rasinari","latitude":"45.700001","longitude":"24.066669","country":"RO"},{"id":"669183","name":"Rapoltu Mare","latitude":"45.866669","longitude":"23.066669","country":"RO"},{"id":"669186","name":"Rapanasu","latitude":"47.383331","longitude":"24.183331","country":"RO"},{"id":"669241","name":"Raducaneni","latitude":"46.950001","longitude":"27.933331","country":"RO"},{"id":"669244","name":"Radovanu","latitude":"44.200001","longitude":"26.516670","country":"RO"},{"id":"669245","name":"Radovanu","latitude":"44.166672","longitude":"23.616671","country":"RO"},{"id":"669253","name":"Radomiresti","latitude":"44.116669","longitude":"24.683331","country":"RO"},{"id":"669255","name":"Radoesti Deal","latitude":"44.150002","longitude":"25.133329","country":"RO"},{"id":"669288","name":"Radauti","latitude":"48.233330","longitude":"26.799999","country":"RO"},{"id":"669289","name":"Radauti","latitude":"47.849998","longitude":"25.916670","country":"RO"},{"id":"669292","name":"Radaseni","latitude":"47.466671","longitude":"26.250000","country":"RO"},{"id":"669320","name":"Racovita","latitude":"45.698330","longitude":"21.635830","country":"RO"},{"id":"669321","name":"Racovita","latitude":"45.683331","longitude":"24.350000","country":"RO"},{"id":"669339","name":"Racova","latitude":"46.700001","longitude":"26.750000","country":"RO"},{"id":"669344","name":"Racosu de Sus","latitude":"46.083328","longitude":"25.533331","country":"RO"},{"id":"669348","name":"Racoasa","latitude":"46.000000","longitude":"26.883329","country":"RO"},{"id":"669364","name":"Rachitoasa","latitude":"46.433331","longitude":"27.366671","country":"RO"},{"id":"669371","name":"Rachiti","latitude":"47.766670","longitude":"26.683331","country":"RO"},{"id":"669398","name":"Racasdia","latitude":"44.993061","longitude":"21.618059","country":"RO"},{"id":"669405","name":"Racari","latitude":"44.633331","longitude":"25.733330","country":"RO"},{"id":"669408","name":"Racaciuni","latitude":"46.333328","longitude":"26.983330","country":"RO"},{"id":"669412","name":"Rabagani","latitude":"46.750000","longitude":"22.233330","country":"RO"},{"id":"669436","name":"Putna","latitude":"47.866669","longitude":"25.616671","country":"RO"},{"id":"669443","name":"Putineiu","latitude":"43.900002","longitude":"25.733330","country":"RO"},{"id":"669444","name":"Putineiu","latitude":"43.900002","longitude":"24.966669","country":"RO"},{"id":"669491","name":"Punghina","latitude":"44.281940","longitude":"22.934719","country":"RO"},{"id":"669493","name":"Pungesti","latitude":"46.700001","longitude":"27.333330","country":"RO"},{"id":"669499","name":"Puiesti","latitude":"46.416672","longitude":"27.500000","country":"RO"},{"id":"669501","name":"Pui","latitude":"45.516670","longitude":"23.100000","country":"RO"},{"id":"669504","name":"Pufesti","latitude":"46.000000","longitude":"27.200001","country":"RO"},{"id":"669517","name":"Pucioasa","latitude":"45.083328","longitude":"25.416670","country":"RO"},{"id":"669522","name":"Puchenii Mari","latitude":"44.816669","longitude":"26.083330","country":"RO"},{"id":"669525","name":"Pucheni","latitude":"45.183331","longitude":"25.283331","country":"RO"},{"id":"669528","name":"Prunisor","latitude":"44.609440","longitude":"22.915279","country":"RO"},{"id":"669545","name":"Prundu","latitude":"44.094719","longitude":"26.226940","country":"RO"},{"id":"669549","name":"Prundeni","latitude":"44.733330","longitude":"24.266670","country":"RO"},{"id":"669554","name":"Provita de Sus","latitude":"45.133331","longitude":"25.633329","country":"RO"},{"id":"669556","name":"Provita de Jos","latitude":"45.116669","longitude":"25.650000","country":"RO"},{"id":"669576","name":"Produlesti","latitude":"44.700001","longitude":"25.500000","country":"RO"},{"id":"669587","name":"Probota","latitude":"47.383331","longitude":"27.500000","country":"RO"},{"id":"669610","name":"Priseaca","latitude":"44.516670","longitude":"24.450001","country":"RO"},{"id":"669618","name":"Prisacani","latitude":"47.083328","longitude":"27.883329","country":"RO"},{"id":"669630","name":"Priponesti","latitude":"46.083328","longitude":"27.433331","country":"RO"},{"id":"669643","name":"Prigoria","latitude":"45.066669","longitude":"23.683331","country":"RO"},{"id":"669647","name":"Prigor","latitude":"44.938332","longitude":"22.113331","country":"RO"},{"id":"669654","name":"Priboieni","latitude":"44.883331","longitude":"25.083330","country":"RO"},{"id":"669665","name":"Preutesti","latitude":"47.450001","longitude":"26.416670","country":"RO"},{"id":"669691","name":"Prejmer","latitude":"45.716671","longitude":"25.766670","country":"RO"},{"id":"669698","name":"Predesti","latitude":"44.349998","longitude":"23.600000","country":"RO"},{"id":"669704","name":"Predeal","latitude":"45.500000","longitude":"25.566669","country":"RO"},{"id":"669730","name":"Prajeni","latitude":"47.516670","longitude":"27.016670","country":"RO"},{"id":"669735","name":"Praid","latitude":"46.549999","longitude":"25.133329","country":"RO"},{"id":"669753","name":"Potlogi","latitude":"44.549999","longitude":"25.583330","country":"RO"},{"id":"669772","name":"Potcoava","latitude":"44.483330","longitude":"24.650000","country":"RO"},{"id":"669783","name":"Posta Calnau","latitude":"45.233330","longitude":"26.850000","country":"RO"},{"id":"669800","name":"Posesti-Ungureni","latitude":"45.266670","longitude":"26.133329","country":"RO"},{"id":"669818","name":"Porumbacu de Jos","latitude":"45.750000","longitude":"24.450001","country":"RO"},{"id":"669832","name":"Poroschia","latitude":"43.933331","longitude":"25.366671","country":"RO"},{"id":"669847","name":"Popricani","latitude":"47.299999","longitude":"27.516670","country":"RO"},{"id":"669850","name":"Poporogi","latitude":"44.366669","longitude":"25.183331","country":"RO"},{"id":"669870","name":"Popesti-Leordeni","latitude":"44.383331","longitude":"26.166670","country":"RO"},{"id":"669882","name":"Popesti","latitude":"47.233330","longitude":"22.416670","country":"RO"},{"id":"669883","name":"Popesti","latitude":"47.150002","longitude":"27.233330","country":"RO"},{"id":"669897","name":"Popesti","latitude":"44.983330","longitude":"24.100000","country":"RO"},{"id":"669904","name":"Popesti","latitude":"44.766670","longitude":"25.066669","country":"RO"},{"id":"669940","name":"Ponoarele","latitude":"44.973888","longitude":"22.764441","country":"RO"},{"id":"669947","name":"Pomarla","latitude":"48.066669","longitude":"26.316669","country":"RO"},{"id":"669950","name":"Pomi","latitude":"47.700001","longitude":"23.316669","country":"RO"},{"id":"669952","name":"Pomezeu","latitude":"46.783329","longitude":"22.283331","country":"RO"},{"id":"669955","name":"Polovragi","latitude":"45.183331","longitude":"23.799999","country":"RO"},{"id":"669968","name":"Pojorata","latitude":"47.516670","longitude":"25.450001","country":"RO"},{"id":"669980","name":"Pojejena","latitude":"44.774170","longitude":"21.579170","country":"RO"},{"id":"669995","name":"Poienile de sub Munte","latitude":"47.816669","longitude":"24.433331","country":"RO"},{"id":"669998","name":"Poienile","latitude":"46.933331","longitude":"27.183331","country":"RO"},{"id":"670006","name":"Poienesti","latitude":"46.616669","longitude":"27.533331","country":"RO"},{"id":"670008","name":"Poienari","latitude":"46.900002","longitude":"27.133329","country":"RO"},{"id":"670021","name":"Poiana Teiului","latitude":"47.099998","longitude":"25.966669","country":"RO"},{"id":"670028","name":"Poiana Stampei","latitude":"47.316669","longitude":"25.133329","country":"RO"},{"id":"670033","name":"Poiana Sibiului","latitude":"45.799999","longitude":"23.733330","country":"RO"},{"id":"670059","name":"Poiana Marului","latitude":"45.599998","longitude":"25.299999","country":"RO"},{"id":"670064","name":"Poiana Mare","latitude":"43.916672","longitude":"23.066669","country":"RO"},{"id":"670075","name":"Poiana Lacului","latitude":"44.816669","longitude":"24.733330","country":"RO"},{"id":"670092","name":"Poiana Cristei","latitude":"45.650002","longitude":"26.983330","country":"RO"},{"id":"670093","name":"Poiana Cracaoani","latitude":"47.066669","longitude":"26.316669","country":"RO"},{"id":"670098","name":"Poiana Campina","latitude":"45.133331","longitude":"25.683331","country":"RO"},{"id":"670155","name":"Poiana","latitude":"44.566669","longitude":"25.683331","country":"RO"},{"id":"670162","name":"Poian","latitude":"46.066669","longitude":"26.150000","country":"RO"},{"id":"670167","name":"Pogoanele","latitude":"44.916672","longitude":"27.000000","country":"RO"},{"id":"670178","name":"Pogana","latitude":"46.316669","longitude":"27.566669","country":"RO"},{"id":"670180","name":"Pogaceaua","latitude":"46.683331","longitude":"24.299999","country":"RO"},{"id":"670213","name":"Poeni","latitude":"46.916672","longitude":"22.900000","country":"RO"},{"id":"670222","name":"Poeni","latitude":"44.400002","longitude":"25.333330","country":"RO"},{"id":"670232","name":"Poenari-Burchi","latitude":"44.750000","longitude":"26.016670","country":"RO"},{"id":"670245","name":"Poienari","latitude":"45.216671","longitude":"25.049999","country":"RO"},{"id":"670257","name":"Podu Turcului","latitude":"46.200001","longitude":"27.383329","country":"RO"},{"id":"670273","name":"Poduri","latitude":"46.616669","longitude":"24.066669","country":"RO"},{"id":"670274","name":"Poduri","latitude":"46.466671","longitude":"26.533331","country":"RO"},{"id":"670297","name":"Podu Iloaiei","latitude":"47.216671","longitude":"27.266670","country":"RO"},{"id":"670319","name":"Podoleni","latitude":"46.799999","longitude":"26.616671","country":"RO"},{"id":"670330","name":"Podgoria","latitude":"45.416672","longitude":"27.016670","country":"RO"},{"id":"670336","name":"Podenii Noi","latitude":"45.116669","longitude":"26.166670","country":"RO"},{"id":"670353","name":"Podari","latitude":"44.250000","longitude":"23.783331","country":"RO"},{"id":"670372","name":"Poboru","latitude":"44.666672","longitude":"24.500000","country":"RO"},{"id":"670376","name":"Poarta Alba","latitude":"44.216671","longitude":"28.400000","country":"RO"},{"id":"670390","name":"Plugari","latitude":"47.483330","longitude":"27.100000","country":"RO"},{"id":"670409","name":"Plosca","latitude":"44.033329","longitude":"25.133329","country":"RO"},{"id":"670425","name":"Plopu","latitude":"45.016670","longitude":"26.150000","country":"RO"},{"id":"670432","name":"Plopsoru","latitude":"44.783329","longitude":"23.350000","country":"RO"},{"id":"670443","name":"Plopis","latitude":"47.133331","longitude":"22.683331","country":"RO"},{"id":"670446","name":"Plopii Slavitesti","latitude":"43.966671","longitude":"24.683331","country":"RO"},{"id":"670467","name":"Plopeni","latitude":"45.066669","longitude":"25.983330","country":"RO"},{"id":"670472","name":"Plopana","latitude":"46.683331","longitude":"27.216669","country":"RO"},{"id":"670474","name":"Ploiesti","latitude":"44.950001","longitude":"26.016670","country":"RO"},{"id":"670494","name":"Plesoiu","latitude":"44.466671","longitude":"24.266670","country":"RO"},{"id":"670528","name":"Plenita","latitude":"44.216671","longitude":"23.183331","country":"RO"},{"id":"670552","name":"Plataresti","latitude":"44.349998","longitude":"26.366671","country":"RO"},{"id":"670609","name":"Pitesti","latitude":"44.849998","longitude":"24.866671","country":"RO"},{"id":"670623","name":"Piscu Vechi","latitude":"43.900002","longitude":"23.166670","country":"RO"},{"id":"670649","name":"Piscu","latitude":"45.500000","longitude":"27.733330","country":"RO"},{"id":"670652","name":"Piscolt","latitude":"47.583328","longitude":"22.299999","country":"RO"},{"id":"670659","name":"Pischia","latitude":"45.903061","longitude":"21.337219","country":"RO"},{"id":"670686","name":"Parscov","latitude":"45.283329","longitude":"26.549999","country":"RO"},{"id":"670706","name":"Parjol","latitude":"46.583328","longitude":"26.600000","country":"RO"},{"id":"670768","name":"Pargaresti","latitude":"46.250000","longitude":"26.650000","country":"RO"},{"id":"670777","name":"Pipirig","latitude":"47.250000","longitude":"26.066669","country":"RO"},{"id":"670794","name":"Pancota","latitude":"46.333328","longitude":"21.700001","country":"RO"},{"id":"670801","name":"Pilu","latitude":"46.566669","longitude":"21.350000","country":"RO"},{"id":"670815","name":"Pietrosita","latitude":"45.183331","longitude":"25.433331","country":"RO"},{"id":"670819","name":"Pietrosani","latitude":"45.183331","longitude":"24.850000","country":"RO"},{"id":"670821","name":"Pietrosani","latitude":"43.716671","longitude":"25.633329","country":"RO"},{"id":"670826","name":"Pietroasele","latitude":"45.099998","longitude":"26.566669","country":"RO"},{"id":"670832","name":"Pietroasa","latitude":"46.583328","longitude":"22.549999","country":"RO"},{"id":"670862","name":"Pietrari","latitude":"45.099998","longitude":"24.133329","country":"RO"},{"id":"670869","name":"Pielesti","latitude":"44.333328","longitude":"23.950001","country":"RO"},{"id":"670884","name":"Piatra Soimului","latitude":"46.833328","longitude":"26.433331","country":"RO"},{"id":"670888","name":"Piatra Olt","latitude":"44.366669","longitude":"24.266670","country":"RO"},{"id":"670889","name":"Piatra Neamt","latitude":"46.916672","longitude":"26.333330","country":"RO"},{"id":"670923","name":"Piatra","latitude":"43.816669","longitude":"25.166670","country":"RO"},{"id":"670925","name":"Pianu de Sus","latitude":"45.900002","longitude":"23.483330","country":"RO"},{"id":"670934","name":"Petrova","latitude":"47.829811","longitude":"24.215330","country":"RO"},{"id":"670938","name":"Petrosani","latitude":"45.416672","longitude":"23.366671","country":"RO"},{"id":"670969","name":"Petrila","latitude":"45.450001","longitude":"23.416670","country":"RO"},{"id":"670981","name":"Petricani","latitude":"47.166672","longitude":"26.466669","country":"RO"},{"id":"671003","name":"Petresti","latitude":"44.650002","longitude":"25.333330","country":"RO"},{"id":"671015","name":"Petrachioaia","latitude":"44.583328","longitude":"26.299999","country":"RO"},{"id":"671034","name":"Petelea","latitude":"46.728920","longitude":"24.706539","country":"RO"},{"id":"671053","name":"Pestisani","latitude":"45.066669","longitude":"23.033331","country":"RO"},{"id":"671067","name":"Pestera","latitude":"44.183331","longitude":"28.133329","country":"RO"},{"id":"671080","name":"Pesceana","latitude":"44.883331","longitude":"24.150000","country":"RO"},{"id":"671110","name":"Perisoru","latitude":"44.450001","longitude":"27.549999","country":"RO"},{"id":"671116","name":"Perisani","latitude":"45.383331","longitude":"24.400000","country":"RO"},{"id":"671118","name":"Peris","latitude":"44.684719","longitude":"26.013889","country":"RO"},{"id":"671128","name":"Perieti","latitude":"44.549999","longitude":"27.216669","country":"RO"},{"id":"671129","name":"Perieti","latitude":"44.400002","longitude":"24.549999","country":"RO"},{"id":"671132","name":"Perieni","latitude":"46.299999","longitude":"27.616671","country":"RO"},{"id":"671136","name":"Periceiu","latitude":"47.233330","longitude":"22.883329","country":"RO"},{"id":"671138","name":"Periam","latitude":"46.049999","longitude":"20.866671","country":"RO"},{"id":"671145","name":"Peretu","latitude":"44.049999","longitude":"25.083330","country":"RO"},{"id":"671182","name":"Peciu Nou","latitude":"45.606392","longitude":"21.057779","country":"RO"},{"id":"671184","name":"Pecineaga","latitude":"43.900002","longitude":"28.500000","country":"RO"},{"id":"671187","name":"Pechea","latitude":"45.633331","longitude":"27.799999","country":"RO"},{"id":"671191","name":"Peceneaga","latitude":"45.016670","longitude":"28.133329","country":"RO"},{"id":"671196","name":"Pausesti","latitude":"45.066669","longitude":"24.133329","country":"RO"},{"id":"671200","name":"Pausesti-Maglasi","latitude":"45.133331","longitude":"24.250000","country":"RO"},{"id":"671209","name":"Paunesti","latitude":"46.033329","longitude":"27.100000","country":"RO"},{"id":"671218","name":"Paulis","latitude":"46.116669","longitude":"21.583330","country":"RO"},{"id":"671224","name":"Paulesti","latitude":"47.783329","longitude":"22.916670","country":"RO"},{"id":"671228","name":"Paulesti","latitude":"45.000000","longitude":"25.983330","country":"RO"},{"id":"671243","name":"Pauca","latitude":"46.016670","longitude":"23.900000","country":"RO"},{"id":"671248","name":"Patulele","latitude":"44.345280","longitude":"22.772779","country":"RO"},{"id":"671263","name":"Patrauti","latitude":"47.716671","longitude":"26.200001","country":"RO"},{"id":"671281","name":"Pastraveni","latitude":"47.166672","longitude":"26.566669","country":"RO"},{"id":"671311","name":"Parva","latitude":"47.400002","longitude":"24.549999","country":"RO"},{"id":"671319","name":"Partestii de Jos","latitude":"47.633331","longitude":"25.966669","country":"RO"},{"id":"671337","name":"Parincea","latitude":"46.483330","longitude":"27.100000","country":"RO"},{"id":"671352","name":"Parava","latitude":"46.299999","longitude":"27.000000","country":"RO"},{"id":"671374","name":"Panticeu","latitude":"47.033329","longitude":"23.566669","country":"RO"},{"id":"671382","name":"Pantelimon","latitude":"44.450001","longitude":"26.200001","country":"RO"},{"id":"671390","name":"Panet","latitude":"46.555141","longitude":"24.469730","country":"RO"},{"id":"671398","name":"Panciu","latitude":"45.900002","longitude":"27.083330","country":"RO"},{"id":"671402","name":"Pancesti","latitude":"46.333328","longitude":"27.083330","country":"RO"},{"id":"671413","name":"Panaci","latitude":"47.266670","longitude":"25.383329","country":"RO"},{"id":"671418","name":"Paltinoasa","latitude":"47.549999","longitude":"25.950001","country":"RO"},{"id":"671427","name":"Paltinis","latitude":"48.216671","longitude":"26.650000","country":"RO"},{"id":"671435","name":"Paltinis","latitude":"45.433331","longitude":"22.150000","country":"RO"},{"id":"671443","name":"Paltin","latitude":"45.783329","longitude":"26.716669","country":"RO"},{"id":"671471","name":"Palanca","latitude":"46.533329","longitude":"26.116671","country":"RO"},{"id":"671550","name":"Padina Mica","latitude":"44.427219","longitude":"22.992500","country":"RO"},{"id":"671556","name":"Padina","latitude":"44.833328","longitude":"27.116671","country":"RO"},{"id":"671559","name":"Pades","latitude":"45.016670","longitude":"22.850000","country":"RO"},{"id":"671568","name":"Pacureti","latitude":"45.150002","longitude":"26.133329","country":"RO"},{"id":"671580","name":"Ozun","latitude":"45.799999","longitude":"25.850000","country":"RO"},{"id":"671584","name":"Ovidiu","latitude":"44.266670","longitude":"28.566669","country":"RO"},{"id":"671586","name":"Oveselu","latitude":"44.750000","longitude":"24.016670","country":"RO"},{"id":"671590","name":"Otopeni","latitude":"44.549999","longitude":"26.066669","country":"RO"},{"id":"671600","name":"Otesani","latitude":"45.066669","longitude":"24.033331","country":"RO"},{"id":"671603","name":"Otelu Rosu","latitude":"45.533329","longitude":"22.366671","country":"RO"},{"id":"671607","name":"Oteleni","latitude":"47.083328","longitude":"27.033331","country":"RO"},{"id":"671626","name":"Ostroveni","latitude":"43.799999","longitude":"23.900000","country":"RO"},{"id":"671634","name":"Ostrov","latitude":"44.933331","longitude":"28.150000","country":"RO"},{"id":"671636","name":"Ostrov","latitude":"44.116669","longitude":"27.366671","country":"RO"},{"id":"671641","name":"Ostra","latitude":"47.400002","longitude":"25.766670","country":"RO"},{"id":"671644","name":"Osorheiu","latitude":"47.033329","longitude":"22.049999","country":"RO"},{"id":"671657","name":"Osica de Sus","latitude":"44.250000","longitude":"24.316669","country":"RO"},{"id":"671661","name":"Osesti","latitude":"46.766670","longitude":"27.466669","country":"RO"},{"id":"671676","name":"Ortisoara","latitude":"45.963612","longitude":"21.198330","country":"RO"},{"id":"671681","name":"Orsova","latitude":"44.725281","longitude":"22.396111","country":"RO"},{"id":"671691","name":"Orodelu","latitude":"44.233330","longitude":"23.233330","country":"RO"},{"id":"671699","name":"Ormenis","latitude":"46.016670","longitude":"25.549999","country":"RO"},{"id":"671705","name":"Orlesti","latitude":"44.799999","longitude":"24.216669","country":"RO"},{"id":"671709","name":"Orlea","latitude":"43.750000","longitude":"24.383329","country":"RO"},{"id":"671711","name":"Orlat","latitude":"45.750000","longitude":"23.966669","country":"RO"},{"id":"671737","name":"Orbeni","latitude":"46.283329","longitude":"27.016670","country":"RO"},{"id":"671738","name":"Orbeasca de Sus","latitude":"44.150002","longitude":"25.316669","country":"RO"},{"id":"671746","name":"Oravita","latitude":"45.032501","longitude":"21.689440","country":"RO"},{"id":"671751","name":"Orasu Nou","latitude":"47.833328","longitude":"23.283331","country":"RO"},{"id":"671753","name":"Orastioara de Sus","latitude":"45.733330","longitude":"23.166670","country":"RO"},{"id":"671757","name":"Orastie","latitude":"45.833328","longitude":"23.200001","country":"RO"},{"id":"671768","name":"Oradea","latitude":"47.066669","longitude":"21.933331","country":"RO"},{"id":"671771","name":"Optasi","latitude":"44.583328","longitude":"24.650000","country":"RO"},{"id":"671776","name":"Oprisor","latitude":"44.283329","longitude":"23.083330","country":"RO"},{"id":"671800","name":"Oniceni","latitude":"46.816669","longitude":"27.150000","country":"RO"},{"id":"671824","name":"Oltina","latitude":"44.166672","longitude":"27.666670","country":"RO"},{"id":"671832","name":"Oltenita","latitude":"44.083328","longitude":"26.633329","country":"RO"},{"id":"671846","name":"Olteni","latitude":"44.183331","longitude":"25.283331","country":"RO"},{"id":"671849","name":"Oltenesti","latitude":"46.583328","longitude":"27.900000","country":"RO"},{"id":"671869","name":"Olcea","latitude":"46.683331","longitude":"21.983330","country":"RO"},{"id":"671873","name":"Olari","latitude":"46.383331","longitude":"21.549999","country":"RO"},{"id":"671884","name":"Olanu","latitude":"44.866669","longitude":"24.299999","country":"RO"},{"id":"671890","name":"Ojdula","latitude":"45.983330","longitude":"26.250000","country":"RO"},{"id":"671896","name":"Oituz","latitude":"46.200001","longitude":"26.616671","country":"RO"},{"id":"671902","name":"Oinacu","latitude":"43.950001","longitude":"26.016670","country":"RO"},{"id":"671933","name":"Ogrezeni","latitude":"44.419720","longitude":"25.768330","country":"RO"},{"id":"671948","name":"Ogra","latitude":"46.433331","longitude":"24.316669","country":"RO"},{"id":"671964","name":"Odorheiu Secuiesc","latitude":"46.299999","longitude":"25.299999","country":"RO"},{"id":"671966","name":"Odoreu","latitude":"47.799999","longitude":"23.000000","country":"RO"},{"id":"671974","name":"Odobesti","latitude":"45.766670","longitude":"27.049999","country":"RO"},{"id":"671975","name":"Odobesti","latitude":"44.616669","longitude":"25.566669","country":"RO"},{"id":"672016","name":"Ocnita","latitude":"44.983330","longitude":"25.549999","country":"RO"},{"id":"672019","name":"Ocnele Mari","latitude":"45.083328","longitude":"24.316669","country":"RO"},{"id":"672021","name":"Ocna Sugatag","latitude":"47.783329","longitude":"23.933331","country":"RO"},{"id":"672023","name":"Ocna Sibiului","latitude":"45.883331","longitude":"24.049999","country":"RO"},{"id":"672024","name":"Ocna Mures","latitude":"46.383331","longitude":"23.850000","country":"RO"},{"id":"672050","name":"Obreja","latitude":"45.483330","longitude":"22.250000","country":"RO"},{"id":"672060","name":"Oboga","latitude":"44.416672","longitude":"24.100000","country":"RO"},{"id":"672073","name":"Obarsia-Camp","latitude":"44.172218","longitude":"22.980000","country":"RO"},{"id":"672108","name":"Oarja Sat","latitude":"44.764290","longitude":"24.971411","country":"RO"},{"id":"672123","name":"Nusfalau","latitude":"47.200001","longitude":"22.733330","country":"RO"},{"id":"672125","name":"Nuseni","latitude":"47.099998","longitude":"24.200001","country":"RO"},{"id":"672128","name":"Nufaru","latitude":"45.150002","longitude":"28.916670","country":"RO"},{"id":"672135","name":"Nuci","latitude":"44.716671","longitude":"26.299999","country":"RO"},{"id":"672142","name":"Nucet","latitude":"46.466671","longitude":"22.583330","country":"RO"},{"id":"672146","name":"Nucet","latitude":"44.783329","longitude":"25.549999","country":"RO"},{"id":"672151","name":"Novaci-Straini","latitude":"45.183331","longitude":"23.666670","country":"RO"},{"id":"672167","name":"Noslac","latitude":"46.400002","longitude":"23.933331","country":"RO"},{"id":"672171","name":"Nojorid","latitude":"46.983330","longitude":"21.883329","country":"RO"},{"id":"672176","name":"Nocrich","latitude":"45.900002","longitude":"24.450001","country":"RO"},{"id":"672192","name":"Nistoresti","latitude":"45.833328","longitude":"26.733330","country":"RO"},{"id":"672216","name":"Nimigea de Sus","latitude":"47.283329","longitude":"24.316669","country":"RO"},{"id":"672229","name":"Niculitel","latitude":"45.183331","longitude":"28.483330","country":"RO"},{"id":"672240","name":"Nicseni","latitude":"47.866669","longitude":"26.633329","country":"RO"},{"id":"672246","name":"Nicoresti","latitude":"45.932232","longitude":"27.308661","country":"RO"},{"id":"672263","name":"Nicolae Titulescu","latitude":"44.299999","longitude":"24.799999","country":"RO"},{"id":"672275","name":"Nicolae Balcescu","latitude":"46.466671","longitude":"26.916670","country":"RO"},{"id":"672280","name":"Nicolae Balcescu","latitude":"44.383331","longitude":"28.383329","country":"RO"},{"id":"672301","name":"Nereju","latitude":"45.716671","longitude":"26.716669","country":"RO"},{"id":"672343","name":"Negru Voda","latitude":"43.816669","longitude":"28.200001","country":"RO"},{"id":"672364","name":"Negri","latitude":"46.700001","longitude":"26.966669","country":"RO"},{"id":"672365","name":"Negresti-Oas","latitude":"47.866669","longitude":"23.433331","country":"RO"},{"id":"672375","name":"Negresti","latitude":"46.833328","longitude":"27.433331","country":"RO"},{"id":"672406","name":"Negrasi","latitude":"44.599998","longitude":"25.116671","country":"RO"},{"id":"672414","name":"Negomiru","latitude":"44.833328","longitude":"23.166670","country":"RO"},{"id":"672486","name":"Navodari","latitude":"44.316669","longitude":"28.600000","country":"RO"},{"id":"672492","name":"Nasturelu","latitude":"43.666672","longitude":"25.466669","country":"RO"},{"id":"672497","name":"Nasaud","latitude":"47.283329","longitude":"24.400000","country":"RO"},{"id":"672502","name":"Naruja","latitude":"45.833328","longitude":"26.783331","country":"RO"},{"id":"672507","name":"Napradea","latitude":"47.366669","longitude":"23.316669","country":"RO"},{"id":"672512","name":"Nanov","latitude":"44.000000","longitude":"25.299999","country":"RO"},{"id":"672518","name":"Nanesti","latitude":"45.549999","longitude":"27.500000","country":"RO"},{"id":"672523","name":"Nana","latitude":"44.266670","longitude":"26.583330","country":"RO"},{"id":"672525","name":"Namoloasa-Sat","latitude":"45.533329","longitude":"27.583330","country":"RO"},{"id":"672532","name":"Nalbant","latitude":"45.049999","longitude":"28.616671","country":"RO"},{"id":"672540","name":"Naeni","latitude":"45.099998","longitude":"26.483330","country":"RO"},{"id":"672544","name":"Nadrag","latitude":"45.650002","longitude":"22.183331","country":"RO"},{"id":"672546","name":"Nadlac","latitude":"46.166672","longitude":"20.750000","country":"RO"},{"id":"672551","name":"Nades","latitude":"46.316669","longitude":"24.733330","country":"RO"},{"id":"672581","name":"Musatesti","latitude":"45.216671","longitude":"24.783331","country":"RO"},{"id":"672582","name":"Musetesti","latitude":"45.150002","longitude":"23.466669","country":"RO"},{"id":"672583","name":"Musenita","latitude":"47.966671","longitude":"26.000000","country":"RO"},{"id":"672602","name":"Murighiol","latitude":"45.033329","longitude":"29.166670","country":"RO"},{"id":"672615","name":"Murgeni","latitude":"46.204441","longitude":"28.019720","country":"RO"},{"id":"672620","name":"Murfatlar","latitude":"44.183331","longitude":"28.416670","country":"RO"},{"id":"672651","name":"Muntenii de Jos","latitude":"46.616669","longitude":"27.766670","country":"RO"},{"id":"672654","name":"Munteni Buzau","latitude":"44.633331","longitude":"26.983330","country":"RO"},{"id":"672660","name":"Munteni","latitude":"45.933331","longitude":"27.433331","country":"RO"},{"id":"672669","name":"Muntele Mic","latitude":"45.383331","longitude":"22.333330","country":"RO"},{"id":"672700","name":"Mugeni","latitude":"46.250000","longitude":"25.216669","country":"RO"},{"id":"672704","name":"Muereasca","latitude":"45.183331","longitude":"24.333330","country":"RO"},{"id":"672714","name":"Mozaceni","latitude":"44.566669","longitude":"25.166670","country":"RO"},{"id":"672720","name":"Movilita","latitude":"45.950001","longitude":"27.100000","country":"RO"},{"id":"672722","name":"Movilita","latitude":"44.650002","longitude":"26.483330","country":"RO"},{"id":"672729","name":"Movileni","latitude":"47.316669","longitude":"27.350000","country":"RO"},{"id":"672732","name":"Movileni","latitude":"45.761539","longitude":"27.371840","country":"RO"},{"id":"672734","name":"Movileni","latitude":"44.366669","longitude":"24.650000","country":"RO"},{"id":"672744","name":"Movila Miresei","latitude":"45.216671","longitude":"27.600000","country":"RO"},{"id":"672746","name":"Movila Banului","latitude":"44.983330","longitude":"26.683331","country":"RO"},{"id":"672752","name":"Movila","latitude":"44.549999","longitude":"27.700001","country":"RO"},{"id":"672757","name":"Motru","latitude":"44.803329","longitude":"22.971939","country":"RO"},{"id":"672760","name":"Motoseni","latitude":"46.333328","longitude":"27.383329","country":"RO"},{"id":"672781","name":"Motca","latitude":"47.250000","longitude":"26.616671","country":"RO"},{"id":"672784","name":"Motatei","latitude":"44.083328","longitude":"23.200001","country":"RO"},{"id":"672786","name":"Motaeni","latitude":"45.099998","longitude":"25.416670","country":"RO"},{"id":"672808","name":"Mosoaia","latitude":"44.816669","longitude":"24.766670","country":"RO"},{"id":"672809","name":"Mosnita Noua","latitude":"45.717220","longitude":"21.325279","country":"RO"},{"id":"672825","name":"Mosna","latitude":"46.916672","longitude":"27.950001","country":"RO"},{"id":"672826","name":"Mosna","latitude":"46.083328","longitude":"24.400000","country":"RO"},{"id":"672838","name":"Morunglav","latitude":"44.466671","longitude":"24.116671","country":"RO"},{"id":"672842","name":"Morteni","latitude":"44.666672","longitude":"25.233330","country":"RO"},{"id":"672847","name":"Moroeni","latitude":"45.216671","longitude":"25.433331","country":"RO"},{"id":"672862","name":"Moreni","latitude":"44.983330","longitude":"25.650000","country":"RO"},{"id":"672868","name":"Moravita","latitude":"45.255829","longitude":"21.270281","country":"RO"},{"id":"672876","name":"Moraresti","latitude":"45.016670","longitude":"24.566669","country":"RO"},{"id":"672899","name":"Moldovita","latitude":"47.683331","longitude":"25.533331","country":"RO"},{"id":"672901","name":"Moldoveni","latitude":"46.833328","longitude":"26.766670","country":"RO"},{"id":"672905","name":"Moldovenesti","latitude":"46.500000","longitude":"23.650000","country":"RO"},{"id":"672911","name":"Moldova Sulita","latitude":"47.683331","longitude":"25.250000","country":"RO"},{"id":"672912","name":"Moldova Noua","latitude":"44.737499","longitude":"21.666941","country":"RO"},{"id":"672922","name":"Moisei","latitude":"47.655621","longitude":"24.540110","country":"RO"},{"id":"672926","name":"Moinesti","latitude":"46.466671","longitude":"26.483330","country":"RO"},{"id":"672937","name":"Mogosoaia","latitude":"44.529171","longitude":"26.000000","country":"RO"},{"id":"672938","name":"Mogosesti-Siret","latitude":"47.133331","longitude":"26.783331","country":"RO"},{"id":"672943","name":"Mogosesti","latitude":"47.033329","longitude":"27.533331","country":"RO"},{"id":"672955","name":"Mogosani","latitude":"44.683331","longitude":"25.400000","country":"RO"},{"id":"672964","name":"Moftinu Mare","latitude":"47.666672","longitude":"22.666670","country":"RO"},{"id":"672968","name":"Moeciu de Jos","latitude":"45.483330","longitude":"25.316669","country":"RO"},{"id":"672977","name":"Modelu","latitude":"44.200001","longitude":"27.383329","country":"RO"},{"id":"672983","name":"Mociu","latitude":"46.799999","longitude":"24.033331","country":"RO"},{"id":"672987","name":"Mocesti","latitude":"45.049999","longitude":"26.250000","country":"RO"},{"id":"673016","name":"Moara Carp","latitude":"47.566669","longitude":"26.233330","country":"RO"},{"id":"673022","name":"Moacsa","latitude":"45.866669","longitude":"25.966669","country":"RO"},{"id":"673033","name":"Mizil","latitude":"45.016670","longitude":"26.450001","country":"RO"},{"id":"673048","name":"Mitreni","latitude":"44.166672","longitude":"26.600000","country":"RO"},{"id":"673050","name":"Mitocu Dragomirnei","latitude":"47.733330","longitude":"26.250000","country":"RO"},{"id":"673054","name":"Mitoc","latitude":"48.099998","longitude":"27.033331","country":"RO"},