[{"id":"2414055","name":"Youkounkoun","latitude":"12.533330","longitude":"-13.133330","country":"GN"},{"id":"2414079","name":"Yomou","latitude":"7.560280","longitude":"-9.265280","country":"GN"},{"id":"2414545","name":"Tougue","latitude":"11.450000","longitude":"-11.683330","country":"GN"},{"id":"2414616","name":"Tondon","latitude":"10.366670","longitude":"-13.350000","country":"GN"},{"id":"2414659","name":"Tokonou","latitude":"9.650000","longitude":"-9.783330","country":"GN"},{"id":"2414926","name":"Telimele","latitude":"10.900000","longitude":"-13.033330","country":"GN"},{"id":"2415703","name":"Siguiri","latitude":"11.422820","longitude":"-9.168520","country":"GN"},{"id":"2416061","name":"Sangueya","latitude":"10.700000","longitude":"-14.366670","country":"GN"},{"id":"2416443","name":"Pita","latitude":"11.083330","longitude":"-12.400000","country":"GN"},{"id":"2416969","name":"Nzerekore","latitude":"7.756240","longitude":"-8.817900","country":"GN"},{"id":"2417795","name":"Mandiana","latitude":"10.633330","longitude":"-8.683330","country":"GN"},{"id":"2417833","name":"Mamou","latitude":"10.375460","longitude":"-12.091480","country":"GN"},{"id":"2417886","name":"Mali","latitude":"12.079000","longitude":"-12.298200","country":"GN"},{"id":"2417988","name":"Macenta","latitude":"8.543510","longitude":"-9.470990","country":"GN"},{"id":"2418092","name":"Lola","latitude":"7.800000","longitude":"-8.533330","country":"GN"},{"id":"2418362","name":"Labe","latitude":"11.318230","longitude":"-12.283320","country":"GN"},{"id":"2418437","name":"Kouroussa","latitude":"10.650000","longitude":"-9.883330","country":"GN"},{"id":"2418596","name":"Koundara","latitude":"12.483330","longitude":"-13.300000","country":"GN"},{"id":"2418764","name":"Koubia","latitude":"11.583330","longitude":"-11.900000","country":"GN"},{"id":"2419472","name":"Kissidougou","latitude":"9.184800","longitude":"-10.099870","country":"GN"},{"id":"2419533","name":"Kindia","latitude":"10.056920","longitude":"-12.865760","country":"GN"},{"id":"2419538","name":"Kimbo","latitude":"10.400000","longitude":"-13.550000","country":"GN"},{"id":"2419622","name":"Kerouane","latitude":"9.266670","longitude":"-9.016670","country":"GN"},{"id":"2419992","name":"Kankan","latitude":"10.385420","longitude":"-9.305680","country":"GN"},{"id":"2420056","name":"Kamsar","latitude":"10.666670","longitude":"-14.600000","country":"GN"},{"id":"2420562","name":"Gueckedou","latitude":"8.562500","longitude":"-10.132500","country":"GN"},{"id":"2420826","name":"Gaoual","latitude":"11.750000","longitude":"-13.200000","country":"GN"},{"id":"2420884","name":"Fria","latitude":"10.450000","longitude":"-13.533330","country":"GN"},{"id":"2420985","name":"Forecariah","latitude":"9.430560","longitude":"-13.088060","country":"GN"},{"id":"2421273","name":"Faranah","latitude":"10.040360","longitude":"-10.743430","country":"GN"},{"id":"2421535","name":"Dubreka","latitude":"9.791110","longitude":"-13.523330","country":"GN"},{"id":"2421903","name":"Dinguiraye","latitude":"11.300000","longitude":"-10.716670","country":"GN"},{"id":"2422383","name":"Dalaba","latitude":"10.700000","longitude":"-12.250000","country":"GN"},{"id":"2422442","name":"Dabola","latitude":"10.750000","longitude":"-11.116670","country":"GN"},{"id":"2422457","name":"Coyah","latitude":"9.705560","longitude":"-13.376940","country":"GN"},{"id":"2422465","name":"Conakry","latitude":"9.537950","longitude":"-13.677290","country":"GN"},{"id":"2422488","name":"Camayenne","latitude":"9.535000","longitude":"-13.687780","country":"GN"},{"id":"2422924","name":"Boke","latitude":"10.940940","longitude":"-14.296650","country":"GN"},{"id":"2422968","name":"Boffa","latitude":"10.166670","longitude":"-14.033330","country":"GN"},{"id":"2423126","name":"Beyla","latitude":"8.683330","longitude":"-8.633330","country":"GN"},{"id":"2578880","name":"Lelouma","latitude":"11.183330","longitude":"-12.933330","country":"GN"}]