[{"id":"3573576","name":"Tunapuna","latitude":"10.633330","longitude":"-61.383331","country":"TT"},{"id":"3573643","name":"Paradise","latitude":"10.634710","longitude":"-61.366711","country":"TT"},{"id":"3573650","name":"Tabaquite","latitude":"10.383330","longitude":"-61.299999","country":"TT"},{"id":"3573681","name":"Siparia","latitude":"10.133330","longitude":"-61.500000","country":"TT"},{"id":"3573703","name":"Scarborough","latitude":"11.183330","longitude":"-60.733330","country":"TT"},{"id":"3573732","name":"Sangre Grande","latitude":"10.583330","longitude":"-61.116669","country":"TT"},{"id":"3573738","name":"San Fernando","latitude":"10.283330","longitude":"-61.466671","country":"TT"},{"id":"3573882","name":"Princes Town","latitude":"10.266670","longitude":"-61.383331","country":"TT"},{"id":"3573890","name":"Port-of-Spain","latitude":"10.666170","longitude":"-61.516571","country":"TT"},{"id":"3573899","name":"Point Fortin","latitude":"10.183330","longitude":"-61.683331","country":"TT"},{"id":"3573965","name":"Penal","latitude":"10.166670","longitude":"-61.466671","country":"TT"},{"id":"3574069","name":"Mucurapo","latitude":"10.666670","longitude":"-61.533329","country":"TT"},{"id":"3574116","name":"Mon Repos","latitude":"10.283000","longitude":"-61.446049","country":"TT"},{"id":"3574194","name":"Marabella","latitude":"10.306180","longitude":"-61.446709","country":"TT"},{"id":"3574659","name":"Debe","latitude":"10.200000","longitude":"-61.450001","country":"TT"},{"id":"3574724","name":"Couva","latitude":"10.422480","longitude":"-61.467480","country":"TT"},{"id":"3574810","name":"Chaguanas","latitude":"10.516670","longitude":"-61.416672","country":"TT"},{"id":"3575039","name":"Arouca","latitude":"10.633330","longitude":"-61.333328","country":"TT"},{"id":"3575051","name":"Arima","latitude":"10.633330","longitude":"-61.283329","country":"TT"}]