[{"id":"3427213","name":"Zarate","latitude":"-34.098141","longitude":"-59.028580","country":"AR"},{"id":"3427273","name":"Yataity Calle","latitude":"-29.019131","longitude":"-58.908459","country":"AR"},{"id":"3427279","name":"Yapeyu","latitude":"-29.469139","longitude":"-56.818409","country":"AR"},{"id":"3427386","name":"Villa Paranacito","latitude":"-33.722080","longitude":"-58.657982","country":"AR"},{"id":"3427388","name":"Villa Ocampo","latitude":"-28.487520","longitude":"-59.355148","country":"AR"},{"id":"3427399","name":"Villa Maria Grande","latitude":"-31.665649","longitude":"-59.901821","country":"AR"},{"id":"3427420","name":"Villa Hernandarias","latitude":"-31.231010","longitude":"-59.985001","country":"AR"},{"id":"3427428","name":"Villaguay","latitude":"-31.865299","longitude":"-59.026890","country":"AR"},{"id":"3427431","name":"Villa Gesell","latitude":"-37.263939","longitude":"-56.973042","country":"AR"},{"id":"3427443","name":"Villa Elisa","latitude":"-32.163200","longitude":"-58.400822","country":"AR"},{"id":"3427454","name":"Villa del Rosario","latitude":"-30.795670","longitude":"-57.912571","country":"AR"},{"id":"3427537","name":"Veinticinco de Mayo","latitude":"-27.376789","longitude":"-54.743118","country":"AR"},{"id":"3427582","name":"Urdinarrain","latitude":"-32.685730","longitude":"-58.893242","country":"AR"},{"id":"3427593","name":"Ubajay","latitude":"-31.793579","longitude":"-58.313499","country":"AR"},{"id":"3427761","name":"Tigre","latitude":"-34.426029","longitude":"-58.579620","country":"AR"},{"id":"3427833","name":"Tandil","latitude":"-37.321671","longitude":"-59.133160","country":"AR"},{"id":"3427994","name":"Sauce de Luna","latitude":"-31.237940","longitude":"-59.218719","country":"AR"},{"id":"3428068","name":"San Vicente","latitude":"-26.616671","longitude":"-54.133331","country":"AR"},{"id":"3428071","name":"Santo Tome","latitude":"-28.549391","longitude":"-56.040771","country":"AR"},{"id":"3428079","name":"Santo Pipo","latitude":"-27.141319","longitude":"-55.408669","country":"AR"},{"id":"3428182","name":"Santa Rosa","latitude":"-28.263180","longitude":"-58.118912","country":"AR"},{"id":"3428287","name":"Santa Lucia","latitude":"-28.987459","longitude":"-59.102871","country":"AR"},{"id":"3428359","name":"Santa Elena","latitude":"-30.947680","longitude":"-59.786961","country":"AR"},{"id":"3428453","name":"Santa Ana","latitude":"-30.900040","longitude":"-57.931622","country":"AR"},{"id":"3428481","name":"San Salvador","latitude":"-31.624870","longitude":"-58.505241","country":"AR"},{"id":"3428577","name":"San Pedro","latitude":"-26.622070","longitude":"-54.108421","country":"AR"},{"id":"3428644","name":"San Miguel","latitude":"-27.995850","longitude":"-57.589642","country":"AR"},{"id":"3428708","name":"San Luis del Palmar","latitude":"-27.507900","longitude":"-58.554539","country":"AR"},{"id":"3428759","name":"San Lorenzo","latitude":"-28.133060","longitude":"-58.767330","country":"AR"},{"id":"3428858","name":"San Jose de Feliciano","latitude":"-30.384520","longitude":"-58.751671","country":"AR"},{"id":"3428928","name":"San Jose","latitude":"-27.769791","longitude":"-55.782600","country":"AR"},{"id":"3428975","name":"San Javier","latitude":"-30.577810","longitude":"-59.931702","country":"AR"},{"id":"3429054","name":"San Francisco de Laishi","latitude":"-26.242620","longitude":"-58.630390","country":"AR"},{"id":"3429157","name":"San Cosme","latitude":"-27.371229","longitude":"-58.512138","country":"AR"},{"id":"3429160","name":"San Clemente del Tuyu","latitude":"-36.356941","longitude":"-56.723511","country":"AR"},{"id":"3429210","name":"San Carlos","latitude":"-27.745859","longitude":"-55.897301","country":"AR"},{"id":"3429403","name":"Saladas","latitude":"-28.253839","longitude":"-58.625912","country":"AR"},{"id":"3429426","name":"Ruiz de Montoya","latitude":"-26.983330","longitude":"-55.049999","country":"AR"},{"id":"3429439","name":"Rosario del Tala","latitude":"-32.302860","longitude":"-59.145451","country":"AR"},{"id":"3429560","name":"Riachuelo","latitude":"-27.577539","longitude":"-58.739449","country":"AR"},{"id":"3429567","name":"Riacho Eh-Eh","latitude":"-25.362089","longitude":"-58.277500","country":"AR"},{"id":"3429576","name":"Retiro","latitude":"-34.583328","longitude":"-58.383331","country":"AR"},{"id":"3429577","name":"Resistencia","latitude":"-27.460560","longitude":"-58.983891","country":"AR"},{"id":"3429594","name":"Reconquista","latitude":"-29.150000","longitude":"-59.650002","country":"AR"},{"id":"3429652","name":"Quilmes","latitude":"-34.724178","longitude":"-58.252651","country":"AR"},{"id":"3429713","name":"Puerto Vilelas","latitude":"-27.514139","longitude":"-58.939060","country":"AR"},{"id":"3429721","name":"Puerto Tirol","latitude":"-27.372181","longitude":"-59.082062","country":"AR"},{"id":"3429732","name":"Puerto Rico","latitude":"-26.795980","longitude":"-55.024021","country":"AR"},{"id":"3429738","name":"Puerto Piray","latitude":"-26.467791","longitude":"-54.714760","country":"AR"},{"id":"3429764","name":"Puerto Libertad","latitude":"-25.916410","longitude":"-54.620892","country":"AR"},{"id":"3429765","name":"Puerto Leoni","latitude":"-26.960690","longitude":"-55.165699","country":"AR"},{"id":"3429777","name":"Puerto Iguazu","latitude":"-25.599119","longitude":"-54.573551","country":"AR"},{"id":"3429778","name":"Puerto Ibicuy","latitude":"-33.733330","longitude":"-59.183331","country":"AR"},{"id":"3429786","name":"Puerto Esperanza","latitude":"-26.015169","longitude":"-54.673061","country":"AR"},{"id":"3429790","name":"Puerto Eldorado","latitude":"-26.408421","longitude":"-54.694630","country":"AR"},{"id":"3429820","name":"Pueblo Libertador","latitude":"-30.220869","longitude":"-59.389809","country":"AR"},{"id":"3429864","name":"Presidencia Roca","latitude":"-26.140900","longitude":"-59.595409","country":"AR"},{"id":"3429866","name":"Presidencia de la Plaza","latitude":"-27.001471","longitude":"-59.842430","country":"AR"},{"id":"3429886","name":"Posadas","latitude":"-27.367081","longitude":"-55.896080","country":"AR"},{"id":"3429902","name":"Pontevedra","latitude":"-34.749741","longitude":"-58.686958","country":"AR"},{"id":"3429949","name":"Pirane","latitude":"-25.732389","longitude":"-59.108791","country":"AR"},{"id":"3430015","name":"Picada Gobernador Lopez","latitude":"-27.670691","longitude":"-55.245850","country":"AR"},{"id":"3430029","name":"Perugorria","latitude":"-29.341320","longitude":"-58.610592","country":"AR"},{"id":"3430064","name":"Pedro R. Fernandez","latitude":"-28.750971","longitude":"-58.655830","country":"AR"},{"id":"3430104","name":"Paso de los Libres","latitude":"-29.713110","longitude":"-57.089909","country":"AR"},{"id":"3430105","name":"Paso de la Patria","latitude":"-27.316759","longitude":"-58.571972","country":"AR"},{"id":"3430178","name":"Panambi","latitude":"-27.723700","longitude":"-54.915138","country":"AR"},{"id":"3430180","name":"Pampa del Indio","latitude":"-26.064680","longitude":"-59.918980","country":"AR"},{"id":"3430186","name":"Palo Santo","latitude":"-25.563320","longitude":"-59.337811","country":"AR"},{"id":"3430340","name":"Obera","latitude":"-27.487061","longitude":"-55.119942","country":"AR"},{"id":"3430383","name":"Nueve de Julio","latitude":"-28.840509","longitude":"-58.826500","country":"AR"},{"id":"3430402","name":"Nuestra Senora del Rosario de Caa Cati","latitude":"-27.750719","longitude":"-57.620731","country":"AR"},{"id":"3430443","name":"Necochea","latitude":"-38.547260","longitude":"-58.736752","country":"AR"},{"id":"3430545","name":"Moron","latitude":"-34.653439","longitude":"-58.619751","country":"AR"},{"id":"3430598","name":"Monte Caseros","latitude":"-30.253590","longitude":"-57.636261","country":"AR"},{"id":"3430601","name":"Montecarlo","latitude":"-26.566200","longitude":"-54.757000","country":"AR"},{"id":"3430631","name":"Mojon Grande","latitude":"-27.711639","longitude":"-55.156311","country":"AR"},{"id":"3430648","name":"Mocoreta","latitude":"-30.618910","longitude":"-57.963440","country":"AR"},{"id":"3430708","name":"Mercedes","latitude":"-34.651459","longitude":"-59.430679","country":"AR"},{"id":"3430709","name":"Mercedes","latitude":"-29.181860","longitude":"-58.078949","country":"AR"},{"id":"3430760","name":"Mburucuya","latitude":"-28.045389","longitude":"-58.224491","country":"AR"},{"id":"3430836","name":"Mariano I. Loza","latitude":"-29.376680","longitude":"-58.194359","country":"AR"},{"id":"3430857","name":"Margarita Belen","latitude":"-27.261600","longitude":"-58.972191","country":"AR"},{"id":"3430863","name":"Mar del Plata","latitude":"-38.002281","longitude":"-57.557541","country":"AR"},{"id":"3430940","name":"Malabrigo","latitude":"-29.346359","longitude":"-59.969570","country":"AR"},{"id":"3430943","name":"Makalle","latitude":"-27.206869","longitude":"-59.286961","country":"AR"},{"id":"3430968","name":"Macia","latitude":"-32.172199","longitude":"-59.399471","country":"AR"},{"id":"3430988","name":"Lujan","latitude":"-34.570278","longitude":"-59.105000","country":"AR"},{"id":"3431005","name":"Lucas Gonzalez","latitude":"-32.384300","longitude":"-59.530128","country":"AR"},{"id":"3431161","name":"Los Helechos","latitude":"-27.557600","longitude":"-55.076832","country":"AR"},{"id":"3431188","name":"Los Charruas","latitude":"-31.175480","longitude":"-58.187740","country":"AR"},{"id":"3431244","name":"Loreto","latitude":"-27.768339","longitude":"-57.275311","country":"AR"},{"id":"3431460","name":"La Verde","latitude":"-27.126341","longitude":"-59.373520","country":"AR"},{"id":"3431606","name":"Las Toscas","latitude":"-28.352900","longitude":"-59.257950","country":"AR"},{"id":"3431777","name":"Las Garcitas","latitude":"-26.583330","longitude":"-59.799999","country":"AR"},{"id":"3431916","name":"Larroque","latitude":"-33.035950","longitude":"-59.001251","country":"AR"},{"id":"3432043","name":"La Plata","latitude":"-34.921452","longitude":"-57.954529","country":"AR"},{"id":"3432079","name":"La Paz","latitude":"-30.744850","longitude":"-59.645660","country":"AR"},{"id":"3432355","name":"La Leonesa","latitude":"-27.037861","longitude":"-58.703468","country":"AR"},{"id":"3432463","name":"Laguna Naick-Neck","latitude":"-25.247690","longitude":"-58.093830","country":"AR"},{"id":"3432653","name":"La Escondida","latitude":"-27.107241","longitude":"-59.447842","country":"AR"},{"id":"3432707","name":"La Eduvigis","latitude":"-26.855450","longitude":"-59.068420","country":"AR"},{"id":"3432760","name":"La Cruz","latitude":"-29.174431","longitude":"-56.643261","country":"AR"},{"id":"3433349","name":"Jardin America","latitude":"-27.043461","longitude":"-55.226978","country":"AR"},{"id":"3433363","name":"Itati","latitude":"-27.270430","longitude":"-58.244579","country":"AR"},{"id":"3433373","name":"Ita Ibate","latitude":"-27.425730","longitude":"-57.337582","country":"AR"},{"id":"3433513","name":"Ibarreta","latitude":"-25.214380","longitude":"-59.858509","country":"AR"},{"id":"3433567","name":"Herradura","latitude":"-26.487049","longitude":"-58.311981","country":"AR"},{"id":"3433580","name":"Hasenkamp","latitude":"-31.512260","longitude":"-59.835449","country":"AR"},{"id":"3433648","name":"Guarani","latitude":"-27.516670","longitude":"-55.166672","country":"AR"},{"id":"3433658","name":"Gualeguaychu","latitude":"-33.009380","longitude":"-58.517220","country":"AR"},{"id":"3433663","name":"Gualeguay","latitude":"-33.141560","longitude":"-59.309662","country":"AR"},{"id":"3433715","name":"Goya","latitude":"-29.140030","longitude":"-59.262562","country":"AR"},{"id":"3433743","name":"Gobernador Roca","latitude":"-27.186359","longitude":"-55.464329","country":"AR"},{"id":"3433747","name":"Gobernador Mansilla","latitude":"-32.544529","longitude":"-59.354801","country":"AR"},{"id":"3433751","name":"Gobernador Juan E. Martinez","latitude":"-28.917049","longitude":"-58.932919","country":"AR"},{"id":"3433753","name":"Gobernador Ingeniero Valentin Virasoro","latitude":"-28.049999","longitude":"-56.033329","country":"AR"},{"id":"3433773","name":"General Vedia","latitude":"-26.933821","longitude":"-58.660400","country":"AR"},{"id":"3433803","name":"General Jose de San Martin","latitude":"-26.537430","longitude":"-59.341579","country":"AR"},{"id":"3433809","name":"General Galarza","latitude":"-32.720341","longitude":"-59.396149","country":"AR"},{"id":"3433815","name":"General Campos","latitude":"-31.523109","longitude":"-58.404900","country":"AR"},{"id":"3433836","name":"Garupa","latitude":"-27.481710","longitude":"-55.829208","country":"AR"},{"id":"3433839","name":"Garuhape","latitude":"-26.817680","longitude":"-54.956638","country":"AR"},{"id":"3433899","name":"Formosa","latitude":"-26.177530","longitude":"-58.178139","country":"AR"},{"id":"3433901","name":"Fontana","latitude":"-27.418131","longitude":"-59.023918","country":"AR"},{"id":"3433919","name":"Florentino Ameghino","latitude":"-27.566669","longitude":"-55.133331","country":"AR"},{"id":"3433944","name":"Felipe Yofre","latitude":"-29.102261","longitude":"-58.337719","country":"AR"},{"id":"3433956","name":"Federal","latitude":"-30.954651","longitude":"-58.783260","country":"AR"},{"id":"3433959","name":"Federacion","latitude":"-31.006210","longitude":"-57.899620","country":"AR"},{"id":"3434095","name":"Esquina","latitude":"-30.014441","longitude":"-59.527191","country":"AR"},{"id":"3434291","name":"El Soberbio","latitude":"-27.298460","longitude":"-54.198769","country":"AR"},{"id":"3434731","name":"El Colorado","latitude":"-26.308081","longitude":"-59.372910","country":"AR"},{"id":"3434932","name":"El Alcazar","latitude":"-26.714590","longitude":"-54.815231","country":"AR"},{"id":"3434995","name":"Dos de Mayo","latitude":"-27.022770","longitude":"-54.686691","country":"AR"},{"id":"3434997","name":"Dos Arroyos","latitude":"-27.707840","longitude":"-55.233639","country":"AR"},{"id":"3435030","name":"Dominguez","latitude":"-31.987101","longitude":"-58.961971","country":"AR"},{"id":"3435038","name":"Dolores","latitude":"-36.313221","longitude":"-57.679180","country":"AR"},{"id":"3435103","name":"Curuzu Cuatia","latitude":"-29.791710","longitude":"-58.054600","country":"AR"},{"id":"3435217","name":"Corrientes","latitude":"-27.480600","longitude":"-58.834099","country":"AR"},{"id":"3435261","name":"Concordia","latitude":"-31.392960","longitude":"-58.020889","country":"AR"},{"id":"3435264","name":"Concepcion del Uruguay","latitude":"-32.482491","longitude":"-58.237221","country":"AR"},{"id":"3435266","name":"Concepcion de la Sierra","latitude":"-27.983110","longitude":"-55.520309","country":"AR"},{"id":"3435273","name":"Concepcion","latitude":"-28.391750","longitude":"-57.887772","country":"AR"},{"id":"3435283","name":"Comandante Fontana","latitude":"-25.334530","longitude":"-59.682121","country":"AR"},{"id":"3435290","name":"Colonia Wanda","latitude":"-25.974079","longitude":"-54.428059","country":"AR"},{"id":"3435295","name":"Colonias Unidas","latitude":"-26.698250","longitude":"-59.631538","country":"AR"},{"id":"3435330","name":"Colonia Elisa","latitude":"-26.930410","longitude":"-59.518608","country":"AR"},{"id":"3435340","name":"Colonia Benitez","latitude":"-27.330990","longitude":"-58.946220","country":"AR"},{"id":"3435344","name":"Colonia Aurora","latitude":"-27.474279","longitude":"-54.524979","country":"AR"},{"id":"3435356","name":"Colegiales","latitude":"-34.573650","longitude":"-58.449242","country":"AR"},{"id":"3435364","name":"Clorinda","latitude":"-25.284809","longitude":"-57.718510","country":"AR"},{"id":"3435444","name":"Chavarria","latitude":"-28.954880","longitude":"-58.572769","country":"AR"},{"id":"3435453","name":"Charadai","latitude":"-27.633329","longitude":"-59.900002","country":"AR"},{"id":"3435486","name":"Chajari","latitude":"-30.750481","longitude":"-57.979622","country":"AR"},{"id":"3435532","name":"Cerro Azul","latitude":"-27.633101","longitude":"-55.496201","country":"AR"},{"id":"3435612","name":"Caseros","latitude":"-32.463249","longitude":"-58.478722","country":"AR"},{"id":"3435679","name":"Caraguatay","latitude":"-26.605869","longitude":"-54.780930","country":"AR"},{"id":"3435688","name":"Capitan Solari","latitude":"-26.802151","longitude":"-59.560890","country":"AR"},{"id":"3435701","name":"Capiovi","latitude":"-26.929979","longitude":"-55.060841","country":"AR"},{"id":"3435734","name":"Candelaria","latitude":"-27.459499","longitude":"-55.745361","country":"AR"},{"id":"3435750","name":"Campo Viera","latitude":"-27.383329","longitude":"-55.033329","country":"AR"},{"id":"3435765","name":"Campo Ramon","latitude":"-27.461081","longitude":"-55.019009","country":"AR"},{"id":"3435789","name":"Campo Grande","latitude":"-27.207701","longitude":"-54.979771","country":"AR"},{"id":"3435810","name":"Campana","latitude":"-34.168739","longitude":"-58.959141","country":"AR"},{"id":"3435910","name":"Buenos Aires","latitude":"-34.613152","longitude":"-58.377232","country":"AR"},{"id":"3435966","name":"Bovril","latitude":"-31.343109","longitude":"-59.445122","country":"AR"},{"id":"3435989","name":"Bonpland","latitude":"-27.482180","longitude":"-55.477558","country":"AR"},{"id":"3436030","name":"Bernardo de Irigoyen","latitude":"-26.255199","longitude":"-53.645809","country":"AR"},{"id":"3436100","name":"Basail","latitude":"-27.866671","longitude":"-59.299999","country":"AR"},{"id":"3436124","name":"Barranqueras","latitude":"-27.482990","longitude":"-58.935791","country":"AR"},{"id":"3436199","name":"Azul","latitude":"-36.776981","longitude":"-59.858540","country":"AR"},{"id":"3436205","name":"Azara","latitude":"-28.061600","longitude":"-55.677971","country":"AR"},{"id":"3436230","name":"Avellaneda","latitude":"-29.117611","longitude":"-59.658340","country":"AR"},{"id":"3436267","name":"Arroyo del Medio","latitude":"-27.700001","longitude":"-55.416672","country":"AR"},{"id":"3436287","name":"Aristobulo del Valle","latitude":"-27.096251","longitude":"-54.896259","country":"AR"},{"id":"3436370","name":"Alvear","latitude":"-29.096830","longitude":"-56.550430","country":"AR"},{"id":"3436448","name":"Alba Posse","latitude":"-27.569780","longitude":"-54.682621","country":"AR"},{"id":"3832080","name":"Zonda","latitude":"-31.549999","longitude":"-68.733330","country":"AR"},{"id":"3832132","name":"Zapala","latitude":"-38.899158","longitude":"-70.054420","country":"AR"},{"id":"3832189","name":"Yuto","latitude":"-23.643419","longitude":"-64.471939","country":"AR"},{"id":"3832260","name":"Yerba Buena","latitude":"-26.816669","longitude":"-65.316673","country":"AR"},{"id":"3832376","name":"Yacimiento Rio Turbio","latitude":"-51.573212","longitude":"-72.350800","country":"AR"},{"id":"3832388","name":"Winifreda","latitude":"-36.226429","longitude":"-64.233879","country":"AR"},{"id":"3832518","name":"Vista Alegre","latitude":"-38.750000","longitude":"-68.183327","country":"AR"},{"id":"3832560","name":"Vinchina","latitude":"-28.759640","longitude":"-68.206917","country":"AR"},{"id":"3832602","name":"Villa Valeria","latitude":"-34.340931","longitude":"-64.920303","country":"AR"},{"id":"3832608","name":"Villa Trinidad","latitude":"-30.213289","longitude":"-61.875969","country":"AR"},{"id":"3832631","name":"Villa Rumipal","latitude":"-32.187901","longitude":"-64.480270","country":"AR"},{"id":"3832647","name":"Villa Regina","latitude":"-39.099998","longitude":"-67.066673","country":"AR"},{"id":"3832653","name":"Villa Paula de Sarmiento","latitude":"-31.493299","longitude":"-68.538383","country":"AR"},{"id":"3832658","name":"Villa Ojo de Agua","latitude":"-29.500031","longitude":"-63.693771","country":"AR"},{"id":"3832662","name":"Villa Nueva","latitude":"-32.432930","longitude":"-63.247631","country":"AR"},{"id":"3832694","name":"Villa Maria","latitude":"-32.407509","longitude":"-63.240162","country":"AR"},{"id":"3832705","name":"Villa Las Rosas","latitude":"-31.950211","longitude":"-65.053543","country":"AR"},{"id":"3832711","name":"Villa La Angostura","latitude":"-40.761730","longitude":"-71.646309","country":"AR"},{"id":"3832719","name":"Villa Huidobro","latitude":"-34.838261","longitude":"-64.586861","country":"AR"},{"id":"3832729","name":"Villa Giardino","latitude":"-31.033331","longitude":"-64.483330","country":"AR"},{"id":"3832733","name":"Villa General Mitre","latitude":"-29.143101","longitude":"-62.652481","country":"AR"},{"id":"3832734","name":"Villa General Belgrano","latitude":"-31.975420","longitude":"-64.555901","country":"AR"},{"id":"3832756","name":"Villa Dolores","latitude":"-31.945850","longitude":"-65.189583","country":"AR"},{"id":"3832759","name":"Villa de Soto","latitude":"-30.855230","longitude":"-64.999474","country":"AR"},{"id":"3832763","name":"Villa del Totoral","latitude":"-30.816669","longitude":"-63.716671","country":"AR"},{"id":"3832769","name":"Villa del Dique","latitude":"-32.176670","longitude":"-64.455429","country":"AR"},{"id":"3832773","name":"Villa Cura Brochero","latitude":"-31.705780","longitude":"-65.017960","country":"AR"},{"id":"3832778","name":"Villa Constitucion","latitude":"-33.227779","longitude":"-60.329700","country":"AR"},{"id":"3832791","name":"Villa Carlos Paz","latitude":"-31.424141","longitude":"-64.497780","country":"AR"},{"id":"3832793","name":"Villa Canas","latitude":"-34.005650","longitude":"-61.607571","country":"AR"},{"id":"3832795","name":"Villa Bustos","latitude":"-29.283560","longitude":"-67.022491","country":"AR"},{"id":"3832797","name":"Villa Berthet","latitude":"-27.291740","longitude":"-60.412628","country":"AR"},{"id":"3832805","name":"Villa Atamisqui","latitude":"-28.496090","longitude":"-63.816090","country":"AR"},{"id":"3832806","name":"Villa Ascasubi","latitude":"-32.163509","longitude":"-63.891571","country":"AR"},{"id":"3832811","name":"Villa Angela","latitude":"-27.573830","longitude":"-60.715260","country":"AR"},{"id":"3832815","name":"Villa Allende","latitude":"-31.294580","longitude":"-64.295380","country":"AR"},{"id":"3832899","name":"Viedma","latitude":"-40.813450","longitude":"-62.996681","country":"AR"},{"id":"3832917","name":"Vicuna Mackenna","latitude":"-33.919651","longitude":"-64.392151","country":"AR"},{"id":"3832923","name":"Victorica","latitude":"-36.215050","longitude":"-65.435860","country":"AR"},{"id":"3832934","name":"Victoria","latitude":"-32.618408","longitude":"-60.154781","country":"AR"},{"id":"3832959","name":"Viale","latitude":"-31.867821","longitude":"-60.007221","country":"AR"},{"id":"3833027","name":"Vera","latitude":"-29.459299","longitude":"-60.212608","country":"AR"},{"id":"3833062","name":"Venado Tuerto","latitude":"-33.745560","longitude":"-61.968842","country":"AR"},{"id":"3833094","name":"Veintiocho de Noviembre","latitude":"-51.650002","longitude":"-72.300003","country":"AR"},{"id":"3833111","name":"Veinticinco de Mayo","latitude":"-37.774101","longitude":"-67.716377","country":"AR"},{"id":"3833112","name":"Veinticinco de Mayo","latitude":"-35.432301","longitude":"-60.172710","country":"AR"},{"id":"3833211","name":"Valle Hermoso","latitude":"-31.117319","longitude":"-64.480843","country":"AR"},{"id":"3833283","name":"Valcheta","latitude":"-40.700001","longitude":"-66.150002","country":"AR"},{"id":"3833367","name":"Ushuaia","latitude":"-54.799999","longitude":"-68.300003","country":"AR"},{"id":"3833412","name":"Unquillo","latitude":"-31.230730","longitude":"-64.316147","country":"AR"},{"id":"3833424","name":"Union","latitude":"-35.152821","longitude":"-65.946022","country":"AR"},{"id":"3833463","name":"Ucacha","latitude":"-33.032028","longitude":"-63.506660","country":"AR"},{"id":"3833675","name":"Trevelin","latitude":"-43.085800","longitude":"-71.463860","country":"AR"},{"id":"3833794","name":"Tres Isletas","latitude":"-26.340660","longitude":"-60.432072","country":"AR"},{"id":"3833859","name":"Tres Arroyos","latitude":"-38.373940","longitude":"-60.279781","country":"AR"},{"id":"3833880","name":"Trenel","latitude":"-35.698372","longitude":"-64.132179","country":"AR"},{"id":"3833883","name":"Trelew","latitude":"-43.248951","longitude":"-65.305054","country":"AR"},{"id":"3833947","name":"Trancas","latitude":"-26.231350","longitude":"-65.280251","country":"AR"},{"id":"3833995","name":"Totoras","latitude":"-32.584400","longitude":"-61.168522","country":"AR"},{"id":"3834048","name":"Tostado","latitude":"-29.232019","longitude":"-61.769169","country":"AR"},{"id":"3834251","name":"Toledo","latitude":"-31.555740","longitude":"-64.009468","country":"AR"},{"id":"3834339","name":"Tio Pujio","latitude":"-32.287899","longitude":"-63.355980","country":"AR"},{"id":"3834352","name":"Tintina","latitude":"-27.033331","longitude":"-62.716671","country":"AR"},{"id":"3834361","name":"Tinogasta","latitude":"-28.063190","longitude":"-67.564880","country":"AR"},{"id":"3834397","name":"Tilisarao","latitude":"-32.732922","longitude":"-65.291092","country":"AR"},{"id":"3834403","name":"Tilcara","latitude":"-23.577570","longitude":"-65.350899","country":"AR"},{"id":"3834502","name":"Termas de Rio Hondo","latitude":"-27.499830","longitude":"-64.860420","country":"AR"},{"id":"3834601","name":"Tartagal","latitude":"-22.516359","longitude":"-63.801311","country":"AR"},{"id":"3834665","name":"Tancacha","latitude":"-32.243092","longitude":"-63.980701","country":"AR"},{"id":"3834813","name":"Tafi Viejo","latitude":"-26.732010","longitude":"-65.259209","country":"AR"},{"id":"3834814","name":"Tafi del Valle","latitude":"-26.852751","longitude":"-65.709831","country":"AR"},{"id":"3834843","name":"Taco Pozo","latitude":"-25.616671","longitude":"-63.283329","country":"AR"},{"id":"3834961","name":"Suncho Corral","latitude":"-27.933571","longitude":"-63.429379","country":"AR"},{"id":"3834971","name":"Sunchales","latitude":"-30.944040","longitude":"-61.561481","country":"AR"},{"id":"3834985","name":"Sumampa","latitude":"-29.384701","longitude":"-63.469059","country":"AR"},{"id":"3835238","name":"Simoca","latitude":"-27.262720","longitude":"-65.356468","country":"AR"},{"id":"3835297","name":"Sierra Grande","latitude":"-41.606022","longitude":"-65.355743","country":"AR"},{"id":"3835348","name":"Serrezuela","latitude":"-30.637609","longitude":"-65.386917","country":"AR"},{"id":"3835351","name":"Serrano","latitude":"-34.469711","longitude":"-63.538422","country":"AR"},{"id":"3835372","name":"Senillosa","latitude":"-39.000000","longitude":"-68.416672","country":"AR"},{"id":"3835402","name":"Segui","latitude":"-31.956421","longitude":"-60.124882","country":"AR"},{"id":"3835582","name":"Sebastian Elcano","latitude":"-30.161051","longitude":"-63.593601","country":"AR"},{"id":"3835691","name":"Saturnino M. Laspiur","latitude":"-31.702869","longitude":"-62.482021","country":"AR"},{"id":"3835695","name":"Sastre","latitude":"-31.767620","longitude":"-61.828861","country":"AR"},{"id":"3835710","name":"Sarmiento","latitude":"-45.588150","longitude":"-69.069962","country":"AR"},{"id":"3835793","name":"Santo Tome","latitude":"-31.662741","longitude":"-60.765301","country":"AR"},{"id":"3835866","name":"Santiago Temple","latitude":"-31.387310","longitude":"-63.418209","country":"AR"},{"id":"3835869","name":"Santiago del Estero","latitude":"-27.795111","longitude":"-64.261490","country":"AR"},{"id":"3835921","name":"Santa Sylvina","latitude":"-27.832609","longitude":"-61.137470","country":"AR"},{"id":"3835937","name":"Santa Rosa de Tastil","latitude":"-24.451660","longitude":"-65.974518","country":"AR"},{"id":"3835938","name":"Santa Rosa de Rio Primero","latitude":"-31.152309","longitude":"-63.401909","country":"AR"},{"id":"3835941","name":"Santa Rosa del Conlara","latitude":"-32.342861","longitude":"-65.203232","country":"AR"},{"id":"3835943","name":"Santa Rosa de Calamuchita","latitude":"-32.069050","longitude":"-64.536308","country":"AR"},{"id":"3835994","name":"Santa Rosa","latitude":"-36.616669","longitude":"-64.283333","country":"AR"},{"id":"3836170","name":"Santa Magdalena","latitude":"-34.517761","longitude":"-63.944092","country":"AR"},{"id":"3836194","name":"Santa Lucia","latitude":"-31.539869","longitude":"-68.495033","country":"AR"},{"id":"3836238","name":"Santa Isabel","latitude":"-36.227242","longitude":"-66.942398","country":"AR"},{"id":"3836277","name":"Santa Fe de la Vera Cruz","latitude":"-31.633329","longitude":"-60.700001","country":"AR"},{"id":"3836284","name":"Santa Eufemia","latitude":"-33.176579","longitude":"-63.282810","country":"AR"},{"id":"3836407","name":"Santa Clara","latitude":"-24.309210","longitude":"-64.662529","country":"AR"},{"id":"3836564","name":"San Salvador de Jujuy","latitude":"-24.194559","longitude":"-65.297119","country":"AR"},{"id":"3836620","name":"San Ramon de la Nueva Oran","latitude":"-23.132231","longitude":"-64.325981","country":"AR"},{"id":"3836669","name":"San Rafael","latitude":"-34.617722","longitude":"-68.330070","country":"AR"},{"id":"3836772","name":"San Pedro","latitude":"-24.231270","longitude":"-64.866142","country":"AR"},{"id":"3836846","name":"San Nicolas de los Arroyos","latitude":"-33.335781","longitude":"-60.225231","country":"AR"},{"id":"3836873","name":"San Miguel de Tucuman","latitude":"-26.824141","longitude":"-65.222603","country":"AR"},{"id":"3836951","name":"San Martin de los Andes","latitude":"-40.160381","longitude":"-71.348648","country":"AR"},{"id":"3836992","name":"San Martin","latitude":"-33.081032","longitude":"-68.468140","country":"AR"},{"id":"3836993","name":"San Martin","latitude":"-31.515989","longitude":"-68.352730","country":"AR"},{"id":"3837056","name":"San Luis","latitude":"-33.295010","longitude":"-66.335632","country":"AR"},{"id":"3837124","name":"San Justo","latitude":"-30.789129","longitude":"-60.591888","country":"AR"},{"id":"3837213","name":"San Juan","latitude":"-31.537500","longitude":"-68.536392","country":"AR"},{"id":"3837239","name":"San Jose de la Dormida","latitude":"-30.354401","longitude":"-63.948719","country":"AR"},{"id":"3837240","name":"San Jose de Jachal","latitude":"-30.240570","longitude":"-68.746933","country":"AR"},{"id":"3837441","name":"San Jorge","latitude":"-31.896179","longitude":"-61.859840","country":"AR"},{"id":"3837624","name":"San Francisco del Monte de Oro","latitude":"-32.598251","longitude":"-66.125389","country":"AR"},{"id":"3837625","name":"San Francisco del Chanar","latitude":"-29.789909","longitude":"-63.938610","country":"AR"},{"id":"3837675","name":"San Francisco","latitude":"-31.427971","longitude":"-62.082661","country":"AR"},{"id":"3837702","name":"San Fernando del Valle de Catamarca","latitude":"-28.469570","longitude":"-65.785240","country":"AR"},{"id":"3837823","name":"San Cristobal","latitude":"-30.310530","longitude":"-61.237240","country":"AR"},{"id":"3837857","name":"San Carlos Centro","latitude":"-31.728640","longitude":"-61.091919","country":"AR"},{"id":"3837943","name":"San Bernardo","latitude":"-27.287821","longitude":"-60.712521","country":"AR"},{"id":"3837956","name":"San Benito","latitude":"-31.783710","longitude":"-60.441559","country":"AR"},{"id":"3837960","name":"San Basilio","latitude":"-33.497631","longitude":"-64.314949","country":"AR"},{"id":"3837980","name":"San Antonio Oeste","latitude":"-40.731930","longitude":"-64.947693","country":"AR"},{"id":"3837985","name":"San Antonio de los Cobres","latitude":"-24.218040","longitude":"-66.318771","country":"AR"},{"id":"3838057","name":"San Antonio","latitude":"-28.009270","longitude":"-65.712181","country":"AR"},{"id":"3838158","name":"San Agustin de Valle Fertil","latitude":"-30.633530","longitude":"-67.468208","country":"AR"},{"id":"3838174","name":"San Agustin","latitude":"-31.976810","longitude":"-64.374001","country":"AR"},{"id":"3838194","name":"Samuhu","latitude":"-27.521160","longitude":"-60.391670","country":"AR"},{"id":"3838201","name":"Sampacho","latitude":"-33.383900","longitude":"-64.722107","country":"AR"},{"id":"3838233","name":"Salta","latitude":"-24.785900","longitude":"-65.411659","country":"AR"},{"id":"3838235","name":"Salsipuedes","latitude":"-31.137239","longitude":"-64.295891","country":"AR"},{"id":"3838294","name":"Saldan","latitude":"-31.302620","longitude":"-64.306999","country":"AR"},{"id":"3838460","name":"Sacanta","latitude":"-31.663000","longitude":"-63.045052","country":"AR"},{"id":"3838506","name":"Rufino","latitude":"-34.268269","longitude":"-62.712620","country":"AR"},{"id":"3838583","name":"Rosario","latitude":"-32.946819","longitude":"-60.639320","country":"AR"},{"id":"3838638","name":"Roldan","latitude":"-32.898460","longitude":"-60.906811","country":"AR"},{"id":"3838793","name":"Rio Tercero","latitude":"-32.173012","longitude":"-64.114059","country":"AR"},{"id":"3838797","name":"Rio Segundo","latitude":"-31.652599","longitude":"-63.909901","country":"AR"},{"id":"3838859","name":"Rio Gallegos","latitude":"-51.622608","longitude":"-69.218132","country":"AR"},{"id":"3838874","name":"Rio Cuarto","latitude":"-33.130669","longitude":"-64.349922","country":"AR"},{"id":"3838902","name":"Rio Ceballos","latitude":"-31.164860","longitude":"-64.322411","country":"AR"},{"id":"3839262","name":"Recreo","latitude":"-31.490761","longitude":"-60.732990","country":"AR"},{"id":"3839263","name":"Recreo","latitude":"-29.281839","longitude":"-65.060959","country":"AR"},{"id":"3839282","name":"Realico","latitude":"-35.036579","longitude":"-64.244698","country":"AR"},{"id":"3839307","name":"Rawson","latitude":"-43.300159","longitude":"-65.102280","country":"AR"},{"id":"3839381","name":"Rancul","latitude":"-35.068619","longitude":"-64.681068","country":"AR"},{"id":"3839479","name":"Rafaela","latitude":"-31.250330","longitude":"-61.486698","country":"AR"},{"id":"3839482","name":"Rada Tilly","latitude":"-45.933331","longitude":"-67.533333","country":"AR"},{"id":"3839490","name":"Quitilipi","latitude":"-26.869129","longitude":"-60.216831","country":"AR"},{"id":"3839565","name":"Quimili","latitude":"-27.633329","longitude":"-62.416672","country":"AR"},{"id":"3839588","name":"Quilino","latitude":"-30.213970","longitude":"-64.500633","country":"AR"},{"id":"3839668","name":"Quemu Quemu","latitude":"-36.054630","longitude":"-63.564281","country":"AR"},{"id":"3839982","name":"Punta Alta","latitude":"-38.875881","longitude":"-62.073589","country":"AR"},{"id":"3840076","name":"Puerto Santa Cruz","latitude":"-50.019100","longitude":"-68.523209","country":"AR"},{"id":"3840082","name":"San Julian","latitude":"-49.305538","longitude":"-67.727432","country":"AR"},{"id":"3840092","name":"Puerto Madryn","latitude":"-42.769199","longitude":"-65.038513","country":"AR"},{"id":"3840104","name":"Puerto Deseado","latitude":"-47.750340","longitude":"-65.893822","country":"AR"},{"id":"3840300","name":"Presidencia Roque Saenz Pena","latitude":"-26.785219","longitude":"-60.438759","country":"AR"},{"id":"3840432","name":"Pozo del Tigre","latitude":"-24.896820","longitude":"-60.323589","country":"AR"},{"id":"3840470","name":"Pozo del Molle","latitude":"-32.018600","longitude":"-62.919842","country":"AR"},{"id":"3840762","name":"Portena","latitude":"-31.013910","longitude":"-62.066502","country":"AR"},{"id":"3840809","name":"Poman","latitude":"-28.394550","longitude":"-66.220520","country":"AR"},{"id":"3840860","name":"Pocito","latitude":"-31.683331","longitude":"-68.583328","country":"AR"},{"id":"3840885","name":"Plottier","latitude":"-38.966671","longitude":"-68.233330","country":"AR"},{"id":"3840896","name":"Plaza Huincul","latitude":"-38.925980","longitude":"-69.208633","country":"AR"},{"id":"3841149","name":"Pilar","latitude":"-31.678900","longitude":"-63.879639","country":"AR"},{"id":"3841232","name":"Piedra del Aguila","latitude":"-40.048111","longitude":"-70.074097","country":"AR"},{"id":"3841301","name":"Picun Leufu","latitude":"-39.523510","longitude":"-69.279663","country":"AR"},{"id":"3841309","name":"Pico Truncado","latitude":"-46.794899","longitude":"-67.957314","country":"AR"},{"id":"3841490","name":"Pergamino","latitude":"-33.889950","longitude":"-60.573570","country":"AR"},{"id":"3841500","name":"Perez","latitude":"-32.998348","longitude":"-60.767910","country":"AR"},{"id":"3841912","name":"Pascanas","latitude":"-33.125500","longitude":"-63.040840","country":"AR"},{"id":"3841937","name":"Parera","latitude":"-35.146000","longitude":"-64.500893","country":"AR"},{"id":"3841956","name":"Parana","latitude":"-31.731970","longitude":"-60.523800","country":"AR"},{"id":"3842140","name":"Pampa de los Guanacos","latitude":"-26.233330","longitude":"-61.849998","country":"AR"},{"id":"3842142","name":"Pampa del Infierno","latitude":"-26.505171","longitude":"-61.174358","country":"AR"},{"id":"3842190","name":"Palpala","latitude":"-24.256479","longitude":"-65.211632","country":"AR"},{"id":"3842268","name":"Palma Sola","latitude":"-23.963360","longitude":"-64.298721","country":"AR"},{"id":"3842559","name":"Oro Verde","latitude":"-31.825081","longitude":"-60.517490","country":"AR"},{"id":"3842593","name":"Ordonez","latitude":"-32.840569","longitude":"-62.865520","country":"AR"},{"id":"3842621","name":"Oncativo","latitude":"-31.913530","longitude":"-63.682011","country":"AR"},{"id":"3842662","name":"Oliva","latitude":"-32.041580","longitude":"-63.569778","country":"AR"},{"id":"3842670","name":"Olavarria","latitude":"-36.892719","longitude":"-60.322540","country":"AR"},{"id":"3842796","name":"Obispo Trejo","latitude":"-30.781281","longitude":"-63.413479","country":"AR"},{"id":"3842881","name":"Nueve de Julio","latitude":"-35.444370","longitude":"-60.883129","country":"AR"},{"id":"3842882","name":"Nueve de Julio","latitude":"-31.669140","longitude":"-68.390228","country":"AR"},{"id":"3843026","name":"Noetinger","latitude":"-32.365971","longitude":"-62.311260","country":"AR"},{"id":"3843123","name":"Neuquen","latitude":"-38.951611","longitude":"-68.059097","country":"AR"},{"id":"3843407","name":"Naschel","latitude":"-32.916561","longitude":"-65.375351","country":"AR"},{"id":"3843436","name":"Napenay","latitude":"-26.733330","longitude":"-60.616669","country":"AR"},{"id":"3843619","name":"Morteros","latitude":"-30.711639","longitude":"-61.998619","country":"AR"},{"id":"3843647","name":"Morrison","latitude":"-32.594799","longitude":"-62.834549","country":"AR"},{"id":"3843803","name":"Monteros","latitude":"-27.167419","longitude":"-65.498322","country":"AR"},{"id":"3843830","name":"Monte Maiz","latitude":"-33.204620","longitude":"-62.600849","country":"AR"},{"id":"3843871","name":"Monte Cristo","latitude":"-31.343121","longitude":"-63.944370","country":"AR"},{"id":"3843881","name":"Monte Buey","latitude":"-32.916420","longitude":"-62.456680","country":"AR"},{"id":"3844159","name":"Miramar","latitude":"-30.918579","longitude":"-62.678139","country":"AR"},{"id":"3844229","name":"Mina Clavero","latitude":"-31.721001","longitude":"-65.006187","country":"AR"},{"id":"3844267","name":"Miguel Riglos","latitude":"-36.853981","longitude":"-63.688419","country":"AR"},{"id":"3844377","name":"Merlo","latitude":"-32.342880","longitude":"-65.013962","country":"AR"},{"id":"3844421","name":"Mendoza","latitude":"-32.890839","longitude":"-68.827171","country":"AR"},{"id":"3844424","name":"Mendiolaza","latitude":"-31.267380","longitude":"-64.300873","country":"AR"},{"id":"3844832","name":"Mariano Moreno","latitude":"-38.750290","longitude":"-70.023666","country":"AR"},{"id":"3844899","name":"Marcos Juarez","latitude":"-32.697800","longitude":"-62.106720","country":"AR"},{"id":"3844933","name":"Maquinchao","latitude":"-41.250000","longitude":"-68.733330","country":"AR"},{"id":"3845073","name":"Malvinas Argentinas","latitude":"-31.383329","longitude":"-64.066673","country":"AR"},{"id":"3845202","name":"Malagueno","latitude":"-31.464670","longitude":"-64.358398","country":"AR"},{"id":"3845251","name":"Mainque","latitude":"-39.066669","longitude":"-67.300003","country":"AR"},{"id":"3845254","name":"Maimara","latitude":"-23.623920","longitude":"-65.407967","country":"AR"},{"id":"3845330","name":"Machagai","latitude":"-26.926140","longitude":"-60.049561","country":"AR"},{"id":"3845344","name":"Macachin","latitude":"-37.135979","longitude":"-63.666500","country":"AR"},{"id":"3845490","name":"Los Varela","latitude":"-27.954821","longitude":"-65.865501","country":"AR"},{"id":"3845549","name":"Los Telares","latitude":"-28.984791","longitude":"-63.448891","country":"AR"},{"id":"3845575","name":"Los Surgentes","latitude":"-32.984539","longitude":"-62.021912","country":"AR"},{"id":"3845977","name":"Los Menucos","latitude":"-40.844021","longitude":"-68.087181","country":"AR"},{"id":"3846080","name":"Los Juries","latitude":"-28.465389","longitude":"-62.108620","country":"AR"},{"id":"3846175","name":"Los Frentones","latitude":"-26.407700","longitude":"-61.413681","country":"AR"},{"id":"3846236","name":"Los Condores","latitude":"-32.319839","longitude":"-64.277519","country":"AR"},{"id":"3846484","name":"Los Antiguos","latitude":"-46.549721","longitude":"-71.630859","country":"AR"},{"id":"3846514","name":"Los Altos","latitude":"-28.048450","longitude":"-65.499458","country":"AR"},{"id":"3846616","name":"Londres","latitude":"-27.714390","longitude":"-67.133492","country":"AR"},{"id":"3846634","name":"Loncopue","latitude":"-38.072842","longitude":"-70.616089","country":"AR"},{"id":"3846864","name":"Lincoln","latitude":"-34.866489","longitude":"-61.530201","country":"AR"},{"id":"3846915","name":"Libertador General San Martin","latitude":"-23.806440","longitude":"-64.787567","country":"AR"},{"id":"3846991","name":"Leones","latitude":"-32.661739","longitude":"-62.296780","country":"AR"},{"id":"3847482","name":"La Toma","latitude":"-33.052582","longitude":"-65.623848","country":"AR"},{"id":"3847516","name":"La Tigra","latitude":"-27.109961","longitude":"-60.587189","country":"AR"},{"id":"3847613","name":"Las Varillas","latitude":"-31.872080","longitude":"-62.719460","country":"AR"},{"id":"3847836","name":"Las Rosas","latitude":"-32.476608","longitude":"-61.580410","country":"AR"},{"id":"3847911","name":"Las Perdices","latitude":"-32.697941","longitude":"-63.706341","country":"AR"},{"id":"3847933","name":"Las Parejas","latitude":"-32.684780","longitude":"-61.516369","country":"AR"},{"id":"3848164","name":"Las Lomitas","latitude":"-24.709551","longitude":"-60.593029","country":"AR"},{"id":"3848209","name":"Las Lajitas","latitude":"-24.683331","longitude":"-64.250000","country":"AR"},{"id":"3848216","name":"Las Lajas","latitude":"-38.523220","longitude":"-70.367439","country":"AR"},{"id":"3848343","name":"Las Higueras","latitude":"-33.092312","longitude":"-64.289001","country":"AR"},{"id":"3848353","name":"Las Heras","latitude":"-46.541859","longitude":"-68.935928","country":"AR"},{"id":"3848687","name":"Las Brenas","latitude":"-27.089661","longitude":"-61.081612","country":"AR"},{"id":"3848863","name":"Las Acequias","latitude":"-33.281551","longitude":"-63.976101","country":"AR"},{"id":"3848950","name":"La Rioja","latitude":"-29.411051","longitude":"-66.850670","country":"AR"},{"id":"3849140","name":"La Quiaca","latitude":"-22.102360","longitude":"-65.592987","country":"AR"},{"id":"3849388","name":"La Playosa","latitude":"-32.100021","longitude":"-63.030880","country":"AR"},{"id":"3849557","name":"La Para","latitude":"-30.894159","longitude":"-63.001068","country":"AR"},{"id":"3849924","name":"La Mendieta","latitude":"-24.311871","longitude":"-64.963768","country":"AR"},{"id":"3850005","name":"Lamarque","latitude":"-39.423038","longitude":"-65.702080","country":"AR"},{"id":"3850888","name":"Laguna Yema","latitude":"-24.253910","longitude":"-61.244659","country":"AR"},{"id":"3850920","name":"Laguna Paiva","latitude":"-31.303909","longitude":"-60.658939","country":"AR"},{"id":"3850929","name":"Laguna Larga","latitude":"-31.776520","longitude":"-63.801041","country":"AR"},{"id":"3851072","name":"La Granja","latitude":"-31.009190","longitude":"-64.268692","country":"AR"},{"id":"3851100","name":"Lago Puelo","latitude":"-42.080952","longitude":"-71.614052","country":"AR"},{"id":"3851181","name":"La Francia","latitude":"-31.406750","longitude":"-62.633961","country":"AR"},{"id":"3851331","name":"La Falda","latitude":"-31.088409","longitude":"-64.489868","country":"AR"},{"id":"3851798","name":"La Cumbre","latitude":"-30.982010","longitude":"-64.491386","country":"AR"},{"id":"3851985","name":"La Cocha","latitude":"-27.777290","longitude":"-65.570351","country":"AR"},{"id":"3851993","name":"La Clotilde","latitude":"-27.133329","longitude":"-60.666672","country":"AR"},{"id":"3852279","name":"La Carlota","latitude":"-33.419930","longitude":"-63.297691","country":"AR"},{"id":"3852374","name":"La Calera","latitude":"-31.343769","longitude":"-64.335289","country":"AR"},{"id":"3852468","name":"Laboulaye","latitude":"-34.126621","longitude":"-63.391190","country":"AR"},{"id":"3852480","name":"Laborde","latitude":"-33.153191","longitude":"-62.856609","country":"AR"},{"id":"3853330","name":"Justo Daract","latitude":"-33.859402","longitude":"-65.182770","country":"AR"},{"id":"3853331","name":"Justiniano Posse","latitude":"-32.884109","longitude":"-62.677879","country":"AR"},{"id":"3853350","name":"Junin de los Andes","latitude":"-39.950432","longitude":"-71.069359","country":"AR"},{"id":"3853354","name":"Junin","latitude":"-34.583820","longitude":"-60.943321","country":"AR"},{"id":"3853491","name":"Joaquin V. Gonzalez","latitude":"-25.083330","longitude":"-64.183327","country":"AR"},{"id":"3853510","name":"Jesus Maria","latitude":"-30.981529","longitude":"-64.094238","country":"AR"},{"id":"3853562","name":"James Craik","latitude":"-32.161201","longitude":"-63.466881","country":"AR"},{"id":"3853592","name":"Jacinto Arauz","latitude":"-38.086060","longitude":"-63.431690","country":"AR"},{"id":"3853643","name":"Isla Verde","latitude":"-33.241039","longitude":"-62.402969","country":"AR"},{"id":"3853745","name":"Intendente Alvear","latitude":"-35.233829","longitude":"-63.592049","country":"AR"},{"id":"3853748","name":"Inriville","latitude":"-32.944241","longitude":"-62.230282","country":"AR"},{"id":"3853767","name":"Ingenio La Esperanza","latitude":"-24.225540","longitude":"-64.838959","country":"AR"},{"id":"3853782","name":"Ingeniero Luis A. Huergo","latitude":"-39.083328","longitude":"-67.233330","country":"AR"},{"id":"3853783","name":"Ingeniero Luiggi","latitude":"-35.385849","longitude":"-64.465187","country":"AR"},{"id":"3853786","name":"Ingeniero Jacobacci","latitude":"-41.342690","longitude":"-69.544792","country":"AR"},{"id":"3853788","name":"Ingeniero Guillermo N. Juarez","latitude":"-23.900000","longitude":"-61.849998","country":"AR"},{"id":"3853935","name":"Icano","latitude":"-28.919340","longitude":"-65.328171","country":"AR"},{"id":"3853967","name":"Humahuaca","latitude":"-23.205441","longitude":"-65.350479","country":"AR"},{"id":"3853974","name":"Huinca Renanco","latitude":"-34.840382","longitude":"-64.375801","country":"AR"},{"id":"3853981","name":"Huillapima","latitude":"-28.725330","longitude":"-65.978699","country":"AR"},{"id":"3854008","name":"Huerta Grande","latitude":"-31.075239","longitude":"-64.490631","country":"AR"},{"id":"3854102","name":"Hualfin","latitude":"-27.228960","longitude":"-66.831306","country":"AR"},{"id":"3854153","name":"Hoyo de Epuyen","latitude":"-42.071892","longitude":"-71.508110","country":"AR"},{"id":"3854318","name":"Hersilia","latitude":"-30.004471","longitude":"-61.840801","country":"AR"},{"id":"3854331","name":"Hernando","latitude":"-32.426571","longitude":"-63.733330","country":"AR"},{"id":"3854336","name":"Hermoso Campo","latitude":"-27.608160","longitude":"-61.344410","country":"AR"},{"id":"3854493","name":"Guatrache","latitude":"-37.667759","longitude":"-63.530220","country":"AR"},{"id":"3854494","name":"Guatimozin","latitude":"-33.461498","longitude":"-62.438438","country":"AR"},{"id":"3854724","name":"Graneros","latitude":"-27.649340","longitude":"-65.438301","country":"AR"},{"id":"3854895","name":"Granadero Baigorria","latitude":"-32.856831","longitude":"-60.717541","country":"AR"},{"id":"3854985","name":"Gobernador Galvez","latitude":"-33.030159","longitude":"-60.640450","country":"AR"},{"id":"3854988","name":"Gobernador Costa","latitude":"-44.049919","longitude":"-70.597977","country":"AR"},{"id":"3855056","name":"General San Martin","latitude":"-37.979038","longitude":"-63.604488","country":"AR"},{"id":"3855065","name":"General Roca","latitude":"-39.033329","longitude":"-67.583328","country":"AR"},{"id":"3855066","name":"General Roca","latitude":"-32.731960","longitude":"-61.915989","country":"AR"},{"id":"3855067","name":"General Ramirez","latitude":"-32.176010","longitude":"-60.200790","country":"AR"},{"id":"3855074","name":"General Pinedo","latitude":"-27.316669","longitude":"-61.283329","country":"AR"},{"id":"3855075","name":"General Pico","latitude":"-35.656620","longitude":"-63.756821","country":"AR"},{"id":"3855098","name":"General Levalle","latitude":"-34.014721","longitude":"-63.924129","country":"AR"},{"id":"3855114","name":"General Fernandez Oro","latitude":"-38.952969","longitude":"-67.924889","country":"AR"},{"id":"3855116","name":"General Enrique Mosconi","latitude":"-22.595881","longitude":"-63.812550","country":"AR"},{"id":"3855117","name":"General Enrique Godoy","latitude":"-39.083328","longitude":"-67.150002","country":"AR"},{"id":"3855121","name":"General Conesa","latitude":"-40.099998","longitude":"-64.433327","country":"AR"},{"id":"3855124","name":"General Cabrera","latitude":"-32.813129","longitude":"-63.872429","country":"AR"},{"id":"3855131","name":"General Baldissera","latitude":"-33.122459","longitude":"-62.306301","country":"AR"},{"id":"3855143","name":"General Acha","latitude":"-37.376980","longitude":"-64.604309","country":"AR"},{"id":"3855237","name":"Gancedo","latitude":"-27.490379","longitude":"-61.675709","country":"AR"},{"id":"3855244","name":"Galvez","latitude":"-32.029270","longitude":"-61.221031","country":"AR"},{"id":"3855284","name":"Gaiman","latitude":"-43.289700","longitude":"-65.492897","country":"AR"},{"id":"3855302","name":"Funes","latitude":"-32.915680","longitude":"-60.809952","country":"AR"},{"id":"3855368","name":"Fray Luis Beltran","latitude":"-39.316669","longitude":"-65.766670","country":"AR"},{"id":"3855370","name":"Fray Luis A. Beltran","latitude":"-32.791222","longitude":"-60.728191","country":"AR"},{"id":"3855394","name":"Fraile Pintado","latitude":"-23.940790","longitude":"-64.799431","country":"AR"},{"id":"3855554","name":"Firmat","latitude":"-33.459370","longitude":"-61.483200","country":"AR"},{"id":"3855588","name":"Fiambala","latitude":"-27.687050","longitude":"-67.614899","country":"AR"},{"id":"3855666","name":"Famailla","latitude":"-27.054131","longitude":"-65.403290","country":"AR"},{"id":"3855719","name":"Etruria","latitude":"-32.940079","longitude":"-63.246601","country":"AR"},{"id":"3855763","name":"Estanislao del Campo","latitude":"-25.055040","longitude":"-60.092178","country":"AR"},{"id":"3855974","name":"Esquel","latitude":"-42.900002","longitude":"-71.316673","country":"AR"},{"id":"3856022","name":"Esperanza","latitude":"-31.448799","longitude":"-60.931728","country":"AR"},{"id":"3856231","name":"Embarcacion","latitude":"-23.208981","longitude":"-64.096046","country":"AR"},{"id":"3856235","name":"Embalse","latitude":"-32.180000","longitude":"-64.418091","country":"AR"},{"id":"3856436","name":"El Trebol","latitude":"-32.200802","longitude":"-61.701401","country":"AR"},{"id":"3857012","name":"El Quebrachal","latitude":"-25.283331","longitude":"-64.066673","country":"AR"},{"id":"3857756","name":"El Maiten","latitude":"-42.049240","longitude":"-71.166931","country":"AR"},{"id":"3857887","name":"El Hoyo","latitude":"-27.028721","longitude":"-63.231972","country":"AR"},{"id":"3857974","name":"El Galpon","latitude":"-25.380690","longitude":"-64.652588","country":"AR"},{"id":"3858088","name":"Elena","latitude":"-32.572048","longitude":"-64.394814","country":"AR"},{"id":"3858553","name":"El Carril","latitude":"-25.074100","longitude":"-65.491737","country":"AR"},{"id":"3858677","name":"El Calafate","latitude":"-50.340752","longitude":"-72.276817","country":"AR"},{"id":"3858765","name":"El Bolson","latitude":"-41.966671","longitude":"-71.516670","country":"AR"},{"id":"3859000","name":"El Aguilar","latitude":"-23.225821","longitude":"-65.692131","country":"AR"},{"id":"3859036","name":"Eduardo Castex","latitude":"-35.915009","longitude":"-64.294479","country":"AR"},{"id":"3859278","name":"Dolavon","latitude":"-43.299999","longitude":"-65.699997","country":"AR"},{"id":"3859384","name":"Diamante","latitude":"-32.066410","longitude":"-60.638359","country":"AR"},{"id":"3859409","name":"Devoto","latitude":"-31.404310","longitude":"-62.306339","country":"AR"},{"id":"3859429","name":"Despenaderos","latitude":"-31.816259","longitude":"-64.289886","country":"AR"},{"id":"3859500","name":"Del Campillo","latitude":"-34.376591","longitude":"-64.495041","country":"AR"},{"id":"3859512","name":"Dean Funes","latitude":"-30.420361","longitude":"-64.349838","country":"AR"},{"id":"3859552","name":"Cutral-Co","latitude":"-38.946880","longitude":"-69.208893","country":"AR"},{"id":"3859828","name":"Cruz del Eje","latitude":"-30.726440","longitude":"-64.803871","country":"AR"},{"id":"3859839","name":"Cruz Alta","latitude":"-33.008869","longitude":"-61.807461","country":"AR"},{"id":"3859904","name":"Crespo","latitude":"-32.028728","longitude":"-60.306580","country":"AR"},{"id":"3859965","name":"Cosquin","latitude":"-31.245081","longitude":"-64.465630","country":"AR"},{"id":"3859974","name":"Corzuela","latitude":"-26.953739","longitude":"-60.969280","country":"AR"},{"id":"3860129","name":"Corral de Bustos","latitude":"-33.282051","longitude":"-62.184631","country":"AR"},{"id":"3860164","name":"Coronel Suarez","latitude":"-37.454670","longitude":"-61.933430","country":"AR"},{"id":"3860178","name":"Coronel Moldes","latitude":"-33.622700","longitude":"-64.597107","country":"AR"},{"id":"3860197","name":"Coronel Du Graty","latitude":"-27.680380","longitude":"-60.914619","country":"AR"},{"id":"3860199","name":"Coronel Dorrego","latitude":"-38.718670","longitude":"-61.287319","country":"AR"},{"id":"3860217","name":"Coronda","latitude":"-31.972630","longitude":"-60.919819","country":"AR"},{"id":"3860259","name":"Cordoba","latitude":"-31.413500","longitude":"-64.181053","country":"AR"},{"id":"3860319","name":"Contraalmirante Cordero","latitude":"-38.724232","longitude":"-68.152840","country":"AR"},{"id":"3860419","name":"Concepcion del Bermejo","latitude":"-26.599260","longitude":"-60.946171","country":"AR"},{"id":"3860431","name":"Concaran","latitude":"-32.560089","longitude":"-65.242699","country":"AR"},{"id":"3860443","name":"Comodoro Rivadavia","latitude":"-45.866669","longitude":"-67.500000","country":"AR"},{"id":"3860466","name":"Comandante Luis Piedra Buena","latitude":"-49.985130","longitude":"-68.914673","country":"AR"},{"id":"3860791","name":"Colonia Dora","latitude":"-28.600000","longitude":"-62.950001","country":"AR"},{"id":"3860811","name":"Colonia Baron","latitude":"-36.151520","longitude":"-63.854038","country":"AR"},{"id":"3861002","name":"Clodomira","latitude":"-27.574400","longitude":"-64.131081","country":"AR"},{"id":"3861056","name":"Cipolletti","latitude":"-38.933922","longitude":"-67.990318","country":"AR"},{"id":"3861061","name":"Cinco Saltos","latitude":"-38.822239","longitude":"-68.062927","country":"AR"},{"id":"3861262","name":"Chos Malal","latitude":"-37.378090","longitude":"-70.270851","country":"AR"},{"id":"3861329","name":"Choele Choel","latitude":"-39.266670","longitude":"-65.683327","country":"AR"},{"id":"3861344","name":"Chivilcoy","latitude":"-34.895660","longitude":"-60.016670","country":"AR"},{"id":"3861405","name":"Chimpay","latitude":"-39.164822","longitude":"-66.142357","country":"AR"},{"id":"3861416","name":"Chimbas","latitude":"-31.483330","longitude":"-68.533333","country":"AR"},{"id":"3861445","name":"Chilecito","latitude":"-29.161949","longitude":"-67.497398","country":"AR"},{"id":"3861494","name":"Chicoana","latitude":"-25.100880","longitude":"-65.533096","country":"AR"},{"id":"3861528","name":"Chichinales","latitude":"-39.115051","longitude":"-66.927139","country":"AR"},{"id":"3861678","name":"Charata","latitude":"-27.214380","longitude":"-61.187950","country":"AR"},{"id":"3861824","name":"Chamical","latitude":"-30.360020","longitude":"-66.313988","country":"AR"},{"id":"3861953","name":"Chacabuco","latitude":"-34.641670","longitude":"-60.473888","country":"AR"},{"id":"3861966","name":"Cervantes","latitude":"-39.049999","longitude":"-67.383331","country":"AR"},{"id":"3862100","name":"Ceres","latitude":"-29.881001","longitude":"-61.945042","country":"AR"},{"id":"3862144","name":"Centenario","latitude":"-38.804329","longitude":"-68.139977","country":"AR"},{"id":"3862240","name":"Caucete","latitude":"-31.651791","longitude":"-68.281052","country":"AR"},{"id":"3862251","name":"Catrilo","latitude":"-36.405979","longitude":"-63.421680","country":"AR"},{"id":"3862254","name":"Catriel","latitude":"-37.879070","longitude":"-67.795601","country":"AR"},{"id":"3862293","name":"Castro Barros","latitude":"-30.579519","longitude":"-65.726959","country":"AR"},{"id":"3862320","name":"Castelli","latitude":"-25.946791","longitude":"-60.619469","country":"AR"},{"id":"3862351","name":"Casilda","latitude":"-33.044170","longitude":"-61.168060","country":"AR"},{"id":"3862655","name":"Carcarana","latitude":"-32.856789","longitude":"-61.153309","country":"AR"},{"id":"3862738","name":"Capitan Bermudez","latitude":"-32.822620","longitude":"-60.718521","country":"AR"},{"id":"3862761","name":"Capilla del Monte","latitude":"-30.860880","longitude":"-64.525146","country":"AR"},{"id":"3862772","name":"Capayan","latitude":"-28.761049","longitude":"-66.050240","country":"AR"},{"id":"3862832","name":"Candelaria","latitude":"-32.060360","longitude":"-65.824768","country":"AR"},{"id":"3862883","name":"Canals","latitude":"-33.565418","longitude":"-62.889271","country":"AR"},{"id":"3862981","name":"Canada de Gomez","latitude":"-32.816360","longitude":"-61.394932","country":"AR"},{"id":"3863050","name":"Campo Quijano","latitude":"-24.909821","longitude":"-65.636559","country":"AR"},{"id":"3863095","name":"Campo Largo","latitude":"-26.800770","longitude":"-60.842152","country":"AR"},{"id":"3863136","name":"Campo Gallo","latitude":"-26.583330","longitude":"-62.849998","country":"AR"},{"id":"3863314","name":"Camilo Aldao","latitude":"-33.127449","longitude":"-62.094528","country":"AR"},{"id":"3863362","name":"Calingasta","latitude":"-31.330839","longitude":"-69.407829","country":"AR"},{"id":"3863366","name":"Calilegua","latitude":"-23.773680","longitude":"-64.770020","country":"AR"},{"id":"3863377","name":"Caleufu","latitude":"-35.595589","longitude":"-64.557777","country":"AR"},{"id":"3863379","name":"Caleta Olivia","latitude":"-46.439289","longitude":"-67.528137","country":"AR"},{"id":"3863419","name":"Calchaqui","latitude":"-29.887671","longitude":"-60.286961","country":"AR"},{"id":"3863491","name":"Caimancito","latitude":"-23.740700","longitude":"-64.593697","country":"AR"},{"id":"3863503","name":"Cafayate","latitude":"-26.072950","longitude":"-65.976143","country":"AR"},{"id":"3863557","name":"Cachi","latitude":"-25.120331","longitude":"-66.165192","country":"AR"},{"id":"3863663","name":"Buta Ranquil","latitude":"-37.052219","longitude":"-69.877129","country":"AR"},{"id":"3863701","name":"Burruyacu","latitude":"-26.499180","longitude":"-64.742058","country":"AR"},{"id":"3863814","name":"Buena Esperanza","latitude":"-34.756470","longitude":"-65.253799","country":"AR"},{"id":"3863833","name":"Brinkmann","latitude":"-30.865900","longitude":"-62.037418","country":"AR"},{"id":"3864274","name":"Berrotaran","latitude":"-32.451000","longitude":"-64.388672","country":"AR"},{"id":"3864328","name":"Beltran","latitude":"-27.829130","longitude":"-64.060982","country":"AR"},{"id":"3864331","name":"Bell Ville","latitude":"-32.625912","longitude":"-62.688728","country":"AR"},{"id":"3864375","name":"Bella Vista","latitude":"-27.030840","longitude":"-65.303146","country":"AR"},{"id":"3864888","name":"Balnearia","latitude":"-31.008801","longitude":"-62.667332","country":"AR"},{"id":"3865086","name":"Bahia Blanca","latitude":"-38.719601","longitude":"-62.272430","country":"AR"},{"id":"3865186","name":"Avia Terai","latitude":"-26.685320","longitude":"-60.729198","country":"AR"},{"id":"3865375","name":"Arrufo","latitude":"-30.232809","longitude":"-61.728619","country":"AR"},{"id":"3865385","name":"Arroyo Seco","latitude":"-33.154888","longitude":"-60.508629","country":"AR"},{"id":"3865413","name":"Arroyo Cabral","latitude":"-32.491192","longitude":"-63.401260","country":"AR"},{"id":"3865424","name":"Arroyito","latitude":"-31.420219","longitude":"-63.050018","country":"AR"},{"id":"3865449","name":"Armstrong","latitude":"-32.782150","longitude":"-61.602219","country":"AR"},{"id":"3865474","name":"Arias","latitude":"-33.644112","longitude":"-62.402721","country":"AR"},{"id":"3865579","name":"Arauco","latitude":"-28.580500","longitude":"-66.794380","country":"AR"},{"id":"3865605","name":"Apolinario Saravia","latitude":"-24.432760","longitude":"-63.995350","country":"AR"},{"id":"3865742","name":"Anguil","latitude":"-36.525669","longitude":"-64.010246","country":"AR"},{"id":"3865802","name":"Andalgala","latitude":"-27.581949","longitude":"-66.316460","country":"AR"},{"id":"3865803","name":"Andacollo","latitude":"-37.179451","longitude":"-70.669121","country":"AR"},{"id":"3865830","name":"Ancasti","latitude":"-28.812469","longitude":"-65.501450","country":"AR"},{"id":"3865840","name":"Anatuya","latitude":"-28.460640","longitude":"-62.834721","country":"AR"},{"id":"3866000","name":"Alumine","latitude":"-39.236858","longitude":"-70.919701","country":"AR"},{"id":"3866163","name":"Alta Gracia","latitude":"-31.652920","longitude":"-64.428261","country":"AR"},{"id":"3866214","name":"Alpachiri","latitude":"-37.377041","longitude":"-63.774448","country":"AR"},{"id":"3866237","name":"Almafuerte","latitude":"-32.192959","longitude":"-64.255592","country":"AR"},{"id":"3866242","name":"Allen","latitude":"-38.977360","longitude":"-67.827141","country":"AR"},{"id":"3866353","name":"Alejo Ledesma","latitude":"-33.606430","longitude":"-62.623039","country":"AR"},{"id":"3866356","name":"Alejandro Roca","latitude":"-33.353691","longitude":"-63.718491","country":"AR"},{"id":"3866367","name":"Alderetes","latitude":"-26.816669","longitude":"-65.133331","country":"AR"},{"id":"3866425","name":"Albardon","latitude":"-31.437220","longitude":"-68.525558","country":"AR"},{"id":"3866496","name":"Aguilares","latitude":"-27.433800","longitude":"-65.614273","country":"AR"},{"id":"3866935","name":"Adelia Maria","latitude":"-33.631519","longitude":"-64.020973","country":"AR"},{"id":"3866959","name":"Achiras","latitude":"-33.175381","longitude":"-64.993309","country":"AR"},{"id":"3867009","name":"Abra Pampa","latitude":"-22.720490","longitude":"-65.696968","country":"AR"},{"id":"6693230","name":"Villa Santa Rita","latitude":"-34.610821","longitude":"-58.480999","country":"AR"},{"id":"7116866","name":"Villa Mercedes","latitude":"-33.675709","longitude":"-65.457832","country":"AR"},{"id":"7284819","name":"La Punta","latitude":"-33.183681","longitude":"-66.312698","country":"AR"},{"id":"7304381","name":"Villa Berna","latitude":"-31.903210","longitude":"-64.756508","country":"AR"},{"id":"7304383","name":"Cuesta Blanca","latitude":"-31.486580","longitude":"-64.571503","country":"AR"},{"id":"7647007","name":"San Carlos de Bariloche","latitude":"-41.145569","longitude":"-71.308220","country":"AR"}]