[{"id":"1220112","name":"Yovon","latitude":"38.314079","longitude":"69.037842","country":"TJ"},{"id":"1220163","name":"Vose","latitude":"37.803959","longitude":"69.644157","country":"TJ"},{"id":"1220164","name":"Vorukh","latitude":"39.849411","longitude":"70.583817","country":"TJ"},{"id":"1220197","name":"Varzob","latitude":"38.773689","longitude":"68.817757","country":"TJ"},{"id":"1220219","name":"Vakhsh","latitude":"37.714851","longitude":"68.834557","country":"TJ"},{"id":"1220253","name":"Istaravshan","latitude":"39.914200","longitude":"69.003281","country":"TJ"},{"id":"1220301","name":"Tursunzoda","latitude":"38.514370","longitude":"68.233269","country":"TJ"},{"id":"1220380","name":"Tartiki","latitude":"37.582249","longitude":"68.132896","country":"TJ"},{"id":"1220401","name":"Tagob","latitude":"38.838268","longitude":"68.898468","country":"TJ"},{"id":"1220446","name":"Sovet","latitude":"38.046700","longitude":"69.588219","country":"TJ"},{"id":"1220566","name":"Shahrinav","latitude":"38.570850","longitude":"68.334976","country":"TJ"},{"id":"1220576","name":"Shahritus","latitude":"37.263691","longitude":"68.138481","country":"TJ"},{"id":"1220701","name":"Roghun","latitude":"38.782570","longitude":"69.870811","country":"TJ"},{"id":"1220747","name":"Qurghonteppa","latitude":"37.833988","longitude":"68.781860","country":"TJ"},{"id":"1220750","name":"Panj","latitude":"37.236340","longitude":"69.099113","country":"TJ"},{"id":"1220798","name":"Panjakent","latitude":"39.495239","longitude":"67.609306","country":"TJ"},{"id":"1220826","name":"Farkhor","latitude":"37.492191","longitude":"69.403557","country":"TJ"},{"id":"1220853","name":"Orzu","latitude":"37.559330","longitude":"68.818420","country":"TJ"},{"id":"1220855","name":"Vahdat","latitude":"38.556320","longitude":"69.013542","country":"TJ"},{"id":"1220888","name":"Obigarm","latitude":"38.717312","longitude":"69.708847","country":"TJ"},{"id":"1220905","name":"Norak","latitude":"38.389172","longitude":"69.322723","country":"TJ"},{"id":"1220936","name":"Novobod","latitude":"39.010841","longitude":"70.150818","country":"TJ"},{"id":"1220962","name":"Murghob","latitude":"38.170231","longitude":"73.966743","country":"TJ"},{"id":"1221091","name":"Muminobod","latitude":"38.108471","longitude":"70.028458","country":"TJ"},{"id":"1221136","name":"Kuybishev","latitude":"37.946362","longitude":"68.808777","country":"TJ"},{"id":"1221194","name":"Kulob","latitude":"37.914532","longitude":"69.783028","country":"TJ"},{"id":"1221259","name":"Kolkhozobod","latitude":"37.588230","longitude":"68.658859","country":"TJ"},{"id":"1221297","name":"Kirovskiy","latitude":"37.817741","longitude":"68.859222","country":"TJ"},{"id":"1221328","name":"Khorugh","latitude":"37.489738","longitude":"71.553040","country":"TJ"},{"id":"1221344","name":"Khodzha-Maston","latitude":"38.744572","longitude":"68.627022","country":"TJ"},{"id":"1221494","name":"Karakenja","latitude":"39.235851","longitude":"71.524117","country":"TJ"},{"id":"1221614","name":"Ishqoshim","latitude":"36.724838","longitude":"71.613312","country":"TJ"},{"id":"1221714","name":"Hisor","latitude":"38.525040","longitude":"68.551239","country":"TJ"},{"id":"1221740","name":"Rasht","latitude":"39.028721","longitude":"70.374458","country":"TJ"},{"id":"1221748","name":"Garavuti","latitude":"37.567242","longitude":"68.446922","country":"TJ"},{"id":"1221808","name":"Jilikul","latitude":"37.491669","longitude":"68.531059","country":"TJ"},{"id":"1221871","name":"Dusti","latitude":"37.348122","longitude":"68.663979","country":"TJ"},{"id":"1221874","name":"Dushanbe","latitude":"38.535751","longitude":"68.779053","country":"TJ"},{"id":"1221965","name":"Danghara","latitude":"38.095779","longitude":"69.339981","country":"TJ"},{"id":"1221997","name":"Chubek","latitude":"37.613659","longitude":"69.706108","country":"TJ"},{"id":"1222009","name":"Boshchorbogh","latitude":"37.416672","longitude":"68.199997","country":"TJ"},{"id":"1222085","name":"Bustonqala","latitude":"37.847832","longitude":"68.831253","country":"TJ"},{"id":"1222107","name":"Boshkengash","latitude":"38.466129","longitude":"68.805328","country":"TJ"},{"id":"1222222","name":"Ayni","latitude":"39.394058","longitude":"68.537659","country":"TJ"},{"id":"1514829","name":"Taboshar","latitude":"40.568642","longitude":"69.641273","country":"TJ"},{"id":"1514831","name":"Shurob","latitude":"40.049061","longitude":"70.548882","country":"TJ"},{"id":"1514839","name":"Proletar","latitude":"40.167042","longitude":"69.503983","country":"TJ"},{"id":"1514843","name":"Palos","latitude":"40.316280","longitude":"69.737427","country":"TJ"},{"id":"1514844","name":"Pakhtakoron","latitude":"40.157089","longitude":"68.746590","country":"TJ"},{"id":"1514852","name":"Neftobod","latitude":"40.215240","longitude":"70.571930","country":"TJ"},{"id":"1514856","name":"Nov","latitude":"40.152199","longitude":"69.370758","country":"TJ"},{"id":"1514870","name":"Quruqsoy","latitude":"40.575790","longitude":"69.378899","country":"TJ"},{"id":"1514877","name":"Kim","latitude":"40.207981","longitude":"70.468819","country":"TJ"},{"id":"1514879","name":"Khujand","latitude":"40.285271","longitude":"69.627922","country":"TJ"},{"id":"1514889","name":"Konsoy","latitude":"40.491550","longitude":"69.702454","country":"TJ"},{"id":"1514891","name":"Konibodom","latitude":"40.284340","longitude":"70.442574","country":"TJ"},{"id":"1514896","name":"Isfara","latitude":"40.126480","longitude":"70.625259","country":"TJ"},{"id":"1514913","name":"Buston","latitude":"40.522861","longitude":"69.333076","country":"TJ"},{"id":"1514921","name":"Shaydon","latitude":"40.674740","longitude":"70.345963","country":"TJ"},{"id":"1514925","name":"Oltintopkan","latitude":"40.654251","longitude":"69.598106","country":"TJ"},{"id":"1514929","name":"Adrasmon","latitude":"40.647160","longitude":"69.985588","country":"TJ"},{"id":"1538311","name":"Chkalov","latitude":"40.234169","longitude":"69.694809","country":"TJ"}]