[{"id":"235715","name":"Karonga","latitude":"-9.933330","longitude":"33.933331","country":"MW"},{"id":"235751","name":"Chitipa","latitude":"-9.702370","longitude":"33.269691","country":"MW"},{"id":"923295","name":"Zomba","latitude":"-15.385960","longitude":"35.318802","country":"MW"},{"id":"923652","name":"Thyolo","latitude":"-16.067751","longitude":"35.140461","country":"MW"},{"id":"924055","name":"Salima","latitude":"-13.780400","longitude":"34.458698","country":"MW"},{"id":"924102","name":"Rumphi","latitude":"-11.018630","longitude":"33.857460","country":"MW"},{"id":"924206","name":"Phalombe","latitude":"-15.806350","longitude":"35.650669","country":"MW"},{"id":"924491","name":"Ntchisi","latitude":"-13.527750","longitude":"33.914902","country":"MW"},{"id":"924492","name":"Ntcheu","latitude":"-14.820270","longitude":"34.635860","country":"MW"},{"id":"924572","name":"Nsanje","latitude":"-16.919950","longitude":"35.261990","country":"MW"},{"id":"924705","name":"Nkhotakota","latitude":"-12.927440","longitude":"34.296139","country":"MW"},{"id":"924732","name":"Nkhata Bay","latitude":"-11.606590","longitude":"34.290730","country":"MW"},{"id":"925498","name":"Mzimba","latitude":"-11.900000","longitude":"33.599998","country":"MW"},{"id":"925596","name":"Mwanza","latitude":"-15.602620","longitude":"34.524792","country":"MW"},{"id":"925789","name":"Mulanje","latitude":"-16.031630","longitude":"35.500000","country":"MW"},{"id":"926087","name":"Mponela","latitude":"-13.531940","longitude":"33.740082","country":"MW"},{"id":"926308","name":"Monkey Bay","latitude":"-14.072800","longitude":"34.920052","country":"MW"},{"id":"926747","name":"Mchinji","latitude":"-13.798410","longitude":"32.880192","country":"MW"},{"id":"927246","name":"Mangochi","latitude":"-14.478150","longitude":"35.264481","country":"MW"},{"id":"927792","name":"Luchenza","latitude":"-16.006929","longitude":"35.309479","country":"MW"},{"id":"927834","name":"Liwonde","latitude":"-15.050640","longitude":"35.203529","country":"MW"},{"id":"927856","name":"Livingstonia","latitude":"-10.606020","longitude":"34.106281","country":"MW"},{"id":"927967","name":"Lilongwe","latitude":"-13.966920","longitude":"33.787251","country":"MW"},{"id":"928534","name":"Kasungu","latitude":"-13.033330","longitude":"33.483330","country":"MW"},{"id":"929977","name":"Dowa","latitude":"-13.653990","longitude":"33.937538","country":"MW"},{"id":"930025","name":"Dedza","latitude":"-14.377900","longitude":"34.333221","country":"MW"},{"id":"930629","name":"Chipoka","latitude":"-13.993280","longitude":"34.515659","country":"MW"},{"id":"931070","name":"Chikwawa","latitude":"-16.033520","longitude":"34.800911","country":"MW"},{"id":"931755","name":"Blantyre","latitude":"-15.784990","longitude":"35.008541","country":"MW"},{"id":"931865","name":"Balaka","latitude":"-14.979280","longitude":"34.955750","country":"MW"}]