[{"id":"3491736","name":"Yayas de Viajama","latitude":"18.607100","longitude":"-70.927528","country":"DO"},{"id":"3491796","name":"Yamasa","latitude":"18.770140","longitude":"-70.025078","country":"DO"},{"id":"3491807","name":"Yaguate","latitude":"18.335300","longitude":"-70.181129","country":"DO"},{"id":"3491905","name":"Villa Vasquez","latitude":"19.741100","longitude":"-71.446404","country":"DO"},{"id":"3491908","name":"Villa Tapia","latitude":"19.300840","longitude":"-70.421989","country":"DO"},{"id":"3491914","name":"Villarpando","latitude":"18.658600","longitude":"-71.039162","country":"DO"},{"id":"3491916","name":"Villa Riva","latitude":"19.180679","longitude":"-69.913193","country":"DO"},{"id":"3491927","name":"Villa Jaragua","latitude":"18.490770","longitude":"-71.483772","country":"DO"},{"id":"3491929","name":"Villa Isabela","latitude":"19.822880","longitude":"-71.056412","country":"DO"},{"id":"3491937","name":"Villa Gonzalez","latitude":"19.540569","longitude":"-70.788528","country":"DO"},{"id":"3491948","name":"Villa Bisono","latitude":"19.563780","longitude":"-70.875816","country":"DO"},{"id":"3491952","name":"Villa Altagracia","latitude":"18.672970","longitude":"-70.170952","country":"DO"},{"id":"3492030","name":"Vicente Noble","latitude":"18.384430","longitude":"-71.180099","country":"DO"},{"id":"3492073","name":"Veragua Arriba","latitude":"19.583330","longitude":"-70.333328","country":"DO"},{"id":"3492123","name":"Vallejuelo","latitude":"18.653540","longitude":"-71.334312","country":"DO"},{"id":"3492367","name":"Tireo Arriba","latitude":"18.935369","longitude":"-70.688499","country":"DO"},{"id":"3492477","name":"Tenares","latitude":"19.374390","longitude":"-70.350868","country":"DO"},{"id":"3492517","name":"Tamboril","latitude":"19.485380","longitude":"-70.611038","country":"DO"},{"id":"3492520","name":"Tamayo","latitude":"18.394699","longitude":"-71.202904","country":"DO"},{"id":"3492557","name":"Tabara Arriba","latitude":"18.570000","longitude":"-70.879784","country":"DO"},{"id":"3492627","name":"Sosua","latitude":"19.766670","longitude":"-70.516670","country":"DO"},{"id":"3492897","name":"San Victor Arriba","latitude":"19.477409","longitude":"-70.535851","country":"DO"},{"id":"3492908","name":"Santo Domingo","latitude":"18.500120","longitude":"-69.988571","country":"DO"},{"id":"3492914","name":"Santiago de los Caballeros","latitude":"19.450001","longitude":"-70.699997","country":"DO"},{"id":"3492984","name":"Santa Cruz de El Seibo","latitude":"18.765591","longitude":"-69.038857","country":"DO"},{"id":"3492985","name":"Santa Cruz de Barahona","latitude":"18.208540","longitude":"-71.100769","country":"DO"},{"id":"3492997","name":"Santa Barbara de Samana","latitude":"19.205610","longitude":"-69.336853","country":"DO"},{"id":"3493022","name":"San Rafael del Yuma","latitude":"18.429930","longitude":"-68.673897","country":"DO"},{"id":"3493032","name":"San Pedro de Macoris","latitude":"18.461559","longitude":"-69.297180","country":"DO"},{"id":"3493081","name":"San Juan de la Maguana","latitude":"18.805880","longitude":"-71.229912","country":"DO"},{"id":"3493100","name":"San Jose de Ocoa","latitude":"18.549999","longitude":"-70.500000","country":"DO"},{"id":"3493103","name":"San Jose de Las Matas","latitude":"19.339149","longitude":"-70.938187","country":"DO"},{"id":"3493143","name":"San Gregorio de Nigua","latitude":"18.383329","longitude":"-70.083328","country":"DO"},{"id":"3493146","name":"San Francisco de Macoris","latitude":"19.295179","longitude":"-70.255432","country":"DO"},{"id":"3493174","name":"San Fernando de Monte Cristi","latitude":"19.866671","longitude":"-71.650002","country":"DO"},{"id":"3493175","name":"Puerto Plata","latitude":"19.793440","longitude":"-70.688400","country":"DO"},{"id":"3493198","name":"Sanchez","latitude":"19.228100","longitude":"-69.613701","country":"DO"},{"id":"3493240","name":"Salvaleon de Higuey","latitude":"18.615009","longitude":"-68.707977","country":"DO"},{"id":"3493271","name":"Salsipuedes","latitude":"19.405519","longitude":"-70.379852","country":"DO"},{"id":"3493383","name":"Sabaneta","latitude":"19.477930","longitude":"-71.341248","country":"DO"},{"id":"3493410","name":"Sabana Yegua","latitude":"18.716669","longitude":"-71.016670","country":"DO"},{"id":"3493478","name":"Sabana Iglesia","latitude":"19.321140","longitude":"-70.759918","country":"DO"},{"id":"3493480","name":"Sabana Grande de Palenque","latitude":"18.262560","longitude":"-70.148216","country":"DO"},{"id":"3493482","name":"Sabana Grande de Boya","latitude":"18.944981","longitude":"-69.793312","country":"DO"},{"id":"3493568","name":"Sabana de La Mar","latitude":"19.059340","longitude":"-69.388428","country":"DO"},{"id":"3493601","name":"Sabana Buey","latitude":"18.266670","longitude":"-70.533333","country":"DO"},{"id":"3493732","name":"Rio Verde Arriba","latitude":"19.315830","longitude":"-70.566429","country":"DO"},{"id":"3493743","name":"Rio San Juan","latitude":"19.643850","longitude":"-70.076347","country":"DO"},{"id":"3493873","name":"Rincon","latitude":"19.119381","longitude":"-70.406319","country":"DO"},{"id":"3493887","name":"Restauracion","latitude":"19.315319","longitude":"-71.692390","country":"DO"},{"id":"3494064","name":"Ramon Santana","latitude":"18.542240","longitude":"-69.179787","country":"DO"},{"id":"3494121","name":"Quisqueya","latitude":"18.555420","longitude":"-69.408142","country":"DO"},{"id":"3494242","name":"Punta Cana","latitude":"18.581820","longitude":"-68.404312","country":"DO"},{"id":"3494329","name":"Pueblo Viejo","latitude":"18.400000","longitude":"-70.767647","country":"DO"},{"id":"3494509","name":"Postrer Rio","latitude":"18.543739","longitude":"-71.635612","country":"DO"},{"id":"3494584","name":"Polo","latitude":"18.078730","longitude":"-71.287231","country":"DO"},{"id":"3494655","name":"Pizarrete","latitude":"18.299999","longitude":"-70.216667","country":"DO"},{"id":"3494768","name":"Pimentel","latitude":"19.184160","longitude":"-70.108841","country":"DO"},{"id":"3494863","name":"Piedra Blanca","latitude":"18.844311","longitude":"-70.316879","country":"DO"},{"id":"3494979","name":"Pescaderia","latitude":"18.267660","longitude":"-71.166122","country":"DO"},{"id":"3495020","name":"Peralta","latitude":"18.581640","longitude":"-70.770287","country":"DO"},{"id":"3495024","name":"Pepillo Salcedo","latitude":"19.698410","longitude":"-71.745132","country":"DO"},{"id":"3495115","name":"Pedro Corto","latitude":"18.848560","longitude":"-71.410408","country":"DO"},{"id":"3495137","name":"Pedernales","latitude":"18.038380","longitude":"-71.744034","country":"DO"},{"id":"3495159","name":"Paya","latitude":"18.250000","longitude":"-70.300003","country":"DO"},{"id":"3495256","name":"Partido","latitude":"19.484030","longitude":"-71.547302","country":"DO"},{"id":"3495272","name":"Paraiso","latitude":"17.991720","longitude":"-71.165260","country":"DO"},{"id":"3495546","name":"Palmar de Ocoa","latitude":"18.296560","longitude":"-70.586349","country":"DO"},{"id":"3495555","name":"Palmar Arriba","latitude":"19.539570","longitude":"-70.738258","country":"DO"},{"id":"3495664","name":"Padre Las Casas","latitude":"18.731720","longitude":"-70.939163","country":"DO"},{"id":"3495684","name":"Oviedo","latitude":"17.801359","longitude":"-71.401001","country":"DO"},{"id":"3495694","name":"Otra Banda","latitude":"18.650160","longitude":"-68.662811","country":"DO"},{"id":"3495811","name":"Nizao","latitude":"18.250000","longitude":"-70.199997","country":"DO"},{"id":"3495857","name":"Neiba","latitude":"18.481380","longitude":"-71.419647","country":"DO"},{"id":"3496021","name":"Nagua","latitude":"19.383200","longitude":"-69.847397","country":"DO"},{"id":"3496134","name":"Monte Plata","latitude":"18.806999","longitude":"-69.783989","country":"DO"},{"id":"3496284","name":"Moncion","latitude":"19.410839","longitude":"-71.152573","country":"DO"},{"id":"3496331","name":"Moca","latitude":"19.393520","longitude":"-70.525978","country":"DO"},{"id":"3496396","name":"Miches","latitude":"18.983641","longitude":"-69.047600","country":"DO"},{"id":"3496446","name":"Mella","latitude":"18.358709","longitude":"-71.417160","country":"DO"},{"id":"3496601","name":"Matanzas","latitude":"18.233330","longitude":"-70.416672","country":"DO"},{"id":"3497204","name":"Maizal","latitude":"19.636551","longitude":"-71.027344","country":"DO"},{"id":"3497350","name":"Luperon","latitude":"19.891319","longitude":"-70.962044","country":"DO"},{"id":"3497564","name":"Los Rios","latitude":"18.521311","longitude":"-71.591057","country":"DO"},{"id":"3498191","name":"Los Llanos","latitude":"18.620350","longitude":"-69.495811","country":"DO"},{"id":"3498418","name":"Los Hidalgos","latitude":"19.733330","longitude":"-71.033333","country":"DO"},{"id":"3499230","name":"Los Botados","latitude":"18.732260","longitude":"-69.995361","country":"DO"},{"id":"3499602","name":"Loma de Cabrera","latitude":"19.433331","longitude":"-71.599998","country":"DO"},{"id":"3499748","name":"Licey al Medio","latitude":"19.433331","longitude":"-70.599998","country":"DO"},{"id":"3500013","name":"La Uvilla","latitude":"18.361860","longitude":"-71.210457","country":"DO"},{"id":"3500243","name":"Las Terrenas","latitude":"19.311020","longitude":"-69.542801","country":"DO"},{"id":"3500261","name":"Las Salinas","latitude":"18.274851","longitude":"-71.315964","country":"DO"},{"id":"3500367","name":"Las Matas de Santa Cruz","latitude":"19.671190","longitude":"-71.504707","country":"DO"},{"id":"3500370","name":"Las Matas de Farfan","latitude":"18.873091","longitude":"-71.516563","country":"DO"},{"id":"3500518","name":"Las Guaranas","latitude":"19.193100","longitude":"-70.208351","country":"DO"},{"id":"3500641","name":"Las Charcas","latitude":"18.450260","longitude":"-70.617241","country":"DO"},{"id":"3500957","name":"La Romana","latitude":"18.427340","longitude":"-68.972847","country":"DO"},{"id":"3502373","name":"Laguna Salada","latitude":"19.648270","longitude":"-71.094460","country":"DO"},{"id":"3502786","name":"La Descubierta","latitude":"18.570530","longitude":"-71.729668","country":"DO"},{"id":"3503100","name":"La Cienaga","latitude":"18.068581","longitude":"-71.106506","country":"DO"},{"id":"3503338","name":"La Canela","latitude":"19.473410","longitude":"-70.816292","country":"DO"},{"id":"3503900","name":"Juan de Herrera","latitude":"18.874020","longitude":"-71.238297","country":"DO"},{"id":"3504077","name":"Jimani","latitude":"18.491690","longitude":"-71.850220","country":"DO"},{"id":"3504080","name":"Jima Abajo","latitude":"19.132919","longitude":"-70.376068","country":"DO"},{"id":"3504158","name":"Jarabacoa","latitude":"19.121780","longitude":"-70.642181","country":"DO"},{"id":"3504160","name":"Jaquimeyes","latitude":"18.311729","longitude":"-71.161453","country":"DO"},{"id":"3504175","name":"Jamao al Norte","latitude":"19.635521","longitude":"-70.446640","country":"DO"},{"id":"3504193","name":"Jaibon","latitude":"19.611691","longitude":"-71.148468","country":"DO"},{"id":"3504332","name":"Imbert","latitude":"19.753710","longitude":"-70.829063","country":"DO"},{"id":"3504466","name":"Hondo Valle","latitude":"18.715990","longitude":"-71.695107","country":"DO"},{"id":"3504765","name":"Hato Mayor del Rey","latitude":"18.762779","longitude":"-69.256813","country":"DO"},{"id":"3504793","name":"Hatillo Palma","latitude":"19.662560","longitude":"-71.194061","country":"DO"},{"id":"3504951","name":"Guaymate","latitude":"18.587931","longitude":"-68.978668","country":"DO"},{"id":"3504983","name":"Guayabo Dulce","latitude":"18.650000","longitude":"-69.283333","country":"DO"},{"id":"3505128","name":"Guananico","latitude":"19.726931","longitude":"-70.922943","country":"DO"},{"id":"3505432","name":"Gonzalo","latitude":"18.951469","longitude":"-69.751137","country":"DO"},{"id":"3505488","name":"Gaspar Hernandez","latitude":"19.628901","longitude":"-70.281120","country":"DO"},{"id":"3505517","name":"Galvan","latitude":"18.502279","longitude":"-71.342712","country":"DO"},{"id":"3505612","name":"Fundacion","latitude":"18.286680","longitude":"-71.181473","country":"DO"},{"id":"3505778","name":"Fantino","latitude":"19.121481","longitude":"-70.299721","country":"DO"},{"id":"3505825","name":"Estebania","latitude":"18.457701","longitude":"-70.643501","country":"DO"},{"id":"3505855","name":"Esperanza","latitude":"19.584700","longitude":"-70.984894","country":"DO"},{"id":"3505861","name":"Esperalvillo","latitude":"18.815090","longitude":"-70.035568","country":"DO"},{"id":"3505947","name":"Enriquillo","latitude":"17.900000","longitude":"-71.233330","country":"DO"},{"id":"3506034","name":"El Valle","latitude":"18.975670","longitude":"-69.378273","country":"DO"},{"id":"3506415","name":"El Puerto","latitude":"18.783331","longitude":"-69.466667","country":"DO"},{"id":"3506630","name":"El Penon","latitude":"18.296431","longitude":"-71.184097","country":"DO"},{"id":"3506719","name":"El Palmar","latitude":"18.411390","longitude":"-71.245583","country":"DO"},{"id":"3507117","name":"El Llano","latitude":"18.816669","longitude":"-71.633331","country":"DO"},{"id":"3507461","name":"El Guayabal","latitude":"18.749599","longitude":"-70.836899","country":"DO"},{"id":"3507628","name":"El Factor","latitude":"19.318340","longitude":"-69.888268","country":"DO"},{"id":"3508083","name":"El Carril","latitude":"18.449051","longitude":"-70.027847","country":"DO"},{"id":"3508286","name":"El Cacao","latitude":"18.527189","longitude":"-70.295853","country":"DO"},{"id":"3508694","name":"Duverge","latitude":"18.378389","longitude":"-71.524689","country":"DO"},{"id":"3508761","name":"Don Juan","latitude":"18.827740","longitude":"-69.946289","country":"DO"},{"id":"3508952","name":"Dajabon","latitude":"19.548780","longitude":"-71.708290","country":"DO"},{"id":"3509191","name":"Cristobal","latitude":"18.294050","longitude":"-71.292976","country":"DO"},{"id":"3509207","name":"Cotui","latitude":"19.052719","longitude":"-70.149391","country":"DO"},{"id":"3509363","name":"Constanza","latitude":"18.909189","longitude":"-70.744987","country":"DO"},{"id":"3509382","name":"Concepcion de La Vega","latitude":"19.222071","longitude":"-70.529556","country":"DO"},{"id":"3509386","name":"Comendador","latitude":"18.877501","longitude":"-71.702782","country":"DO"},{"id":"3509823","name":"Cevicos","latitude":"19.004490","longitude":"-69.978958","country":"DO"},{"id":"3509882","name":"Cercado Abajo","latitude":"18.726810","longitude":"-71.517418","country":"DO"},{"id":"3509989","name":"Cayetano Germosen","latitude":"19.344130","longitude":"-70.483421","country":"DO"},{"id":"3510065","name":"Castillo","latitude":"19.208241","longitude":"-70.027260","country":"DO"},{"id":"3510083","name":"Castanuelas","latitude":"19.713869","longitude":"-71.498756","country":"DO"},{"id":"3510363","name":"Canoa","latitude":"18.354990","longitude":"-71.158501","country":"DO"},{"id":"3510637","name":"Cambita Garabitos","latitude":"18.453300","longitude":"-70.197800","country":"DO"},{"id":"3510822","name":"Cachon","latitude":"18.248329","longitude":"-71.189117","country":"DO"},{"id":"3510874","name":"Cabrera","latitude":"19.642599","longitude":"-69.904900","country":"DO"},{"id":"3510885","name":"Cabral","latitude":"18.250000","longitude":"-71.216667","country":"DO"},{"id":"3510969","name":"Cabarete","latitude":"19.749821","longitude":"-70.408287","country":"DO"},{"id":"3511233","name":"Bonao","latitude":"18.936871","longitude":"-70.409233","country":"DO"},{"id":"3511262","name":"Bohechio","latitude":"18.775150","longitude":"-70.988892","country":"DO"},{"id":"3511277","name":"Boca de Yuma","latitude":"18.378250","longitude":"-68.609001","country":"DO"},{"id":"3511540","name":"San Cristobal","latitude":"18.416670","longitude":"-70.099998","country":"DO"},{"id":"3511626","name":"Bayaguana","latitude":"18.756390","longitude":"-69.636162","country":"DO"},{"id":"3512067","name":"Bani","latitude":"18.283331","longitude":"-70.333328","country":"DO"},{"id":"3512128","name":"Bajos de Haina","latitude":"18.415380","longitude":"-70.033173","country":"DO"},{"id":"3512166","name":"Baitoa","latitude":"19.325121","longitude":"-70.703568","country":"DO"},{"id":"3512208","name":"Azua de Compostela","latitude":"18.453190","longitude":"-70.734901","country":"DO"},{"id":"3512332","name":"Arroyo Salado","latitude":"19.500000","longitude":"-69.900002","country":"DO"},{"id":"3512573","name":"Arenoso","latitude":"19.187321","longitude":"-69.859177","country":"DO"},{"id":"3512720","name":"Amina","latitude":"19.548140","longitude":"-70.995987","country":"DO"},{"id":"3512795","name":"Altamira","latitude":"19.677299","longitude":"-70.844276","country":"DO"}]