[{"id":"3384983","name":"Vitorino Freire","latitude":"-4.066670","longitude":"-45.166672","country":"BR"},{"id":"3384986","name":"Vitoria do Mearim","latitude":"-3.462220","longitude":"-44.870560","country":"BR"},{"id":"3384987","name":"Vitoria de Santo Antao","latitude":"-8.118060","longitude":"-35.291389","country":"BR"},{"id":"3385022","name":"Viseu","latitude":"-1.196670","longitude":"-46.139999","country":"BR"},{"id":"3385077","name":"Conde","latitude":"-7.259720","longitude":"-34.907501","country":"BR"},{"id":"3385088","name":"Vigia","latitude":"-0.858330","longitude":"-48.141670","country":"BR"},{"id":"3385106","name":"Vicosa do Ceara","latitude":"-3.562220","longitude":"-41.092220","country":"BR"},{"id":"3385109","name":"Vicosa","latitude":"-9.371390","longitude":"-36.240829","country":"BR"},{"id":"3385118","name":"Vicencia","latitude":"-7.656940","longitude":"-35.326672","country":"BR"},{"id":"3385122","name":"Viana","latitude":"-3.220280","longitude":"-45.003609","country":"BR"},{"id":"3385467","name":"Varzea Alegre","latitude":"-5.350000","longitude":"-40.383331","country":"BR"},{"id":"3385504","name":"Varjota","latitude":"-4.194440","longitude":"-40.476669","country":"BR"},{"id":"3385538","name":"Vargem Grande","latitude":"-3.543060","longitude":"-43.915829","country":"BR"},{"id":"3385592","name":"Valenca do Piaui","latitude":"-6.407500","longitude":"-41.745560","country":"BR"},{"id":"3385645","name":"Urucurituba","latitude":"-2.683330","longitude":"-57.666672","country":"BR"},{"id":"3385658","name":"Urucui","latitude":"-7.229440","longitude":"-44.556110","country":"BR"},{"id":"3385670","name":"Urucara","latitude":"-2.536390","longitude":"-57.759998","country":"BR"},{"id":"3385674","name":"Uruburetama","latitude":"-3.625000","longitude":"-39.508331","country":"BR"},{"id":"3385726","name":"Urbano Santos","latitude":"-3.207780","longitude":"-43.403610","country":"BR"},{"id":"3385736","name":"Upanema","latitude":"-5.641940","longitude":"-37.257778","country":"BR"},{"id":"3385742","name":"Uniao dos Palmares","latitude":"-9.162780","longitude":"-36.031940","country":"BR"},{"id":"3385745","name":"Uniao","latitude":"-4.585830","longitude":"-42.864170","country":"BR"},{"id":"3385758","name":"Umirim","latitude":"-3.677220","longitude":"-39.350281","country":"BR"},{"id":"3385778","name":"Umbuzeiro","latitude":"-7.695560","longitude":"-35.663609","country":"BR"},{"id":"3385826","name":"Umarizal","latitude":"-5.990560","longitude":"-37.814442","country":"BR"},{"id":"3385850","name":"Uirauna","latitude":"-6.518330","longitude":"-38.412220","country":"BR"},{"id":"3385873","name":"Ubajara","latitude":"-3.854440","longitude":"-40.921108","country":"BR"},{"id":"3385883","name":"Uaua","latitude":"-9.841390","longitude":"-39.481670","country":"BR"},{"id":"3385899","name":"Tutoia","latitude":"-2.761940","longitude":"-42.274441","country":"BR"},{"id":"3385908","name":"Turiacu","latitude":"-1.663330","longitude":"-45.371670","country":"BR"},{"id":"3385920","name":"Tupanatinga","latitude":"-8.753330","longitude":"-37.339722","country":"BR"},{"id":"3385922","name":"Tuntum","latitude":"-5.258060","longitude":"-44.648891","country":"BR"},{"id":"3385935","name":"Tucurui","latitude":"-3.766110","longitude":"-49.672501","country":"BR"},{"id":"3385980","name":"Tucuma","latitude":"-0.183330","longitude":"-50.049999","country":"BR"},{"id":"3386027","name":"Triunfo","latitude":"-6.566670","longitude":"-38.599998","country":"BR"},{"id":"3386042","name":"Trindade","latitude":"-7.761940","longitude":"-40.267780","country":"BR"},{"id":"3386177","name":"Trairi","latitude":"-3.277780","longitude":"-39.268890","country":"BR"},{"id":"3386198","name":"Traipu","latitude":"-9.970560","longitude":"-37.003330","country":"BR"},{"id":"3386213","name":"Touros","latitude":"-5.198890","longitude":"-35.460831","country":"BR"},{"id":"3386264","name":"Toritama","latitude":"-8.006670","longitude":"-36.056671","country":"BR"},{"id":"3386279","name":"Tome Acu","latitude":"-2.418890","longitude":"-48.152222","country":"BR"},{"id":"3386361","name":"Timon","latitude":"-5.094170","longitude":"-42.836670","country":"BR"},{"id":"3386372","name":"Timbiras","latitude":"-4.255280","longitude":"-43.940559","country":"BR"},{"id":"3386396","name":"Timbauba","latitude":"-7.505280","longitude":"-35.318329","country":"BR"},{"id":"3386449","name":"Tiangua","latitude":"-3.732220","longitude":"-40.991669","country":"BR"},{"id":"3386467","name":"Terra Santa","latitude":"-2.104170","longitude":"-56.486938","country":"BR"},{"id":"3386496","name":"Teresina","latitude":"-5.089170","longitude":"-42.801941","country":"BR"},{"id":"3386533","name":"Teixeira","latitude":"-7.222780","longitude":"-37.254169","country":"BR"},{"id":"3386543","name":"Tavares","latitude":"-7.635830","longitude":"-37.878330","country":"BR"},{"id":"3386567","name":"Sao Joao dos Inhamuns","latitude":"-6.000000","longitude":"-40.283329","country":"BR"},{"id":"3386622","name":"Taquaritinga do Norte","latitude":"-7.903060","longitude":"-36.044170","country":"BR"},{"id":"3386628","name":"Taquarana","latitude":"-9.645000","longitude":"-36.497219","country":"BR"},{"id":"3386693","name":"Taperoa","latitude":"-7.207500","longitude":"-36.826672","country":"BR"},{"id":"3386842","name":"Tangara","latitude":"-6.199440","longitude":"-35.801670","country":"BR"},{"id":"3386874","name":"Tamboril","latitude":"-4.832220","longitude":"-40.320560","country":"BR"},{"id":"3386931","name":"Tamandare","latitude":"-8.759720","longitude":"-35.104721","country":"BR"},{"id":"3386957","name":"Taipu","latitude":"-5.621670","longitude":"-35.596668","country":"BR"},{"id":"3387082","name":"Tabira","latitude":"-7.590830","longitude":"-37.539440","country":"BR"},{"id":"3387115","name":"Surubim","latitude":"-7.833060","longitude":"-35.754719","country":"BR"},{"id":"3387130","name":"Sume","latitude":"-7.671670","longitude":"-36.880001","country":"BR"},{"id":"3387202","name":"Sousa","latitude":"-6.759170","longitude":"-38.228062","country":"BR"},{"id":"3387204","name":"Soure","latitude":"-0.716670","longitude":"-48.523331","country":"BR"},{"id":"3387258","name":"Soledade","latitude":"-7.057220","longitude":"-36.362782","country":"BR"},{"id":"3387266","name":"Solanea","latitude":"-6.755000","longitude":"-35.540001","country":"BR"},{"id":"3387296","name":"Sobral","latitude":"-3.686110","longitude":"-40.349720","country":"BR"},{"id":"3387604","name":"Sirinhaem","latitude":"-8.590830","longitude":"-35.116112","country":"BR"},{"id":"3387620","name":"Simplicio Mendes","latitude":"-7.853890","longitude":"-41.910278","country":"BR"},{"id":"3387625","name":"Simoes","latitude":"-7.598890","longitude":"-40.817780","country":"BR"},{"id":"3387644","name":"Severiano Melo","latitude":"-5.777220","longitude":"-37.957779","country":"BR"},{"id":"3387663","name":"Sertania","latitude":"-8.073610","longitude":"-37.264439","country":"BR"},{"id":"3387786","name":"Serra Talhada","latitude":"-7.991940","longitude":"-38.298328","country":"BR"},{"id":"3387880","name":"Serra Branca","latitude":"-6.533330","longitude":"-38.266670","country":"BR"},{"id":"3387926","name":"Senador Pompeu","latitude":"-5.588060","longitude":"-39.371670","country":"BR"},{"id":"3387928","name":"Senador Jose Porfirio","latitude":"-2.590830","longitude":"-51.954170","country":"BR"},{"id":"3387987","name":"Satuba","latitude":"-9.563330","longitude":"-35.824440","country":"BR"},{"id":"3388092","name":"Sao Tome","latitude":"-5.972500","longitude":"-36.075279","country":"BR"},{"id":"3388112","name":"Sao Sebastiao","latitude":"-9.933610","longitude":"-36.554169","country":"BR"},{"id":"3388145","name":"Sao Raimundo Nonato","latitude":"-9.015280","longitude":"-42.699440","country":"BR"},{"id":"3388147","name":"Sao Raimundo das Mangabeiras","latitude":"-7.021940","longitude":"-45.481110","country":"BR"},{"id":"3388173","name":"Sao Pedro do Piaui","latitude":"-5.929440","longitude":"-42.718609","country":"BR"},{"id":"3388238","name":"Sao Paulo do Potengi","latitude":"-5.895000","longitude":"-35.762779","country":"BR"},{"id":"3388266","name":"Sao Miguel do Tapuio","latitude":"-5.503610","longitude":"-41.323330","country":"BR"},{"id":"3388269","name":"Sao Miguel dos Campos","latitude":"-9.781110","longitude":"-36.093609","country":"BR"},{"id":"3388270","name":"Sao Miguel do Guama","latitude":"-1.626670","longitude":"-47.483330","country":"BR"},{"id":"3388304","name":"Sao Miguel","latitude":"-5.466670","longitude":"-35.366669","country":"BR"},{"id":"3388318","name":"Sao Mateus do Maranhao","latitude":"-4.041670","longitude":"-44.474998","country":"BR"},{"id":"3388341","name":"Sao Luis do Quitunde","latitude":"-9.318330","longitude":"-35.561111","country":"BR"},{"id":"3388368","name":"Sao Luis","latitude":"-2.529720","longitude":"-44.302780","country":"BR"},{"id":"3388376","name":"Sao Lourenco da Mata","latitude":"-8.002220","longitude":"-35.018330","country":"BR"},{"id":"3388435","name":"Sao Jose do Egito","latitude":"-7.478890","longitude":"-37.274441","country":"BR"},{"id":"3388437","name":"Sao Jose do Campestre","latitude":"-6.315560","longitude":"-35.713890","country":"BR"},{"id":"3388440","name":"Sao Jose do Belmonte","latitude":"-7.861390","longitude":"-38.759720","country":"BR"},{"id":"3388441","name":"Sao Jose de Ribamar","latitude":"-2.561940","longitude":"-44.054169","country":"BR"},{"id":"3388442","name":"Sao Jose de Piranhas","latitude":"-7.120560","longitude":"-38.501942","country":"BR"},{"id":"3388443","name":"Sao Jose de Mipibu","latitude":"-6.074720","longitude":"-35.237782","country":"BR"},{"id":"3388447","name":"Sao Jose da Tapera","latitude":"-9.558330","longitude":"-37.381111","country":"BR"},{"id":"3388454","name":"Sao Jose da Laje","latitude":"-9.009720","longitude":"-36.058331","country":"BR"},{"id":"3388456","name":"Sao Jose da Coroa Grande","latitude":"-8.897780","longitude":"-35.147781","country":"BR"},{"id":"3388567","name":"Sao Joaquim do Monte","latitude":"-8.432500","longitude":"-35.804440","country":"BR"},{"id":"3388615","name":"Sao Joao dos Patos","latitude":"-6.495000","longitude":"-43.702221","country":"BR"},{"id":"3388618","name":"Sao Joao do Piaui","latitude":"-8.358060","longitude":"-42.246670","country":"BR"},{"id":"3388626","name":"Sao Joao de Pirabas","latitude":"-0.774720","longitude":"-47.177219","country":"BR"},{"id":"3388635","name":"Sao Joao Batista","latitude":"-2.955280","longitude":"-44.806938","country":"BR"},{"id":"3388660","name":"Sao Joao","latitude":"-8.875560","longitude":"-36.366669","country":"BR"},{"id":"3388713","name":"Sao Goncalo do Amarante","latitude":"-5.793330","longitude":"-35.329441","country":"BR"},{"id":"3388714","name":"Sao Goncalo do Amarante","latitude":"-3.607220","longitude":"-38.968330","country":"BR"},{"id":"3388760","name":"Sao Geraldo do Araguaia","latitude":"-6.400560","longitude":"-48.555000","country":"BR"},{"id":"3388847","name":"Sao Felix do Xingu","latitude":"-6.644720","longitude":"-51.994999","country":"BR"},{"id":"3388868","name":"Sao Domingos do Maranhao","latitude":"-5.575830","longitude":"-44.385281","country":"BR"},{"id":"3388926","name":"Sao Caetano de Odivelas","latitude":"-0.750000","longitude":"-48.020000","country":"BR"},{"id":"3388949","name":"Sao Bernardo","latitude":"-3.361390","longitude":"-42.417782","country":"BR"},{"id":"3388991","name":"Sao Bento","latitude":"-6.283330","longitude":"-37.750000","country":"BR"},{"id":"3389006","name":"Sao Bento","latitude":"-2.695830","longitude":"-44.821388","country":"BR"},{"id":"3389012","name":"Sao Benedito do Rio Preto","latitude":"-3.333610","longitude":"-43.528332","country":"BR"},{"id":"3389062","name":"Santo Antonio do Taua","latitude":"-1.151940","longitude":"-48.129440","country":"BR"},{"id":"3389134","name":"Santo Antonio","latitude":"-6.310560","longitude":"-35.478889","country":"BR"},{"id":"3389321","name":"Santa Rita","latitude":"-7.113890","longitude":"-34.978062","country":"BR"},{"id":"3389339","name":"Santa Rita","latitude":"-3.833330","longitude":"-43.883331","country":"BR"},{"id":"3389353","name":"Santarem","latitude":"-2.443060","longitude":"-54.708328","country":"BR"},{"id":"3389358","name":"Santa Quiteria do Maranhao","latitude":"-3.515560","longitude":"-42.546669","country":"BR"},{"id":"3389361","name":"Santa Quiteria","latitude":"-4.331940","longitude":"-40.156670","country":"BR"},{"id":"3389380","name":"Santana do Mundau","latitude":"-9.168060","longitude":"-36.222221","country":"BR"},{"id":"3389381","name":"Santana do Matos","latitude":"-5.957500","longitude":"-36.655560","country":"BR"},{"id":"3389384","name":"Santana do Ipanema","latitude":"-9.378330","longitude":"-37.245281","country":"BR"},{"id":"3389387","name":"Santana do Acarau","latitude":"-3.460560","longitude":"-40.212219","country":"BR"},{"id":"3389459","name":"Santa Maria do Para","latitude":"-1.350280","longitude":"-47.575562","country":"BR"},{"id":"3389462","name":"Santa Maria da Boa Vista","latitude":"-8.807780","longitude":"-39.825562","country":"BR"},{"id":"3389557","name":"Santa Luzia","latitude":"-7.633330","longitude":"-47.200001","country":"BR"},{"id":"3389560","name":"Santa Luzia","latitude":"-6.872220","longitude":"-36.918610","country":"BR"},{"id":"3389609","name":"Santa Ines","latitude":"-3.666670","longitude":"-45.380001","country":"BR"},{"id":"3389622","name":"Santa Helena","latitude":"-2.231110","longitude":"-45.299999","country":"BR"},{"id":"3389652","name":"Santa Cruz do Capibaribe","latitude":"-7.957500","longitude":"-36.204720","country":"BR"},{"id":"3389673","name":"Santa Cruz","latitude":"-6.229440","longitude":"-36.022781","country":"BR"},{"id":"3389822","name":"Salinopolis","latitude":"-0.613610","longitude":"-47.356110","country":"BR"},{"id":"3389860","name":"Salgueiro","latitude":"-8.074170","longitude":"-39.119171","country":"BR"},{"id":"3389873","name":"Salgado de Sao Felix","latitude":"-7.356940","longitude":"-35.440559","country":"BR"},{"id":"3390160","name":"Russas","latitude":"-4.940280","longitude":"-37.975830","country":"BR"},{"id":"3390280","name":"Rio Tinto","latitude":"-6.803060","longitude":"-35.080559","country":"BR"},{"id":"3390288","name":"Rio Largo","latitude":"-9.478330","longitude":"-35.853329","country":"BR"},{"id":"3390295","name":"Rio Formoso","latitude":"-8.663610","longitude":"-35.158611","country":"BR"},{"id":"3390326","name":"Ribeirao","latitude":"-8.514440","longitude":"-35.377781","country":"BR"},{"id":"3390581","name":"Riachao","latitude":"-7.361940","longitude":"-46.617222","country":"BR"},{"id":"3390659","name":"Reriutaba","latitude":"-4.141670","longitude":"-40.582218","country":"BR"},{"id":"3390674","name":"Remigio","latitude":"-6.933330","longitude":"-35.783329","country":"BR"},{"id":"3390700","name":"Regeneracao","latitude":"-6.237780","longitude":"-42.688332","country":"BR"},{"id":"3390732","name":"Redencao","latitude":"-4.225830","longitude":"-38.730560","country":"BR"},{"id":"3390760","name":"Recife","latitude":"-8.053890","longitude":"-34.881111","country":"BR"},{"id":"3390814","name":"Raposa","latitude":"-6.516670","longitude":"-44.183331","country":"BR"},{"id":"3390896","name":"Quixere","latitude":"-5.074170","longitude":"-37.988609","country":"BR"},{"id":"3390901","name":"Quixeramobim","latitude":"-5.199170","longitude":"-39.292782","country":"BR"},{"id":"3390907","name":"Quixada","latitude":"-4.971390","longitude":"-39.015282","country":"BR"},{"id":"3390965","name":"Quipapa","latitude":"-8.827780","longitude":"-36.011669","country":"BR"},{"id":"3391090","name":"Quebrangulo","latitude":"-9.318890","longitude":"-36.471111","country":"BR"},{"id":"3391130","name":"Puxinana","latitude":"-7.161110","longitude":"-35.960560","country":"BR"},{"id":"3391172","name":"Princesa Isabel","latitude":"-7.736670","longitude":"-37.993328","country":"BR"},{"id":"3391220","name":"Presidente Dutra","latitude":"-5.290000","longitude":"-44.490002","country":"BR"},{"id":"3391287","name":"Prainha","latitude":"-1.800000","longitude":"-53.480000","country":"BR"},{"id":"3391360","name":"Santana","latitude":"-0.058330","longitude":"-51.181671","country":"BR"},{"id":"3391371","name":"Porto Franco","latitude":"-6.338330","longitude":"-47.399170","country":"BR"},{"id":"3391387","name":"Porto de Moz","latitude":"-1.748330","longitude":"-52.238331","country":"BR"},{"id":"3391395","name":"Porto da Folha","latitude":"-9.917220","longitude":"-37.278332","country":"BR"},{"id":"3391397","name":"Porto Calvo","latitude":"-9.045000","longitude":"-35.398331","country":"BR"},{"id":"3391408","name":"Porto","latitude":"-3.893330","longitude":"-42.709999","country":"BR"},{"id":"3391412","name":"Portel","latitude":"-1.935560","longitude":"-50.821110","country":"BR"},{"id":"3391556","name":"Pombos","latitude":"-8.141390","longitude":"-35.395828","country":"BR"},{"id":"3391571","name":"Pombal","latitude":"-6.770280","longitude":"-37.801670","country":"BR"},{"id":"3391744","name":"Poco Branco","latitude":"-5.622780","longitude":"-35.662781","country":"BR"},{"id":"3391762","name":"Pocinhos","latitude":"-7.076670","longitude":"-36.061111","country":"BR"},{"id":"3391774","name":"Pocao de Pedras","latitude":"-4.666670","longitude":"-44.849998","country":"BR"},{"id":"3391889","name":"Pitimbu","latitude":"-7.470560","longitude":"-34.808609","country":"BR"},{"id":"3391895","name":"Pirpirituba","latitude":"-6.780000","longitude":"-35.498611","country":"BR"},{"id":"3391908","name":"Piripiri","latitude":"-4.273330","longitude":"-41.776939","country":"BR"},{"id":"3391940","name":"Pirapemas","latitude":"-3.726670","longitude":"-44.223331","country":"BR"},{"id":"3391991","name":"Piracuruca","latitude":"-3.928060","longitude":"-41.709171","country":"BR"},{"id":"3392018","name":"Pio XII","latitude":"-3.832500","longitude":"-45.152500","country":"BR"},{"id":"3392020","name":"Pio IX","latitude":"-6.837500","longitude":"-40.579170","country":"BR"},{"id":"3392054","name":"Pinheiro","latitude":"-2.521390","longitude":"-45.082500","country":"BR"},{"id":"3392088","name":"Pindare Mirim","latitude":"-3.608330","longitude":"-45.343330","country":"BR"},{"id":"3392095","name":"Pimenteiras","latitude":"-6.245280","longitude":"-41.419170","country":"BR"},{"id":"3392126","name":"Pilar","latitude":"-9.597220","longitude":"-35.956669","country":"BR"},{"id":"3392127","name":"Pilar","latitude":"-7.267220","longitude":"-35.259998","country":"BR"},{"id":"3392145","name":"Picui","latitude":"-6.510560","longitude":"-36.346939","country":"BR"},{"id":"3392167","name":"Picos","latitude":"-7.076940","longitude":"-41.466942","country":"BR"},{"id":"3392225","name":"Pianco","latitude":"-7.198060","longitude":"-37.929169","country":"BR"},{"id":"3392242","name":"Petrolina","latitude":"-9.398610","longitude":"-40.500832","country":"BR"},{"id":"3392243","name":"Jatoba","latitude":"-9.183060","longitude":"-38.268890","country":"BR"},{"id":"3392251","name":"Pesqueira","latitude":"-8.357780","longitude":"-36.696388","country":"BR"},{"id":"3392345","name":"Pentecoste","latitude":"-3.792780","longitude":"-39.270279","country":"BR"},{"id":"3392361","name":"Pendencias","latitude":"-5.260000","longitude":"-36.722221","country":"BR"},{"id":"3392368","name":"Penalva","latitude":"-3.294170","longitude":"-45.173611","country":"BR"},{"id":"3392425","name":"Pedro Velho","latitude":"-6.439170","longitude":"-35.221390","country":"BR"},{"id":"3392431","name":"Pedro II","latitude":"-4.424720","longitude":"-41.458611","country":"BR"},{"id":"3392478","name":"Pedras de Fogo","latitude":"-7.401940","longitude":"-35.116390","country":"BR"},{"id":"3392629","name":"Pedra Branca","latitude":"-5.454170","longitude":"-39.717220","country":"BR"},{"id":"3392657","name":"Pedra","latitude":"-8.496940","longitude":"-36.940830","country":"BR"},{"id":"3392731","name":"Paulo Ramos","latitude":"-4.216670","longitude":"-45.183331","country":"BR"},{"id":"3392734","name":"Paulo Afonso","latitude":"-9.406110","longitude":"-38.214722","country":"BR"},{"id":"3392740","name":"Paulista","latitude":"-7.940830","longitude":"-34.873058","country":"BR"},{"id":"3392742","name":"Paulista","latitude":"-6.593890","longitude":"-37.624168","country":"BR"},{"id":"3392862","name":"Patu","latitude":"-6.110000","longitude":"-37.636669","country":"BR"},{"id":"3392887","name":"Patos","latitude":"-7.024440","longitude":"-37.279999","country":"BR"},{"id":"3392907","name":"Pastos Bons","latitude":"-6.601670","longitude":"-44.076672","country":"BR"},{"id":"3392916","name":"Passira","latitude":"-7.995000","longitude":"-35.580559","country":"BR"},{"id":"3392942","name":"Passagem Franca","latitude":"-6.179720","longitude":"-43.783611","country":"BR"},{"id":"3392996","name":"Parnarama","latitude":"-5.681670","longitude":"-43.093330","country":"BR"},{"id":"3392997","name":"Parnamirim","latitude":"-8.090560","longitude":"-39.578331","country":"BR"},{"id":"3392998","name":"Parnamirim","latitude":"-5.915560","longitude":"-35.262779","country":"BR"},{"id":"3393001","name":"Parnaiba","latitude":"-2.904720","longitude":"-41.776669","country":"BR"},{"id":"3393008","name":"Parintins","latitude":"-2.628330","longitude":"-56.735828","country":"BR"},{"id":"3393017","name":"Parelhas","latitude":"-6.687780","longitude":"-36.657501","country":"BR"},{"id":"3393065","name":"Parambu","latitude":"-6.211110","longitude":"-40.694439","country":"BR"},{"id":"3393091","name":"Paraipaba","latitude":"-3.439440","longitude":"-39.148331","country":"BR"},{"id":"3393095","name":"Paraibano","latitude":"-6.433060","longitude":"-43.983608","country":"BR"},{"id":"3393106","name":"Paragominas","latitude":"-2.966670","longitude":"-47.483330","country":"BR"},{"id":"3393115","name":"Paracuru","latitude":"-3.410000","longitude":"-39.030560","country":"BR"},{"id":"3393174","name":"Pao de Acucar","latitude":"-9.748330","longitude":"-37.436668","country":"BR"},{"id":"3393240","name":"Palmeirais","latitude":"-5.977780","longitude":"-43.063332","country":"BR"},{"id":"3393264","name":"Palmares","latitude":"-8.683330","longitude":"-35.591671","country":"BR"},{"id":"3393400","name":"Pacatuba","latitude":"-3.984170","longitude":"-38.620281","country":"BR"},{"id":"3393409","name":"Pacajus","latitude":"-4.172500","longitude":"-38.460560","country":"BR"},{"id":"3393452","name":"Ouricuri","latitude":"-7.882500","longitude":"-40.081669","country":"BR"},{"id":"3393455","name":"Ourem","latitude":"-1.551940","longitude":"-47.114441","country":"BR"},{"id":"3393465","name":"Oros","latitude":"-6.244440","longitude":"-38.913609","country":"BR"},{"id":"3393470","name":"Orobo","latitude":"-7.745000","longitude":"-35.602219","country":"BR"},{"id":"3393471","name":"Oriximina","latitude":"-1.765560","longitude":"-55.866112","country":"BR"},{"id":"3393525","name":"Olivenca","latitude":"-9.518610","longitude":"-37.190559","country":"BR"},{"id":"3393536","name":"Olinda","latitude":"-8.008890","longitude":"-34.855282","country":"BR"},{"id":"3393762","name":"Oeiras do Para","latitude":"-2.003060","longitude":"-49.854439","country":"BR"},{"id":"3393764","name":"Oeiras","latitude":"-7.025280","longitude":"-42.131111","country":"BR"},{"id":"3393766","name":"Ocara","latitude":"-4.490830","longitude":"-38.596668","country":"BR"},{"id":"3393768","name":"Abidos","latitude":"-1.917500","longitude":"-55.518059","country":"BR"},{"id":"3393783","name":"Novo Oriente","latitude":"-5.534440","longitude":"-40.774170","country":"BR"},{"id":"3393792","name":"Novo Lino","latitude":"-8.915000","longitude":"-35.646671","country":"BR"},{"id":"3393832","name":"Nova Russas","latitude":"-4.706670","longitude":"-40.563061","country":"BR"},{"id":"3393838","name":"Nova Olinda do Norte","latitude":"-3.888060","longitude":"-59.094170","country":"BR"},{"id":"3393867","name":"Nova Floresta","latitude":"-6.455280","longitude":"-36.203331","country":"BR"},{"id":"3393876","name":"Nova Cruz","latitude":"-6.478060","longitude":"-35.433891","country":"BR"},{"id":"3393922","name":"Nisia Floresta","latitude":"-6.091110","longitude":"-35.208611","country":"BR"},{"id":"3393929","name":"Nhamunda","latitude":"-2.186110","longitude":"-56.713058","country":"BR"},{"id":"3393972","name":"Nazare da Mata","latitude":"-7.741670","longitude":"-35.227779","country":"BR"},{"id":"3394018","name":"Natuba","latitude":"-7.641390","longitude":"-35.549999","country":"BR"},{"id":"3394023","name":"Natal","latitude":"-5.795000","longitude":"-35.209438","country":"BR"},{"id":"3394116","name":"Murici","latitude":"-9.306670","longitude":"-35.943329","country":"BR"},{"id":"3394238","name":"Mulungu","latitude":"-7.024440","longitude":"-35.461941","country":"BR"},{"id":"3394326","name":"Muana","latitude":"-1.528330","longitude":"-49.216671","country":"BR"},{"id":"3394372","name":"Morros","latitude":"-9.446670","longitude":"-46.300282","country":"BR"},{"id":"3394453","name":"Moreno","latitude":"-8.118610","longitude":"-35.092220","country":"BR"},{"id":"3394500","name":"Morada Nova","latitude":"-5.106670","longitude":"-38.372501","country":"BR"},{"id":"3394539","name":"Montes Altos","latitude":"-5.833330","longitude":"-47.066669","country":"BR"},{"id":"3394549","name":"Monteiro","latitude":"-7.889440","longitude":"-37.119999","country":"BR"},{"id":"3394594","name":"Monte Alegre","latitude":"-5.889720","longitude":"-36.301392","country":"BR"},{"id":"3394605","name":"Monte Alegre","latitude":"-2.007780","longitude":"-54.069172","country":"BR"},{"id":"3394612","name":"Montanhas","latitude":"-6.485830","longitude":"-35.287498","country":"BR"},{"id":"3394621","name":"Monsenhor Gil","latitude":"-5.564170","longitude":"-42.607780","country":"BR"},{"id":"3394640","name":"Moncao","latitude":"-3.491670","longitude":"-45.251110","country":"BR"},{"id":"3394649","name":"Mombaca","latitude":"-5.743060","longitude":"-39.627499","country":"BR"},{"id":"3394661","name":"Moju","latitude":"-1.883890","longitude":"-48.768890","country":"BR"},{"id":"3394669","name":"Mogeiro","latitude":"-7.299440","longitude":"-35.479439","country":"BR"},{"id":"3394682","name":"Mossoro","latitude":"-5.187500","longitude":"-37.344170","country":"BR"},{"id":"3394745","name":"Mocajuba","latitude":"-2.584170","longitude":"-49.507221","country":"BR"},{"id":"3394755","name":"Missao Velha","latitude":"-7.249720","longitude":"-39.143059","country":"BR"},{"id":"3394813","name":"Mirador","latitude":"-6.370830","longitude":"-44.363060","country":"BR"},{"id":"3394841","name":"Minador do Negrao","latitude":"-9.305280","longitude":"-36.864719","country":"BR"},{"id":"3394884","name":"Milagres","latitude":"-7.313330","longitude":"-38.945560","country":"BR"},{"id":"3394892","name":"Miguel Alves","latitude":"-4.165560","longitude":"-42.895279","country":"BR"},{"id":"3394908","name":"Messias","latitude":"-9.383330","longitude":"-35.841671","country":"BR"},{"id":"3395042","name":"Mazagao","latitude":"-0.115000","longitude":"-51.289440","country":"BR"},{"id":"3395062","name":"Maues","latitude":"-3.383610","longitude":"-57.718609","country":"BR"},{"id":"3395077","name":"Matriz de Camaragibe","latitude":"-9.151670","longitude":"-35.533329","country":"BR"},{"id":"3395122","name":"Matinha","latitude":"-3.100560","longitude":"-45.033611","country":"BR"},{"id":"3395125","name":"Matias Olimpio","latitude":"-3.715830","longitude":"-42.555561","country":"BR"},{"id":"3395162","name":"Mata Grande","latitude":"-9.117500","longitude":"-37.732220","country":"BR"},{"id":"3395215","name":"Massaranduba","latitude":"-7.200280","longitude":"-35.789169","country":"BR"},{"id":"3395336","name":"Maribondo","latitude":"-9.577220","longitude":"-36.305279","country":"BR"},{"id":"3395380","name":"Mari","latitude":"-7.060000","longitude":"-35.319439","country":"BR"},{"id":"3395395","name":"Marechal Deodoro","latitude":"-9.710280","longitude":"-35.895000","country":"BR"},{"id":"3395404","name":"Marco","latitude":"-3.123890","longitude":"-40.146671","country":"BR"},{"id":"3395440","name":"Marapanim","latitude":"-0.717500","longitude":"-47.699718","country":"BR"},{"id":"3395456","name":"Maraial","latitude":"-8.782500","longitude":"-35.808891","country":"BR"},{"id":"3395458","name":"Maragogi","latitude":"-9.012220","longitude":"-35.222500","country":"BR"},{"id":"3395473","name":"Maracanau","latitude":"-3.876670","longitude":"-38.625561","country":"BR"},{"id":"3395483","name":"Maracana","latitude":"-0.766670","longitude":"-47.450001","country":"BR"},{"id":"3395497","name":"Maracacume","latitude":"-2.042780","longitude":"-45.959171","country":"BR"},{"id":"3395503","name":"Maraba","latitude":"-5.368610","longitude":"-49.117779","country":"BR"},{"id":"3395689","name":"Manaira","latitude":"-7.706110","longitude":"-38.154442","country":"BR"},{"id":"3395717","name":"Mamanguape","latitude":"-6.838610","longitude":"-35.126110","country":"BR"},{"id":"3395880","name":"Major Isidoro","latitude":"-9.532220","longitude":"-36.985001","country":"BR"},{"id":"3395981","name":"Maceio","latitude":"-9.665830","longitude":"-35.735279","country":"BR"},{"id":"3395998","name":"Macau","latitude":"-5.115000","longitude":"-36.634441","country":"BR"},{"id":"3396009","name":"Macaparana","latitude":"-7.554720","longitude":"-35.453060","country":"BR"},{"id":"3396016","name":"Macapa","latitude":"0.038890","longitude":"-51.066391","country":"BR"},{"id":"3396048","name":"Macaiba","latitude":"-5.858330","longitude":"-35.353889","country":"BR"},{"id":"3396101","name":"Luzilandia","latitude":"-3.457780","longitude":"-42.370281","country":"BR"},{"id":"3396121","name":"Luis Correia","latitude":"-2.879170","longitude":"-41.666939","country":"BR"},{"id":"3396266","name":"Limoeiro do Norte","latitude":"-5.145560","longitude":"-38.098061","country":"BR"},{"id":"3396268","name":"Limoeiro do Ajuru","latitude":"-1.895280","longitude":"-49.380562","country":"BR"},{"id":"3396270","name":"Limoeiro de Anadia","latitude":"-9.740560","longitude":"-36.502781","country":"BR"},{"id":"3396277","name":"Limoeiro","latitude":"-7.874720","longitude":"-35.450279","country":"BR"},{"id":"3396364","name":"Lavras da Mangabeira","latitude":"-6.753330","longitude":"-38.964439","country":"BR"},{"id":"3396496","name":"Lajedo","latitude":"-8.663610","longitude":"-36.320000","country":"BR"},{"id":"3396601","name":"Lago da Pedra","latitude":"-4.333330","longitude":"-45.166672","country":"BR"},{"id":"3396620","name":"Lagoa Seca","latitude":"-7.170830","longitude":"-35.853611","country":"BR"},{"id":"3396662","name":"Lagoa Nova","latitude":"-6.100000","longitude":"-36.483330","country":"BR"},{"id":"3396769","name":"Lagoa do Itaenga","latitude":"-7.936110","longitude":"-35.290279","country":"BR"},{"id":"3396877","name":"Lagoa da Canoa","latitude":"-9.829720","longitude":"-36.737782","country":"BR"},{"id":"3396979","name":"Juruti","latitude":"-2.152220","longitude":"-56.092220","country":"BR"},{"id":"3397003","name":"Juru","latitude":"-7.536940","longitude":"-37.818611","country":"BR"},{"id":"3397008","name":"Juripiranga","latitude":"-7.373330","longitude":"-35.238060","country":"BR"},{"id":"3397063","name":"Junqueiro","latitude":"-9.925280","longitude":"-36.475830","country":"BR"},{"id":"3397068","name":"Jundia","latitude":"-8.934720","longitude":"-35.573608","country":"BR"},{"id":"3397108","name":"Jucurutu","latitude":"-6.033890","longitude":"-37.020279","country":"BR"},{"id":"3397119","name":"Jucas","latitude":"-6.525280","longitude":"-39.527500","country":"BR"},{"id":"3397147","name":"Juazeiro do Norte","latitude":"-7.213060","longitude":"-39.315281","country":"BR"},{"id":"3397175","name":"Juazeirinho","latitude":"-6.816670","longitude":"-38.049999","country":"BR"},{"id":"3397230","name":"Jose de Freitas","latitude":"-4.756390","longitude":"-42.575562","country":"BR"},{"id":"3397262","name":"Joaquim Nabuco","latitude":"-8.624440","longitude":"-35.533329","country":"BR"},{"id":"3397277","name":"Joao Pessoa","latitude":"-7.115000","longitude":"-34.863060","country":"BR"},{"id":"3397315","name":"Joao Camara","latitude":"-5.537500","longitude":"-35.819721","country":"BR"},{"id":"3397319","name":"Joao Alfredo","latitude":"-7.855830","longitude":"-35.588329","country":"BR"},{"id":"3397337","name":"Girau do Ponciano","latitude":"-9.884170","longitude":"-36.828892","country":"BR"},{"id":"3397560","name":"Jardim do Serido","latitude":"-6.584440","longitude":"-36.774441","country":"BR"},{"id":"3397562","name":"Jardim de Piranhas","latitude":"-6.378610","longitude":"-37.351940","country":"BR"},{"id":"3397590","name":"Jardim","latitude":"-3.464440","longitude":"-39.056671","country":"BR"},{"id":"3397660","name":"Jaicos","latitude":"-7.359170","longitude":"-41.137779","country":"BR"},{"id":"3397665","name":"Jaguaruana","latitude":"-4.833890","longitude":"-37.781109","country":"BR"},{"id":"3397675","name":"Jaguaribe","latitude":"-5.890560","longitude":"-38.621941","country":"BR"},{"id":"3397800","name":"Jacarau","latitude":"-6.612220","longitude":"-35.292782","country":"BR"},{"id":"3397838","name":"Jaboatao","latitude":"-8.180280","longitude":"-35.001389","country":"BR"},{"id":"3397851","name":"Itupiranga","latitude":"-5.134720","longitude":"-49.326672","country":"BR"},{"id":"3397865","name":"Itaueira","latitude":"-7.603330","longitude":"-43.025558","country":"BR"},{"id":"3397875","name":"Itatuba","latitude":"-7.375000","longitude":"-35.628330","country":"BR"},{"id":"3397886","name":"Itaquitinga","latitude":"-7.667780","longitude":"-35.101669","country":"BR"},{"id":"3397893","name":"Itacoatiara","latitude":"-3.143060","longitude":"-58.444172","country":"BR"},{"id":"3397898","name":"Itaporanga","latitude":"-7.304440","longitude":"-38.150280","country":"BR"},{"id":"3397904","name":"Itapissuma","latitude":"-7.776390","longitude":"-34.892220","country":"BR"},{"id":"3397909","name":"Itapipoca","latitude":"-3.494440","longitude":"-39.578609","country":"BR"},{"id":"3397936","name":"Itapecuru Mirim","latitude":"-3.392500","longitude":"-44.358608","country":"BR"},{"id":"3397941","name":"Itapage","latitude":"-3.686670","longitude":"-39.586109","country":"BR"},{"id":"3397963","name":"Itamaraca","latitude":"-7.747780","longitude":"-34.825562","country":"BR"},{"id":"3397967","name":"Itaituba","latitude":"-4.276110","longitude":"-55.983608","country":"BR"},{"id":"3397969","name":"Itaitinga","latitude":"-3.969440","longitude":"-38.528061","country":"BR"},{"id":"3397976","name":"Itainopolis","latitude":"-7.446940","longitude":"-41.478329","country":"BR"},{"id":"3397983","name":"Itaiba","latitude":"-8.947500","longitude":"-37.422779","country":"BR"},{"id":"3398003","name":"Itabaiana","latitude":"-7.328610","longitude":"-35.332500","country":"BR"},{"id":"3398014","name":"Irituia","latitude":"-1.771110","longitude":"-47.438061","country":"BR"},{"id":"3398028","name":"Iraucuba","latitude":"-3.746110","longitude":"-39.783329","country":"BR"},{"id":"3398076","name":"Ipueiras","latitude":"-7.033330","longitude":"-40.450001","country":"BR"},{"id":"3398105","name":"Ipubi","latitude":"-7.651940","longitude":"-40.148891","country":"BR"},{"id":"3398112","name":"Ipu","latitude":"-4.322220","longitude":"-40.710831","country":"BR"},{"id":"3398115","name":"Ipojuca","latitude":"-8.398890","longitude":"-35.063889","country":"BR"},{"id":"3398145","name":"Ipanguacu","latitude":"-5.498330","longitude":"-36.855000","country":"BR"},{"id":"3398178","name":"Inhuma","latitude":"-6.668330","longitude":"-41.707779","country":"BR"},{"id":"3398192","name":"Inhapi","latitude":"-9.221390","longitude":"-37.748611","country":"BR"},{"id":"3398224","name":"Inga","latitude":"-7.280830","longitude":"-35.604439","country":"BR"},{"id":"3398255","name":"Independencia","latitude":"-5.396390","longitude":"-40.308609","country":"BR"},{"id":"3398269","name":"Imperatriz","latitude":"-5.526390","longitude":"-47.491669","country":"BR"},{"id":"3398299","name":"Imaculada","latitude":"-7.389720","longitude":"-37.509171","country":"BR"},{"id":"3398331","name":"Iguatu","latitude":"-6.359440","longitude":"-39.298611","country":"BR"},{"id":"3398343","name":"Igarape Miri","latitude":"-1.975000","longitude":"-48.959721","country":"BR"},{"id":"3398350","name":"Igarape Acu","latitude":"-1.128890","longitude":"-47.619999","country":"BR"},{"id":"3398352","name":"Igarassu","latitude":"-7.834170","longitude":"-34.906391","country":"BR"},{"id":"3398355","name":"Igaci","latitude":"-9.536940","longitude":"-36.633610","country":"BR"},{"id":"3398379","name":"Ico","latitude":"-6.401110","longitude":"-38.862221","country":"BR"},{"id":"3398381","name":"Icatu","latitude":"-2.775830","longitude":"-44.065830","country":"BR"},{"id":"3398401","name":"Ibimirim","latitude":"-8.540560","longitude":"-37.690281","country":"BR"},{"id":"3398408","name":"Ibiapina","latitude":"-3.923330","longitude":"-40.889439","country":"BR"},{"id":"3398412","name":"Ibateguara","latitude":"-8.972500","longitude":"-35.939442","country":"BR"},{"id":"3398428","name":"Humberto de Campos","latitude":"-2.598330","longitude":"-43.461109","country":"BR"},{"id":"3398450","name":"Horizonte","latitude":"-4.100000","longitude":"-38.483330","country":"BR"},{"id":"3398457","name":"Hidrolandia","latitude":"-4.408060","longitude":"-40.437778","country":"BR"},{"id":"3398480","name":"Gurupa","latitude":"-1.405000","longitude":"-51.639999","country":"BR"},{"id":"3398485","name":"Gurinhem","latitude":"-7.123890","longitude":"-35.424438","country":"BR"},{"id":"3398569","name":"Guaraciaba do Norte","latitude":"-4.166940","longitude":"-40.747501","country":"BR"},{"id":"3398570","name":"Guarabira","latitude":"-6.854720","longitude":"-35.490002","country":"BR"},{"id":"3398612","name":"Guajara","latitude":"-2.966670","longitude":"-57.666672","country":"BR"},{"id":"3398614","name":"Guaiuba","latitude":"-4.039720","longitude":"-38.637218","country":"BR"},{"id":"3398622","name":"Guabiraba","latitude":"-8.416670","longitude":"-35.666672","country":"BR"},{"id":"3398691","name":"Gravata","latitude":"-8.201110","longitude":"-35.564720","country":"BR"},{"id":"3398706","name":"Granja","latitude":"-3.120280","longitude":"-40.826111","country":"BR"},{"id":"3398856","name":"Grajau","latitude":"-5.819440","longitude":"-46.138611","country":"BR"},{"id":"3398871","name":"Governador Dix Sept Rosado","latitude":"-5.458890","longitude":"-37.520828","country":"BR"},{"id":"3398902","name":"Goianinha","latitude":"-6.264720","longitude":"-35.212502","country":"BR"},{"id":"3398904","name":"Goiana","latitude":"-7.560560","longitude":"-35.002499","country":"BR"},{"id":"3398920","name":"Gloria do Goita","latitude":"-8.001670","longitude":"-35.292782","country":"BR"},{"id":"3398931","name":"Gilbues","latitude":"-9.831670","longitude":"-45.343891","country":"BR"},{"id":"3399051","name":"Gararu","latitude":"-9.967500","longitude":"-37.083328","country":"BR"},{"id":"3399058","name":"Garanhuns","latitude":"-8.890280","longitude":"-36.492779","country":"BR"},{"id":"3399132","name":"Gameleira","latitude":"-8.584440","longitude":"-35.386669","country":"BR"},{"id":"3399377","name":"Fortuna","latitude":"-5.733330","longitude":"-44.158329","country":"BR"},{"id":"3399415","name":"Fortaleza","latitude":"-3.717220","longitude":"-38.543060","country":"BR"},{"id":"3399445","name":"Forquilha","latitude":"-3.798330","longitude":"-40.260559","country":"BR"},{"id":"3399506","name":"Floriano","latitude":"-6.766940","longitude":"-43.022499","country":"BR"},{"id":"3399518","name":"Floresta","latitude":"-8.601110","longitude":"-38.568611","country":"BR"},{"id":"3399539","name":"Flores","latitude":"-7.868060","longitude":"-37.974720","country":"BR"},{"id":"3399571","name":"Flexeiras","latitude":"-9.197500","longitude":"-35.780830","country":"BR"},{"id":"3399679","name":"Feira Nova","latitude":"-7.950830","longitude":"-35.389172","country":"BR"},{"id":"3400497","name":"Farias Brito","latitude":"-6.930560","longitude":"-39.565559","country":"BR"},{"id":"3400515","name":"Fagundes","latitude":"-7.355000","longitude":"-35.775002","country":"BR"},{"id":"3400541","name":"Exu","latitude":"-7.511940","longitude":"-39.724171","country":"BR"},{"id":"3400558","name":"Eusebio","latitude":"-3.890000","longitude":"-38.450562","country":"BR"},{"id":"3400567","name":"Extremoz","latitude":"-5.705560","longitude":"-35.307220","country":"BR"},{"id":"3400617","name":"Estreito","latitude":"-5.783330","longitude":"-43.250000","country":"BR"},{"id":"3400739","name":"Esperantinopolis","latitude":"-4.866670","longitude":"-44.708328","country":"BR"},{"id":"3400740","name":"Esperantina","latitude":"-3.901670","longitude":"-42.233608","country":"BR"},{"id":"3400752","name":"Esperanca","latitude":"-7.033060","longitude":"-35.857220","country":"BR"},{"id":"3400804","name":"Escada","latitude":"-8.359170","longitude":"-35.223610","country":"BR"},{"id":"3400920","name":"Elesbao Veloso","latitude":"-6.201940","longitude":"-42.140282","country":"BR"},{"id":"3400963","name":"Dona Ines","latitude":"-6.616670","longitude":"-35.633331","country":"BR"},{"id":"3400969","name":"Dom Pedro","latitude":"-4.483330","longitude":"-44.450001","country":"BR"},{"id":"3400989","name":"Dois Riachos","latitude":"-9.392500","longitude":"-37.100559","country":"BR"},{"id":"3401060","name":"Desterro","latitude":"-7.290560","longitude":"-37.093891","country":"BR"},{"id":"3401106","name":"Demerval Lobao","latitude":"-5.358330","longitude":"-42.676392","country":"BR"},{"id":"3401109","name":"Delmiro Gouveia","latitude":"-9.388610","longitude":"-37.999168","country":"BR"},{"id":"3401138","name":"Custodia","latitude":"-8.087500","longitude":"-37.643059","country":"BR"},{"id":"3401148","name":"Cururupu","latitude":"-1.828330","longitude":"-44.868328","country":"BR"},{"id":"3401188","name":"Curuca","latitude":"-0.728890","longitude":"-47.848061","country":"BR"},{"id":"3401283","name":"Currais Novos","latitude":"-6.260830","longitude":"-36.517780","country":"BR"},{"id":"3401331","name":"Curaca","latitude":"-8.990280","longitude":"-39.909439","country":"BR"},{"id":"3401340","name":"Cupira","latitude":"-8.616670","longitude":"-35.950001","country":"BR"},{"id":"3401404","name":"Cumaru","latitude":"-8.006110","longitude":"-35.697220","country":"BR"},{"id":"3401419","name":"Cuite","latitude":"-6.483610","longitude":"-36.153610","country":"BR"},{"id":"3401457","name":"Cruz do Espirito Santo","latitude":"-7.140000","longitude":"-35.086391","country":"BR"},{"id":"3401487","name":"Cruz","latitude":"-2.917780","longitude":"-40.171669","country":"BR"},{"id":"3401545","name":"Crato","latitude":"-7.234170","longitude":"-39.409439","country":"BR"},{"id":"3401548","name":"Crateus","latitude":"-5.178330","longitude":"-40.677502","country":"BR"},{"id":"3401703","name":"Coroata","latitude":"-4.130000","longitude":"-44.124168","country":"BR"},{"id":"3401725","name":"Coremas","latitude":"-7.014440","longitude":"-37.945831","country":"BR"},{"id":"3401729","name":"Coreau","latitude":"-3.533330","longitude":"-40.656670","country":"BR"},{"id":"3401830","name":"Condado","latitude":"-7.585830","longitude":"-35.105831","country":"BR"},{"id":"3401845","name":"Conceicao do Araguaia","latitude":"-8.257780","longitude":"-49.264721","country":"BR"},{"id":"3401944","name":"Colonia Leopoldina","latitude":"-8.908890","longitude":"-35.724998","country":"BR"},{"id":"3401963","name":"Colinas","latitude":"-6.025830","longitude":"-44.249168","country":"BR"},{"id":"3401980","name":"Coite do Noia","latitude":"-9.632220","longitude":"-36.578609","country":"BR"},{"id":"3401992","name":"Coelho Neto","latitude":"-4.256670","longitude":"-43.012779","country":"BR"},{"id":"3402000","name":"Codo","latitude":"-4.455280","longitude":"-43.885559","country":"BR"},{"id":"3402050","name":"Cocal","latitude":"-3.471940","longitude":"-41.557499","country":"BR"},{"id":"3402164","name":"Chorozinho","latitude":"-4.300280","longitude":"-38.497780","country":"BR"},{"id":"3402229","name":"Chapadinha","latitude":"-3.741670","longitude":"-43.360279","country":"BR"},{"id":"3402271","name":"Cha Grande","latitude":"-8.238330","longitude":"-35.461670","country":"BR"},{"id":"3402284","name":"Cerro Cora","latitude":"-6.045560","longitude":"-36.345829","country":"BR"},{"id":"3402340","name":"Cedro","latitude":"-6.606670","longitude":"-39.062222","country":"BR"},{"id":"3402360","name":"Ceara Mirim","latitude":"-5.634440","longitude":"-35.425560","country":"BR"},{"id":"3402429","name":"Caucaia","latitude":"-3.736110","longitude":"-38.653061","country":"BR"},{"id":"3402465","name":"Catole do Rocha","latitude":"-6.343890","longitude":"-37.746670","country":"BR"},{"id":"3402528","name":"Catende","latitude":"-8.666670","longitude":"-35.716671","country":"BR"},{"id":"3402548","name":"Castelo do Piaui","latitude":"-5.322220","longitude":"-41.552502","country":"BR"},{"id":"3402591","name":"Castanhal","latitude":"-1.293890","longitude":"-47.926392","country":"BR"},{"id":"3402613","name":"Cascavel","latitude":"-4.133060","longitude":"-38.241940","country":"BR"},{"id":"3402648","name":"Carutapera","latitude":"-1.195000","longitude":"-46.020000","country":"BR"},{"id":"3402655","name":"Caruaru","latitude":"-8.283330","longitude":"-35.976109","country":"BR"},{"id":"3402721","name":"Carpina","latitude":"-7.850830","longitude":"-35.254719","country":"BR"},{"id":"3402724","name":"Carolina","latitude":"-7.332780","longitude":"-47.469440","country":"BR"},{"id":"3402848","name":"Carnaiba","latitude":"-8.700000","longitude":"-37.666672","country":"BR"},{"id":"3402882","name":"Caririacu","latitude":"-7.042220","longitude":"-39.283611","country":"BR"},{"id":"3402893","name":"Carire","latitude":"-3.950560","longitude":"-40.473331","country":"BR"},{"id":"3402920","name":"Careiro da Varzea","latitude":"-3.200280","longitude":"-59.811939","country":"BR"},{"id":"3402944","name":"Caraubas","latitude":"-5.792500","longitude":"-37.556671","country":"BR"},{"id":"3403082","name":"Capoeiras","latitude":"-8.734720","longitude":"-36.626671","country":"BR"},{"id":"3403127","name":"Capitao Poco","latitude":"-1.746390","longitude":"-47.059441","country":"BR"},{"id":"3403200","name":"Capela","latitude":"-9.407500","longitude":"-36.073608","country":"BR"},{"id":"3403208","name":"Capanema","latitude":"-1.195830","longitude":"-47.180828","country":"BR"},{"id":"3403251","name":"Canto do Buriti","latitude":"-8.110000","longitude":"-42.944439","country":"BR"},{"id":"3403309","name":"Cantanhede","latitude":"-3.633330","longitude":"-44.376671","country":"BR"},{"id":"3403344","name":"Caninde de Sao Francisco","latitude":"-9.660000","longitude":"-37.789440","country":"BR"},{"id":"3403353","name":"Caninde","latitude":"-4.358890","longitude":"-39.311668","country":"BR"},{"id":"3403360","name":"Canhotinho","latitude":"-8.882220","longitude":"-36.191109","country":"BR"},{"id":"3403362","name":"Canguaretama","latitude":"-6.380000","longitude":"-35.128891","country":"BR"},{"id":"3403395","name":"Candido Mendes","latitude":"-1.446670","longitude":"-45.716671","country":"BR"},{"id":"3403534","name":"Campos Sales","latitude":"-7.074440","longitude":"-40.376110","country":"BR"},{"id":"3403566","name":"Campo Maior","latitude":"-4.827780","longitude":"-42.168610","country":"BR"},{"id":"3403611","name":"Campo Alegre","latitude":"-9.781940","longitude":"-36.350830","country":"BR"},{"id":"3403642","name":"Campina Grande","latitude":"-7.230560","longitude":"-35.881111","country":"BR"},{"id":"3403685","name":"Camocim de Sao Felix","latitude":"-8.358610","longitude":"-35.761940","country":"BR"},{"id":"3403687","name":"Camocim","latitude":"-2.902220","longitude":"-40.841110","country":"BR"},{"id":"3403697","name":"Cameta","latitude":"-2.244440","longitude":"-49.495831","country":"BR"},{"id":"3403941","name":"Cajueiro","latitude":"-9.716670","longitude":"-36.450001","country":"BR"},{"id":"3404020","name":"Cajazeiras","latitude":"-6.890280","longitude":"-38.555279","country":"BR"},{"id":"3404117","name":"Caico","latitude":"-6.458330","longitude":"-37.097778","country":"BR"},{"id":"3404231","name":"Caetes","latitude":"-8.773060","longitude":"-36.622501","country":"BR"},{"id":"3404257","name":"Cacimbinhas","latitude":"-9.400280","longitude":"-36.990280","country":"BR"},{"id":"3404306","name":"Cacimba de Dentro","latitude":"-6.641670","longitude":"-35.790001","country":"BR"},{"id":"3404355","name":"Cachoeirinha","latitude":"-8.486390","longitude":"-36.233059","country":"BR"},{"id":"3404513","name":"Cabrobo","latitude":"-8.514170","longitude":"-39.310001","country":"BR"},{"id":"3404545","name":"Cabo","latitude":"-8.283330","longitude":"-35.033329","country":"BR"},{"id":"3404558","name":"Cabedelo","latitude":"-6.981110","longitude":"-34.833889","country":"BR"},{"id":"3404656","name":"Caapora","latitude":"-7.515560","longitude":"-34.908329","country":"BR"},{"id":"3404713","name":"Buriti dos Lopes","latitude":"-3.175000","longitude":"-41.866940","country":"BR"},{"id":"3404722","name":"Buriti Bravo","latitude":"-5.837220","longitude":"-43.833611","country":"BR"},{"id":"3404760","name":"Bujaru","latitude":"-1.515000","longitude":"-48.044720","country":"BR"},{"id":"3404766","name":"Buique","latitude":"-8.623060","longitude":"-37.155830","country":"BR"},{"id":"3404817","name":"Breves","latitude":"-1.682220","longitude":"-50.480282","country":"BR"},{"id":"3404833","name":"Brejo Santo","latitude":"-7.493330","longitude":"-38.987221","country":"BR"},{"id":"3404862","name":"Brejo da Madre de Deus","latitude":"-8.145830","longitude":"-36.371109","country":"BR"},{"id":"3404889","name":"Brejo","latitude":"-3.684440","longitude":"-42.750278","country":"BR"},{"id":"3404924","name":"Brejinho","latitude":"-6.190830","longitude":"-35.356670","country":"BR"},{"id":"3405006","name":"Braganca","latitude":"-1.053610","longitude":"-46.765560","country":"BR"},{"id":"3405051","name":"Borba","latitude":"-4.387780","longitude":"-59.593891","country":"BR"},{"id":"3405061","name":"Boqueirao (1)","latitude":"-7.500000","longitude":"-36.133331","country":"BR"},{"id":"3405172","name":"Bonito","latitude":"-8.470280","longitude":"-35.728611","country":"BR"},{"id":"3405304","name":"Bom Jesus","latitude":"-9.074440","longitude":"-44.358608","country":"BR"},{"id":"3405339","name":"Bom Jardim","latitude":"-7.795830","longitude":"-35.587219","country":"BR"},{"id":"3405341","name":"Bom Jardim","latitude":"-7.016670","longitude":"-46.483330","country":"BR"},{"id":"3405380","name":"Bom Conselho","latitude":"-9.169720","longitude":"-36.679722","country":"BR"},{"id":"3405616","name":"Boa Viagem","latitude":"-5.127500","longitude":"-39.732220","country":"BR"},{"id":"3405738","name":"Bezerros","latitude":"-8.233330","longitude":"-35.796940","country":"BR"},{"id":"3405778","name":"Bequimao","latitude":"-2.448890","longitude":"-44.782501","country":"BR"},{"id":"3405792","name":"Benevides","latitude":"-1.361390","longitude":"-48.244720","country":"BR"},{"id":"3405796","name":"Beneditinos","latitude":"-5.450000","longitude":"-42.366669","country":"BR"},{"id":"3405812","name":"Belo Jardim","latitude":"-8.335560","longitude":"-36.424171","country":"BR"},{"id":"3405851","name":"Belem do Brejo do Cruz","latitude":"-6.188610","longitude":"-37.535831","country":"BR"},{"id":"3405852","name":"Belem de Sao Francisco","latitude":"-8.753890","longitude":"-38.965832","country":"BR"},{"id":"3405863","name":"Belem","latitude":"-6.691670","longitude":"-35.533329","country":"BR"},{"id":"3405870","name":"Belem","latitude":"-1.455830","longitude":"-48.504440","country":"BR"},{"id":"3405908","name":"Bela Cruz","latitude":"-3.050560","longitude":"-40.167782","country":"BR"},{"id":"3405924","name":"Beberibe","latitude":"-4.179720","longitude":"-38.130562","country":"BR"},{"id":"3405940","name":"Bayeux","latitude":"-7.125000","longitude":"-34.932220","country":"BR"},{"id":"3405954","name":"Baturite","latitude":"-4.328610","longitude":"-38.884720","country":"BR"},{"id":"3405993","name":"Batalha","latitude":"-9.677780","longitude":"-37.124722","country":"BR"},{"id":"3406001","name":"Batalha","latitude":"-4.025000","longitude":"-42.075001","country":"BR"},{"id":"3406041","name":"Barroquinha","latitude":"-3.018890","longitude":"-41.136108","country":"BR"},{"id":"3406088","name":"Barro","latitude":"-6.716670","longitude":"-38.866669","country":"BR"},{"id":"3406160","name":"Barreiros","latitude":"-8.818330","longitude":"-35.186390","country":"BR"},{"id":"3406196","name":"Barreirinhas","latitude":"-2.746940","longitude":"-42.826389","country":"BR"},{"id":"3406202","name":"Barreirinha","latitude":"-2.793330","longitude":"-57.070000","country":"BR"},{"id":"3406263","name":"Barras","latitude":"-4.244440","longitude":"-42.294441","country":"BR"},{"id":"3406318","name":"Barra do Corda","latitude":"-5.500000","longitude":"-45.250000","country":"BR"},{"id":"3406333","name":"Barra de Santo Antonio","latitude":"-9.404720","longitude":"-35.507221","country":"BR"},{"id":"3406429","name":"Barcarena","latitude":"-1.505830","longitude":"-48.625832","country":"BR"},{"id":"3406442","name":"Barbalha","latitude":"-7.311110","longitude":"-39.304169","country":"BR"},{"id":"3406457","name":"Barauna","latitude":"-5.080000","longitude":"-37.616669","country":"BR"},{"id":"3406503","name":"Bananeiras","latitude":"-6.750000","longitude":"-35.633331","country":"BR"},{"id":"3406545","name":"Balsas","latitude":"-7.532500","longitude":"-46.035561","country":"BR"},{"id":"3406844","name":"Baiao","latitude":"-2.790560","longitude":"-49.671669","country":"BR"},{"id":"3406910","name":"Bacabal","latitude":"-4.291670","longitude":"-44.791672","country":"BR"},{"id":"3406948","name":"Autazes","latitude":"-3.579720","longitude":"-59.130562","country":"BR"},{"id":"3406954","name":"Aurora","latitude":"-6.942500","longitude":"-38.967499","country":"BR"},{"id":"3406961","name":"Augusto Correa","latitude":"-1.021670","longitude":"-46.634998","country":"BR"},{"id":"3406996","name":"Atalaia","latitude":"-9.501940","longitude":"-36.022781","country":"BR"},{"id":"3407010","name":"Assare","latitude":"-6.874440","longitude":"-39.875000","country":"BR"},{"id":"3407091","name":"Aroeiras","latitude":"-7.545280","longitude":"-35.707500","country":"BR"},{"id":"3407151","name":"Ares","latitude":"-6.194440","longitude":"-35.160278","country":"BR"},{"id":"3407194","name":"Areia Branca","latitude":"-4.956110","longitude":"-37.136940","country":"BR"},{"id":"3407210","name":"Areia","latitude":"-6.963330","longitude":"-35.691669","country":"BR"},{"id":"3407216","name":"Arcoverde","latitude":"-8.418890","longitude":"-37.053890","country":"BR"},{"id":"3407239","name":"Araruna","latitude":"-6.558330","longitude":"-35.741669","country":"BR"},{"id":"3407243","name":"Araripina","latitude":"-7.576110","longitude":"-40.498329","country":"BR"},{"id":"3407248","name":"Araripe","latitude":"-7.212500","longitude":"-40.046108","country":"BR"},{"id":"3407258","name":"Arari","latitude":"-3.453610","longitude":"-44.779999","country":"BR"},{"id":"3407297","name":"Arara","latitude":"-6.828330","longitude":"-35.758331","country":"BR"},{"id":"3407327","name":"Arapiraca","latitude":"-9.752500","longitude":"-36.661110","country":"BR"},{"id":"3407351","name":"Araioses","latitude":"-2.890000","longitude":"-41.903061","country":"BR"},{"id":"3407357","name":"Araguaina","latitude":"-7.191110","longitude":"-48.207218","country":"BR"},{"id":"3407366","name":"Aracoiaba","latitude":"-7.790280","longitude":"-35.090832","country":"BR"},{"id":"3407367","name":"Aracoiaba","latitude":"-4.371110","longitude":"-38.814171","country":"BR"},{"id":"3407378","name":"Aracati","latitude":"-4.561670","longitude":"-37.769718","country":"BR"},{"id":"3407407","name":"Aquiraz","latitude":"-3.901390","longitude":"-38.391109","country":"BR"},{"id":"3407440","name":"Apodi","latitude":"-5.664170","longitude":"-37.798889","country":"BR"},{"id":"3407544","name":"Angicos","latitude":"-5.665560","longitude":"-36.601109","country":"BR"},{"id":"3407669","name":"Ananindeua","latitude":"-1.365560","longitude":"-48.372219","country":"BR"},{"id":"3407682","name":"Anajatuba","latitude":"-3.264440","longitude":"-44.619720","country":"BR"},{"id":"3407693","name":"Anadia","latitude":"-9.684440","longitude":"-36.304169","country":"BR"},{"id":"3407703","name":"Amontada","latitude":"-3.361670","longitude":"-39.831669","country":"BR"},{"id":"3407755","name":"Amarante do Maranhao","latitude":"-5.566670","longitude":"-46.742222","country":"BR"},{"id":"3407756","name":"Amarante","latitude":"-6.241110","longitude":"-42.854721","country":"BR"},{"id":"3407758","name":"Amaraji","latitude":"-8.383060","longitude":"-35.452499","country":"BR"},{"id":"3407797","name":"Altos","latitude":"-5.038060","longitude":"-42.459999","country":"BR"},{"id":"3407805","name":"Alto Longa","latitude":"-5.251110","longitude":"-42.210281","country":"BR"},{"id":"3407871","name":"Altinho","latitude":"-8.489720","longitude":"-36.059441","country":"BR"},{"id":"3407882","name":"Altamira","latitude":"-3.203330","longitude":"-52.206390","country":"BR"},{"id":"3407903","name":"Almeirim","latitude":"-1.523330","longitude":"-52.581669","country":"BR"},{"id":"3407940","name":"Alhandra","latitude":"-7.438610","longitude":"-34.914440","country":"BR"},{"id":"3407977","name":"Alexandria","latitude":"-6.412500","longitude":"-38.015831","country":"BR"},{"id":"3407980","name":"Alenquer","latitude":"-1.941670","longitude":"-54.738331","country":"BR"},{"id":"3408073","name":"Alcantara","latitude":"-2.408890","longitude":"-44.414719","country":"BR"},{"id":"3408094","name":"Alagoinha","latitude":"-6.950000","longitude":"-35.544998","country":"BR"},{"id":"3408097","name":"Alagoa Nova","latitude":"-7.070830","longitude":"-35.758331","country":"BR"},{"id":"3408100","name":"Alagoa Grande","latitude":"-7.158330","longitude":"-35.630001","country":"BR"},{"id":"3408166","name":"Aguas Belas","latitude":"-9.111390","longitude":"-37.123058","country":"BR"},{"id":"3408175","name":"Agua Preta","latitude":"-8.707500","longitude":"-35.530560","country":"BR"},{"id":"3408210","name":"Agua Branca","latitude":"-9.260830","longitude":"-37.936111","country":"BR"},{"id":"3408221","name":"Agua Branca","latitude":"-5.892220","longitude":"-42.636108","country":"BR"},{"id":"3408251","name":"Agrestina","latitude":"-8.458060","longitude":"-35.944721","country":"BR"},{"id":"3408269","name":"Afua","latitude":"-0.156670","longitude":"-50.386669","country":"BR"},{"id":"3408272","name":"Afonso Bezerra","latitude":"-5.498330","longitude":"-36.505562","country":"BR"},{"id":"3408274","name":"Afogados da Ingazeira","latitude":"-7.750830","longitude":"-37.639172","country":"BR"},{"id":"3408337","name":"Acu","latitude":"-5.576670","longitude":"-36.908611","country":"BR"},{"id":"3408343","name":"Acopiara","latitude":"-6.095280","longitude":"-39.452499","country":"BR"},{"id":"3408368","name":"Acarau","latitude":"-2.885560","longitude":"-40.119999","country":"BR"},{"id":"3408386","name":"Acara","latitude":"-1.960830","longitude":"-48.196671","country":"BR"},{"id":"3408404","name":"Abreu e Lima","latitude":"-7.911670","longitude":"-34.902779","country":"BR"},{"id":"3408424","name":"Abaetetuba","latitude":"-1.718060","longitude":"-48.882500","country":"BR"},{"id":"3444823","name":"Xique Xique","latitude":"-10.821670","longitude":"-42.731110","country":"BR"},{"id":"3444843","name":"Chavantes","latitude":"-23.038891","longitude":"-49.709438","country":"BR"},{"id":"3444848","name":"Xanxere","latitude":"-26.876940","longitude":"-52.404171","country":"BR"},{"id":"3444864","name":"Votuporanga","latitude":"-20.422779","longitude":"-49.972778","country":"BR"},{"id":"3444866","name":"Votorantim","latitude":"-23.546671","longitude":"-47.437778","country":"BR"},{"id":"3444876","name":"Volta Redonda","latitude":"-22.523060","longitude":"-44.104172","country":"BR"},{"id":"3444914","name":"Vitoria da Conquista","latitude":"-14.866110","longitude":"-40.839439","country":"BR"},{"id":"3444924","name":"Vitoria","latitude":"-20.319441","longitude":"-40.337780","country":"BR"},{"id":"3444969","name":"Visconde do Rio Branco","latitude":"-21.010281","longitude":"-42.840561","country":"BR"},{"id":"3444997","name":"Viradouro","latitude":"-20.873060","longitude":"-48.296940","country":"BR"},{"id":"3445014","name":"Vinhedo","latitude":"-23.029720","longitude":"-46.975281","country":"BR"},{"id":"3445026","name":"Vila Velha","latitude":"-20.329720","longitude":"-40.292500","country":"BR"},{"id":"3445126","name":"Videira","latitude":"-27.008329","longitude":"-51.151669","country":"BR"},{"id":"3445133","name":"Vicosa","latitude":"-20.753889","longitude":"-42.881939","country":"BR"},{"id":"3445148","name":"Vianopolis","latitude":"-16.741940","longitude":"-48.516392","country":"BR"},{"id":"3445153","name":"Viana","latitude":"-20.390280","longitude":"-40.496109","country":"BR"},{"id":"3445156","name":"Viamao","latitude":"-30.081110","longitude":"-51.023331","country":"BR"},{"id":"3445162","name":"Vespasiano","latitude":"-19.691940","longitude":"-43.923328","country":"BR"},{"id":"3445299","name":"Veranopolis","latitude":"-28.936110","longitude":"-51.549438","country":"BR"},{"id":"3445307","name":"Vera Cruz","latitude":"-12.633330","longitude":"-41.033329","country":"BR"},{"id":"3445348","name":"Wenceslau Braz","latitude":"-23.873890","longitude":"-49.802780","country":"BR"},{"id":"3445350","name":"Venancio Aires","latitude":"-29.606390","longitude":"-52.191940","country":"BR"},{"id":"3445418","name":"Vazante","latitude":"-17.986940","longitude":"-46.907780","country":"BR"},{"id":"3445433","name":"Vassouras","latitude":"-22.403891","longitude":"-43.662498","country":"BR"},{"id":"3445442","name":"Varzelandia","latitude":"-15.701390","longitude":"-44.027500","country":"BR"},{"id":"3445446","name":"Varzea Paulista","latitude":"-23.211390","longitude":"-46.828331","country":"BR"},{"id":"3445451","name":"Varzea Grande","latitude":"-15.646670","longitude":"-56.132500","country":"BR"},{"id":"3445459","name":"Varzea da Palma","latitude":"-17.598061","longitude":"-44.730831","country":"BR"},{"id":"3445487","name":"Varginha","latitude":"-21.551390","longitude":"-45.430279","country":"BR"},{"id":"3445500","name":"Vargem Grande do Sul","latitude":"-21.832220","longitude":"-46.893608","country":"BR"},{"id":"3445534","name":"Vargem Alta","latitude":"-20.671391","longitude":"-41.006939","country":"BR"},{"id":"3445575","name":"Valparaiso","latitude":"-21.227779","longitude":"-50.868328","country":"BR"},{"id":"3445578","name":"Valinhos","latitude":"-22.970560","longitude":"-46.995831","country":"BR"},{"id":"3445594","name":"Valente","latitude":"-11.412220","longitude":"-39.461941","country":"BR"},{"id":"3445596","name":"Valenca","latitude":"-22.245560","longitude":"-43.700279","country":"BR"},{"id":"3445597","name":"Valenca","latitude":"-13.370280","longitude":"-39.073059","country":"BR"},{"id":"3445630","name":"Vacaria","latitude":"-28.512220","longitude":"-50.933891","country":"BR"},{"id":"3445667","name":"Urussanga","latitude":"-28.517780","longitude":"-49.320831","country":"BR"},{"id":"3445675","name":"Urupes","latitude":"-21.201670","longitude":"-49.290001","country":"BR"},{"id":"3445679","name":"Uruguaiana","latitude":"-29.754721","longitude":"-57.088329","country":"BR"},{"id":"3445690","name":"Urucuca","latitude":"-14.593060","longitude":"-39.284439","country":"BR"},{"id":"3445712","name":"Uruana","latitude":"-15.498060","longitude":"-49.687500","country":"BR"},{"id":"3445713","name":"Uruacu","latitude":"-14.524720","longitude":"-49.140831","country":"BR"},{"id":"3445746","name":"Uniao da Vitoria","latitude":"-26.230000","longitude":"-51.086391","country":"BR"},{"id":"3445764","name":"Unai","latitude":"-16.357500","longitude":"-46.906109","country":"BR"},{"id":"3445781","name":"Una","latitude":"-15.293330","longitude":"-39.075279","country":"BR"},{"id":"3445782","name":"Umuarama","latitude":"-23.766390","longitude":"-53.325001","country":"BR"},{"id":"3445818","name":"Umbauba","latitude":"-11.383330","longitude":"-37.657780","country":"BR"},{"id":"3445831","name":"Uberlandia","latitude":"-18.918610","longitude":"-48.277222","country":"BR"},{"id":"3445839","name":"Uberaba","latitude":"-19.748329","longitude":"-47.931938","country":"BR"},{"id":"3445847","name":"Ubatuba","latitude":"-23.433889","longitude":"-45.071110","country":"BR"},{"id":"3445849","name":"Ubata","latitude":"-14.213890","longitude":"-39.522781","country":"BR"},{"id":"3445853","name":"Ubaitaba","latitude":"-14.312500","longitude":"-39.323330","country":"BR"},{"id":"3445854","name":"Ubaira","latitude":"-13.268060","longitude":"-39.662781","country":"BR"},{"id":"3445859","name":"Uba","latitude":"-21.120001","longitude":"-42.942780","country":"BR"},{"id":"3445912","name":"Turmalina","latitude":"-17.285561","longitude":"-42.730000","country":"BR"},{"id":"3445922","name":"Tupi Paulista","latitude":"-21.381109","longitude":"-51.570560","country":"BR"},{"id":"3445939","name":"Tupancireta","latitude":"-29.080561","longitude":"-53.835831","country":"BR"},{"id":"3445941","name":"Tupaciguara","latitude":"-18.592220","longitude":"-48.705002","country":"BR"},{"id":"3445942","name":"Tupa","latitude":"-21.934719","longitude":"-50.513611","country":"BR"},{"id":"3445983","name":"Tucano","latitude":"-10.963060","longitude":"-38.786671","country":"BR"},{"id":"3445993","name":"Tubarao","latitude":"-28.466669","longitude":"-49.006939","country":"BR"},{"id":"3446019","name":"Triunfo","latitude":"-29.943331","longitude":"-51.718060","country":"BR"},{"id":"3446038","name":"Trindade","latitude":"-16.649441","longitude":"-49.488892","country":"BR"},{"id":"3446065","name":"Tres Rios","latitude":"-22.116671","longitude":"-43.209171","country":"BR"},{"id":"3446077","name":"Tres Pontas","latitude":"-21.366671","longitude":"-45.512501","country":"BR"},{"id":"3446087","name":"Tres Passos","latitude":"-27.455561","longitude":"-53.931938","country":"BR"},{"id":"3446098","name":"Tres Lagoas","latitude":"-20.751110","longitude":"-51.678329","country":"BR"},{"id":"3446130","name":"Tres de Maio","latitude":"-27.773331","longitude":"-54.240002","country":"BR"},{"id":"3446137","name":"Tres Coroas","latitude":"-29.516939","longitude":"-50.777779","country":"BR"},{"id":"3446138","name":"Tres Coracoes","latitude":"-21.696939","longitude":"-45.253330","country":"BR"},{"id":"3446171","name":"Tres Barras","latitude":"-26.106390","longitude":"-50.322220","country":"BR"},{"id":"3446194","name":"Tremembe","latitude":"-22.958330","longitude":"-45.549438","country":"BR"},{"id":"3446198","name":"Tremedal","latitude":"-14.975830","longitude":"-41.410831","country":"BR"},{"id":"3446232","name":"Tramandai","latitude":"-29.984720","longitude":"-50.133610","country":"BR"},{"id":"3446295","name":"Torres","latitude":"-29.335279","longitude":"-49.726940","country":"BR"},{"id":"3446363","name":"Tomar do Geru","latitude":"-11.373330","longitude":"-37.840561","country":"BR"},{"id":"3446370","name":"Toledo","latitude":"-24.713610","longitude":"-53.743061","country":"BR"},{"id":"3446392","name":"Tocantins","latitude":"-21.174999","longitude":"-43.017780","country":"BR"},{"id":"3446400","name":"Tobias Barreto","latitude":"-11.183890","longitude":"-37.998329","country":"BR"},{"id":"3446420","name":"Tiradentes","latitude":"-21.110279","longitude":"-44.178059","country":"BR"},{"id":"3446445","name":"Timoteo","latitude":"-19.582500","longitude":"-42.644440","country":"BR"},{"id":"3446465","name":"Timbo","latitude":"-26.823330","longitude":"-49.271671","country":"BR"},{"id":"3446500","name":"Tijucas","latitude":"-27.241390","longitude":"-48.633610","country":"BR"},{"id":"3446539","name":"Tiete","latitude":"-23.101940","longitude":"-47.714722","country":"BR"},{"id":"3446550","name":"Tibagi","latitude":"-24.509439","longitude":"-50.413609","country":"BR"},{"id":"3446556","name":"Teutonia","latitude":"-29.448059","longitude":"-51.806389","country":"BR"},{"id":"3446579","name":"Terra Roxa","latitude":"-23.855709","longitude":"-50.031399","country":"BR"},{"id":"3446581","name":"Terra Rica","latitude":"-22.709440","longitude":"-52.616940","country":"BR"},{"id":"3446587","name":"Terra Nova","latitude":"-12.366670","longitude":"-40.666672","country":"BR"},{"id":"3446598","name":"Terra Boa","latitude":"-23.768061","longitude":"-52.444172","country":"BR"},{"id":"3446606","name":"Teresopolis","latitude":"-22.412220","longitude":"-42.965561","country":"BR"},{"id":"3446619","name":"Terenos","latitude":"-20.442221","longitude":"-54.860279","country":"BR"},{"id":"3446621","name":"Teofilo Otoni","latitude":"-17.857500","longitude":"-41.505280","country":"BR"},{"id":"3446625","name":"Teodoro Sampaio","latitude":"-22.532499","longitude":"-52.167500","country":"BR"},{"id":"3446652","name":"Telemaco Borba","latitude":"-24.323891","longitude":"-50.615559","country":"BR"},{"id":"3446682","name":"Taubate","latitude":"-23.026390","longitude":"-45.555279","country":"BR"},{"id":"3446692","name":"Tatui","latitude":"-23.355560","longitude":"-47.856941","country":"BR"},{"id":"3446718","name":"Taruma","latitude":"-22.746670","longitude":"-50.577221","country":"BR"},{"id":"3446752","name":"Taquarituba","latitude":"-23.533060","longitude":"-49.244438","country":"BR"},{"id":"3446753","name":"Taquaritinga","latitude":"-21.406111","longitude":"-48.504719","country":"BR"},{"id":"3446783","name":"Taquari","latitude":"-29.799721","longitude":"-51.864441","country":"BR"},{"id":"3446847","name":"Taquara","latitude":"-29.650560","longitude":"-50.780560","country":"BR"},{"id":"3446866","name":"Tapiramuta","latitude":"-11.847220","longitude":"-40.791389","country":"BR"},{"id":"3446880","name":"Tapes","latitude":"-30.673330","longitude":"-51.395828","country":"BR"},{"id":"3446881","name":"Taperoa","latitude":"-13.538060","longitude":"-39.098610","country":"BR"},{"id":"3446922","name":"Tapejara","latitude":"-28.068060","longitude":"-52.013889","country":"BR"},{"id":"3446923","name":"Tapejara","latitude":"-23.733061","longitude":"-52.873329","country":"BR"},{"id":"3446971","name":"Tanhacu","latitude":"-14.021390","longitude":"-41.248058","country":"BR"},{"id":"3446974","name":"Tangua","latitude":"-22.730280","longitude":"-42.714169","country":"BR"},{"id":"3446979","name":"Tanabi","latitude":"-20.626390","longitude":"-49.649170","country":"BR"},{"id":"3447005","name":"Tambau","latitude":"-21.705000","longitude":"-47.274441","country":"BR"},{"id":"3447059","name":"Taiobeiras","latitude":"-15.807780","longitude":"-42.233059","country":"BR"},{"id":"3447075","name":"Taguatinga","latitude":"-12.403890","longitude":"-46.436111","country":"BR"},{"id":"3447186","name":"Taboao da Serra","latitude":"-23.626110","longitude":"-46.791672","country":"BR"},{"id":"3447200","name":"Tabatinga","latitude":"-21.716669","longitude":"-48.687500","country":"BR"},{"id":"3447212","name":"Suzano","latitude":"-23.542500","longitude":"-46.310829","country":"BR"},{"id":"3447259","name":"Sumare","latitude":"-22.821939","longitude":"-47.266941","country":"BR"},{"id":"3447399","name":"Sorocaba","latitude":"-23.501671","longitude":"-47.458061","country":"BR"},{"id":"3447409","name":"Sombrio","latitude":"-29.113890","longitude":"-49.616669","country":"BR"},{"id":"3447423","name":"Soledade","latitude":"-28.818331","longitude":"-52.510281","country":"BR"},{"id":"3447437","name":"Socorro","latitude":"-22.591391","longitude":"-46.528889","country":"BR"},{"id":"3447473","name":"Sobradinho","latitude":"-12.833330","longitude":"-39.099998","country":"BR"},{"id":"3447537","name":"Siqueira Campos","latitude":"-23.688890","longitude":"-49.833889","country":"BR"},{"id":"3447562","name":"Simao Dias","latitude":"-10.738330","longitude":"-37.811111","country":"BR"},{"id":"3447589","name":"Silvania","latitude":"-16.658890","longitude":"-48.608059","country":"BR"},{"id":"3447591","name":"Silva Jardim","latitude":"-22.650829","longitude":"-42.391670","country":"BR"},{"id":"3447597","name":"Sidrolandia","latitude":"-20.931940","longitude":"-54.961391","country":"BR"},{"id":"3447598","name":"Sideropolis","latitude":"-28.597780","longitude":"-49.424438","country":"BR"},{"id":"3447602","name":"Severinia","latitude":"-20.809441","longitude":"-48.802780","country":"BR"},{"id":"3447624","name":"Sete Lagoas","latitude":"-19.465830","longitude":"-44.246670","country":"BR"},{"id":"3447651","name":"Sertaozinho","latitude":"-21.137779","longitude":"-47.990280","country":"BR"},{"id":"3447658","name":"Sertanopolis","latitude":"-23.058611","longitude":"-51.036388","country":"BR"},{"id":"3447690","name":"Serrinha","latitude":"-11.664170","longitude":"-39.007500","country":"BR"},{"id":"3447718","name":"Serra Negra","latitude":"-22.612221","longitude":"-46.700562","country":"BR"},{"id":"3447720","name":"Serrana","latitude":"-21.211390","longitude":"-47.595558","country":"BR"},{"id":"3447779","name":"Serra","latitude":"-20.128611","longitude":"-40.307781","country":"BR"},{"id":"3447785","name":"Seropedica","latitude":"-22.743891","longitude":"-43.707500","country":"BR"},{"id":"3447839","name":"Senhor do Bonfim","latitude":"-10.461390","longitude":"-40.189442","country":"BR"},{"id":"3447848","name":"Senges","latitude":"-24.112780","longitude":"-49.463612","country":"BR"},{"id":"3447854","name":"Senador Canedo","latitude":"-16.708059","longitude":"-49.093060","country":"BR"},{"id":"3447928","name":"Seabra","latitude":"-12.418610","longitude":"-41.770279","country":"BR"},{"id":"3447929","name":"Schroeder","latitude":"-26.412500","longitude":"-49.073059","country":"BR"},{"id":"3447961","name":"Saubara","latitude":"-12.737500","longitude":"-38.768608","country":"BR"},{"id":"3447969","name":"Sarzedo","latitude":"-20.035280","longitude":"-44.144718","country":"BR"},{"id":"3447997","name":"Sarandi","latitude":"-27.943890","longitude":"-52.923061","country":"BR"},{"id":"3447998","name":"Sarandi","latitude":"-23.443609","longitude":"-51.873890","country":"BR"},{"id":"3448011","name":"Saquarema","latitude":"-22.920000","longitude":"-42.510281","country":"BR"},{"id":"3448031","name":"Sapucaia","latitude":"-29.833330","longitude":"-51.150002","country":"BR"},{"id":"3448033","name":"Sapucaia","latitude":"-21.995001","longitude":"-42.914440","country":"BR"},{"id":"3448063","name":"Sapiranga","latitude":"-29.638060","longitude":"-51.006939","country":"BR"},{"id":"3448136","name":"Sao Vicente","latitude":"-23.963060","longitude":"-46.391941","country":"BR"},{"id":"3448197","name":"Sao Simao","latitude":"-21.479170","longitude":"-47.550831","country":"BR"},{"id":"3448207","name":"Sao Sepe","latitude":"-30.160561","longitude":"-53.565281","country":"BR"},{"id":"3448219","name":"Sao Sebastiao do Passe","latitude":"-12.512500","longitude":"-38.495281","country":"BR"},{"id":"3448221","name":"Sao Sebastiao do Paraiso","latitude":"-20.916941","longitude":"-46.991390","country":"BR"},{"id":"3448227","name":"Sao Sebastiao do Cai","latitude":"-29.586670","longitude":"-51.375561","country":"BR"},{"id":"3448257","name":"Sao Sebastiao","latitude":"-23.760000","longitude":"-45.409721","country":"BR"},{"id":"3448300","name":"Sao Roque","latitude":"-23.529169","longitude":"-47.135281","country":"BR"},{"id":"3448332","name":"Sao Pedro do Sul","latitude":"-29.620560","longitude":"-54.178890","country":"BR"},{"id":"3448351","name":"Sao Pedro da Aldeia","latitude":"-22.839170","longitude":"-42.102779","country":"BR"},{"id":"3448403","name":"Sao Pedro","latitude":"-22.548611","longitude":"-47.913891","country":"BR"},{"id":"3448439","name":"Sao Paulo","latitude":"-23.547501","longitude":"-46.636108","country":"BR"},{"id":"3448453","name":"Sao Miguel do Iguacu","latitude":"-25.348061","longitude":"-54.237782","country":"BR"},{"id":"3448455","name":"Sao Miguel do Araguaia","latitude":"-13.275000","longitude":"-50.162781","country":"BR"},{"id":"3448502","name":"Sao Mateus do Sul","latitude":"-25.874170","longitude":"-50.382778","country":"BR"},{"id":"3448519","name":"Sao Mateus","latitude":"-18.716110","longitude":"-39.858891","country":"BR"},{"id":"3448533","name":"Sao Marcos","latitude":"-28.971109","longitude":"-51.068062","country":"BR"},{"id":"3448545","name":"Sao Manuel","latitude":"-22.731110","longitude":"-48.570560","country":"BR"},{"id":"3448552","name":"Sao Luiz Gonzaga","latitude":"-28.408331","longitude":"-54.960831","country":"BR"},{"id":"3448558","name":"Sao Luis de Montes Belos","latitude":"-16.525000","longitude":"-50.372219","country":"BR"},{"id":"3448596","name":"Sao Lourenco do Sul","latitude":"-31.365280","longitude":"-51.978329","country":"BR"},{"id":"3448597","name":"Sao Lourenco dOeste","latitude":"-26.359171","longitude":"-52.851109","country":"BR"},{"id":"3448599","name":"Sao Lourenco da Serra","latitude":"-23.852501","longitude":"-46.942501","country":"BR"},{"id":"3448616","name":"Sao Lourenco","latitude":"-22.116390","longitude":"-45.054440","country":"BR"},{"id":"3448622","name":"Sao Leopoldo","latitude":"-29.760281","longitude":"-51.147221","country":"BR"},{"id":"3448632","name":"Sao Jose dos Pinhais","latitude":"-25.534719","longitude":"-49.206390","country":"BR"},{"id":"3448636","name":"Sao Jose dos Campos","latitude":"-23.179440","longitude":"-45.886940","country":"BR"},{"id":"3448639","name":"Sao Jose do Rio Preto","latitude":"-20.819719","longitude":"-49.379440","country":"BR"},{"id":"3448640","name":"Sao Jose do Rio Pardo","latitude":"-21.595560","longitude":"-46.888611","country":"BR"},{"id":"3448669","name":"Sao Jose do Calcado","latitude":"-21.025280","longitude":"-41.654442","country":"BR"},{"id":"3448742","name":"Sao Jose","latitude":"-28.233330","longitude":"-49.166672","country":"BR"},{"id":"3448824","name":"Sao Joaquim de Bicas","latitude":"-20.049170","longitude":"-44.273891","country":"BR"},{"id":"3448825","name":"Sao Joaquim da Barra","latitude":"-20.581390","longitude":"-47.854721","country":"BR"},{"id":"3448828","name":"Sao Joaquim","latitude":"-28.293890","longitude":"-49.931671","country":"BR"},{"id":"3448846","name":"Sao Joao Nepomuceno","latitude":"-21.540001","longitude":"-43.010559","country":"BR"},{"id":"3448850","name":"Sao Joao Evangelista","latitude":"-18.547779","longitude":"-42.763329","country":"BR"},{"id":"3448861","name":"Sao Joao do Paraiso","latitude":"-15.313610","longitude":"-42.014439","country":"BR"},{"id":"3448877","name":"Sao Joao de Meriti","latitude":"-22.803890","longitude":"-43.372219","country":"BR"},{"id":"3448879","name":"Sao Joao del Rei","latitude":"-21.135559","longitude":"-44.261669","country":"BR"},{"id":"3448892","name":"Sao Joao da Ponte","latitude":"-15.929170","longitude":"-44.007778","country":"BR"},{"id":"3448902","name":"Sao Joao da Boa Vista","latitude":"-21.969170","longitude":"-46.798061","country":"BR"},{"id":"3448903","name":"Sao Joao da Barra","latitude":"-21.640280","longitude":"-41.051109","country":"BR"},{"id":"3448906","name":"Sao Joao Batista","latitude":"-27.276110","longitude":"-48.849442","country":"BR"},{"id":"3449045","name":"Sao Jeronimo","latitude":"-29.959169","longitude":"-51.722221","country":"BR"},{"id":"3449053","name":"Sao Gotardo","latitude":"-19.311110","longitude":"-46.048889","country":"BR"},{"id":"3449055","name":"Sao Goncalo dos Campos","latitude":"-12.433330","longitude":"-38.966671","country":"BR"},{"id":"3449056","name":"Sao Goncalo do Sapucai","latitude":"-21.892220","longitude":"-45.595280","country":"BR"},{"id":"3449099","name":"Sao Gabriel","latitude":"-30.336390","longitude":"-54.320000","country":"BR"},{"id":"3449112","name":"Sao Francisco do Sul","latitude":"-26.243330","longitude":"-48.638062","country":"BR"},{"id":"3449116","name":"Sao Francisco do Conde","latitude":"-12.627500","longitude":"-38.680000","country":"BR"},{"id":"3449121","name":"Sao Francisco de Paula","latitude":"-29.448059","longitude":"-50.583611","country":"BR"},{"id":"3449124","name":"Sao Francisco de Assis","latitude":"-29.550280","longitude":"-55.131111","country":"BR"},{"id":"3449176","name":"Sao Francisco","latitude":"-15.948610","longitude":"-44.864441","country":"BR"},{"id":"3449195","name":"Sao Fidelis","latitude":"-21.646111","longitude":"-41.746941","country":"BR"},{"id":"3449216","name":"Sao Felipe","latitude":"-14.816670","longitude":"-41.383331","country":"BR"},{"id":"3449219","name":"Sao Domingos do Prata","latitude":"-19.865000","longitude":"-42.968330","country":"BR"},{"id":"3449293","name":"Sao Domingos","latitude":"-13.398330","longitude":"-46.318329","country":"BR"},{"id":"3449304","name":"Sao Desiderio","latitude":"-12.363330","longitude":"-44.973331","country":"BR"},{"id":"3449310","name":"Sao Cristovao","latitude":"-11.014720","longitude":"-37.206390","country":"BR"},{"id":"3449319","name":"Sao Carlos","latitude":"-22.017500","longitude":"-47.890831","country":"BR"},{"id":"3449324","name":"Sao Caetano do Sul","latitude":"-23.623060","longitude":"-46.551109","country":"BR"},{"id":"3449340","name":"Sao Borja","latitude":"-28.660561","longitude":"-56.004440","country":"BR"},{"id":"3449344","name":"Sao Bernardo do Campo","latitude":"-23.693890","longitude":"-46.564999","country":"BR"},{"id":"3449350","name":"Sao Bento do Sul","latitude":"-26.250280","longitude":"-49.378609","country":"BR"},{"id":"3449427","name":"Santos Dumont","latitude":"-21.456671","longitude":"-43.552502","country":"BR"},{"id":"3449433","name":"Santos","latitude":"-23.960831","longitude":"-46.333611","country":"BR"},{"id":"3449467","name":"Santo Estevao","latitude":"-12.430280","longitude":"-39.251389","country":"BR"},{"id":"3449476","name":"Santo Augusto","latitude":"-27.850830","longitude":"-53.777222","country":"BR"},{"id":"3449479","name":"Santo Antonio do Sudoeste","latitude":"-26.073610","longitude":"-53.725281","country":"BR"},{"id":"3449500","name":"Santo Antonio do Monte","latitude":"-20.087219","longitude":"-45.293610","country":"BR"},{"id":"3449502","name":"Santo Antonio do Leverger","latitude":"-15.865560","longitude":"-56.076672","country":"BR"},{"id":"3449516","name":"Santo Antonio do Amparo","latitude":"-20.946390","longitude":"-44.918892","country":"BR"},{"id":"3449518","name":"Santo Antonio de Posse","latitude":"-22.606110","longitude":"-46.919441","country":"BR"},{"id":"3449519","name":"Santo Antonio de Padua","latitude":"-21.539440","longitude":"-42.180279","country":"BR"},{"id":"3449521","name":"Santo Antonio de Jesus","latitude":"-12.968890","longitude":"-39.261391","country":"BR"},{"id":"3449529","name":"Santo Antonio da Platina","latitude":"-23.295000","longitude":"-50.077221","country":"BR"},{"id":"3449696","name":"Santo Angelo","latitude":"-28.299170","longitude":"-54.263062","country":"BR"},{"id":"3449701","name":"Santo Andre","latitude":"-23.663891","longitude":"-46.538330","country":"BR"},{"id":"3449707","name":"Santo Anastacio","latitude":"-21.838329","longitude":"-51.610279","country":"BR"},{"id":"3449710","name":"Santo Amaro das Brotas","latitude":"-10.788890","longitude":"-37.054440","country":"BR"},{"id":"3449711","name":"Santo Amaro da Imperatriz","latitude":"-27.688061","longitude":"-48.778610","country":"BR"},{"id":"3449720","name":"Santo Amaro","latitude":"-12.546670","longitude":"-38.711941","country":"BR"},{"id":"3449741","name":"Santiago","latitude":"-29.191669","longitude":"-54.867222","country":"BR"},{"id":"3449747","name":"Santa Vitoria do Palmar","latitude":"-33.518890","longitude":"-53.368061","country":"BR"},{"id":"3449749","name":"Santa Vitoria","latitude":"-18.838610","longitude":"-50.121391","country":"BR"},{"id":"3449782","name":"Santa Teresa","latitude":"-19.935560","longitude":"-40.600281","country":"BR"},{"id":"3449793","name":"Santa Rosa de Viterbo","latitude":"-21.472780","longitude":"-47.363060","country":"BR"},{"id":"3449822","name":"Santa Rosa","latitude":"-27.870831","longitude":"-54.481392","country":"BR"},{"id":"3449847","name":"Santa Rita do Sapucai","latitude":"-22.252220","longitude":"-45.703331","country":"BR"},{"id":"3449851","name":"Santa Rita do Passa Quatro","latitude":"-21.710279","longitude":"-47.478062","country":"BR"},{"id":"3449933","name":"Santana do Paraiso","latitude":"-19.363609","longitude":"-42.568611","country":"BR"},{"id":"3449936","name":"Santana do Livramento","latitude":"-30.890829","longitude":"-55.532780","country":"BR"},{"id":"3449948","name":"Santana de Parnaiba","latitude":"-23.444170","longitude":"-46.917782","country":"BR"},{"id":"3450031","name":"Santana","latitude":"-14.466670","longitude":"-41.799999","country":"BR"},{"id":"3450057","name":"Santa Maria do Suacui","latitude":"-18.190281","longitude":"-42.414169","country":"BR"},{"id":"3450063","name":"Santa Maria da Vitoria","latitude":"-13.394720","longitude":"-44.188610","country":"BR"},{"id":"3450083","name":"Santa Maria","latitude":"-29.684170","longitude":"-53.806938","country":"BR"},{"id":"3450144","name":"Santa Luzia","latitude":"-19.769720","longitude":"-43.851391","country":"BR"},{"id":"3450157","name":"Santaluz","latitude":"-11.255830","longitude":"-39.374722","country":"BR"},{"id":"3450166","name":"Santa Leopoldina","latitude":"-20.100559","longitude":"-40.529720","country":"BR"},{"id":"3450188","name":"Santa Isabel","latitude":"-23.315559","longitude":"-46.221390","country":"BR"},{"id":"3450202","name":"Santa Ines","latitude":"-13.292220","longitude":"-39.818890","country":"BR"},{"id":"3450206","name":"Santa Helena de Goias","latitude":"-17.813610","longitude":"-50.596939","country":"BR"},{"id":"3450225","name":"Santa Gertrudes","latitude":"-22.456671","longitude":"-47.530281","country":"BR"},{"id":"3450232","name":"Santa Fe do Sul","latitude":"-20.211109","longitude":"-50.925831","country":"BR"},{"id":"3450269","name":"Santa Cruz do Sul","latitude":"-29.717501","longitude":"-52.425831","country":"BR"},{"id":"3450272","name":"Santa Cruz do Rio Pardo","latitude":"-22.898890","longitude":"-49.632500","country":"BR"},{"id":"3450283","name":"Santa Cruz das Palmeiras","latitude":"-21.826941","longitude":"-47.248611","country":"BR"},{"id":"3450288","name":"Santa Cruz Cabralia","latitude":"-16.278061","longitude":"-39.024719","country":"BR"},{"id":"3450376","name":"Santa Cecilia","latitude":"-26.960831","longitude":"-50.426941","country":"BR"},{"id":"3450400","name":"Santa Branca","latitude":"-23.396669","longitude":"-45.883888","country":"BR"},{"id":"3450404","name":"Santa Barbara dOeste","latitude":"-22.753611","longitude":"-47.413609","country":"BR"},{"id":"3450464","name":"Santa Adelia","latitude":"-21.242781","longitude":"-48.804169","country":"BR"},{"id":"3450496","name":"Sananduva","latitude":"-27.949720","longitude":"-51.806671","country":"BR"},{"id":"3450554","name":"Salvador","latitude":"-12.971110","longitude":"-38.510830","country":"BR"},{"id":"3450563","name":"Salto de Pirapora","latitude":"-23.648890","longitude":"-47.573330","country":"BR"},{"id":"3450594","name":"Salto","latitude":"-23.200830","longitude":"-47.286942","country":"BR"},{"id":"3450671","name":"Salinas","latitude":"-16.170280","longitude":"-42.290279","country":"BR"},{"id":"3450710","name":"Salgado","latitude":"-11.031940","longitude":"-37.474998","country":"BR"},{"id":"3450759","name":"Sacramento","latitude":"-19.865280","longitude":"-47.439999","country":"BR"},{"id":"3450806","name":"Sabinopolis","latitude":"-18.666109","longitude":"-43.083889","country":"BR"},{"id":"3450832","name":"Ruy Barbosa","latitude":"-12.283890","longitude":"-40.493889","country":"BR"},{"id":"3450843","name":"Rubiataba","latitude":"-15.164440","longitude":"-49.803329","country":"BR"},{"id":"3450872","name":"Rosario Oeste","latitude":"-14.836110","longitude":"-56.427502","country":"BR"},{"id":"3450873","name":"Rosario do Sul","latitude":"-30.258329","longitude":"-54.914169","country":"BR"},{"id":"3450909","name":"Rondonopolis","latitude":"-16.470831","longitude":"-54.635559","country":"BR"},{"id":"3450963","name":"Rolante","latitude":"-29.650560","longitude":"-50.575829","country":"BR"},{"id":"3450964","name":"Rolandia","latitude":"-23.309719","longitude":"-51.369171","country":"BR"},{"id":"3451051","name":"Rio Verde de Mato Grosso","latitude":"-18.918060","longitude":"-54.844170","country":"BR"},{"id":"3451059","name":"Rio Tavares","latitude":"-27.645290","longitude":"-48.474861","country":"BR"},{"id":"3451071","name":"Rio Real","latitude":"-11.484720","longitude":"-37.932781","country":"BR"},{"id":"3451094","name":"Rio Pomba","latitude":"-21.274719","longitude":"-43.179169","country":"BR"},{"id":"3451095","name":"Rio Piracicaba","latitude":"-19.929171","longitude":"-43.174171","country":"BR"},{"id":"3451100","name":"Rio Pardo de Minas","latitude":"-15.609720","longitude":"-42.539719","country":"BR"},{"id":"3451102","name":"Rio Pardo","latitude":"-29.989719","longitude":"-52.378059","country":"BR"},{"id":"3451107","name":"Rio Novo do Sul","latitude":"-20.862499","longitude":"-40.936390","country":"BR"},{"id":"3451114","name":"Rio Novo","latitude":"-21.457500","longitude":"-43.125278","country":"BR"},{"id":"3451121","name":"Rio Negro","latitude":"-26.105829","longitude":"-49.797501","country":"BR"},{"id":"3451124","name":"Rio Negrinho","latitude":"-26.254440","longitude":"-49.518330","country":"BR"},{"id":"3451134","name":"Rio Grande da Serra","latitude":"-23.744169","longitude":"-46.398331","country":"BR"},{"id":"3451138","name":"Rio Grande","latitude":"-32.035000","longitude":"-52.098610","country":"BR"},{"id":"3451152","name":"Rio do Sul","latitude":"-27.214170","longitude":"-49.643059","country":"BR"},{"id":"3451190","name":"Rio de Janeiro","latitude":"-22.902781","longitude":"-43.207500","country":"BR"},{"id":"3451202","name":"Rio das Pedras","latitude":"-22.843330","longitude":"-47.606110","country":"BR"},{"id":"3451205","name":"Rio das Ostras","latitude":"-22.526939","longitude":"-41.945000","country":"BR"},{"id":"3451232","name":"Rio Claro","latitude":"-22.723061","longitude":"-44.135559","country":"BR"},{"id":"3451234","name":"Rio Claro","latitude":"-22.411390","longitude":"-47.561390","country":"BR"},{"id":"3451236","name":"Rio Casca","latitude":"-20.226110","longitude":"-42.650829","country":"BR"},{"id":"3451241","name":"Rio Brilhante","latitude":"-21.801941","longitude":"-54.546391","country":"BR"},{"id":"3451242","name":"Rio Branco do Sul","latitude":"-25.190001","longitude":"-49.314171","country":"BR"},{"id":"3451261","name":"Rio Bonito","latitude":"-22.708611","longitude":"-42.609718","country":"BR"},{"id":"3451263","name":"Rio Bananal","latitude":"-19.264999","longitude":"-40.333328","country":"BR"},{"id":"3451305","name":"Ribeiropolis","latitude":"-10.539440","longitude":"-37.416672","country":"BR"},{"id":"3451328","name":"Ribeirao Preto","latitude":"-21.177500","longitude":"-47.810280","country":"BR"},{"id":"3451329","name":"Ribeirao Pires","latitude":"-23.710560","longitude":"-46.413330","country":"BR"},{"id":"3451353","name":"Ribeirao das Neves","latitude":"-19.766939","longitude":"-44.086670","country":"BR"},{"id":"3451357","name":"Ribeirao da Ilha","latitude":"-27.699341","longitude":"-48.532188","country":"BR"},{"id":"3451362","name":"Ribeirao Branco","latitude":"-24.220831","longitude":"-48.765560","country":"BR"},{"id":"3451363","name":"Ribeirao Bonito","latitude":"-22.066669","longitude":"-48.176109","country":"BR"},{"id":"3451383","name":"Ribeira do Pombal","latitude":"-10.834440","longitude":"-38.535831","country":"BR"},{"id":"3451399","name":"Ribas do Rio Pardo","latitude":"-20.443060","longitude":"-53.759171","country":"BR"},{"id":"3451403","name":"Rialma","latitude":"-15.315000","longitude":"-49.584438","country":"BR"},{"id":"3451448","name":"Riacho de Santana","latitude":"-13.609170","longitude":"-42.938889","country":"BR"},{"id":"3451474","name":"Riachao do Jacuipe","latitude":"-11.806940","longitude":"-39.385559","country":"BR"},{"id":"3451476","name":"Riachao do Dantas","latitude":"-11.068890","longitude":"-37.724998","country":"BR"},{"id":"3451478","name":"Riachao das Neves","latitude":"-11.746110","longitude":"-44.910000","country":"BR"},{"id":"3451650","name":"Resplendor","latitude":"-19.325560","longitude":"-41.255280","country":"BR"},{"id":"3451663","name":"Reserva","latitude":"-24.650280","longitude":"-50.850559","country":"BR"},{"id":"3451668","name":"Resende","latitude":"-22.468889","longitude":"-44.446671","country":"BR"},{"id":"3451704","name":"Registro","latitude":"-24.487499","longitude":"-47.843609","country":"BR"},{"id":"3451709","name":"Regente Feijo","latitude":"-22.221390","longitude":"-51.302780","country":"BR"},{"id":"3451750","name":"Recreio","latitude":"-21.525000","longitude":"-42.469170","country":"BR"},{"id":"3451783","name":"Realeza","latitude":"-25.768890","longitude":"-53.532501","country":"BR"},{"id":"3451812","name":"Raposos","latitude":"-19.967220","longitude":"-43.804169","country":"BR"},{"id":"3451856","name":"Rancharia","latitude":"-22.229170","longitude":"-50.893059","country":"BR"},{"id":"3451931","name":"Quirinopolis","latitude":"-18.448330","longitude":"-50.451672","country":"BR"},{"id":"3452029","name":"Quijingue","latitude":"-10.752500","longitude":"-39.209171","country":"BR"},{"id":"3452073","name":"Queimados","latitude":"-22.716110","longitude":"-43.555279","country":"BR"},{"id":"3452085","name":"Queimadas","latitude":"-10.978330","longitude":"-39.626389","country":"BR"},{"id":"3452141","name":"Quatro Barras","latitude":"-25.365561","longitude":"-49.076939","country":"BR"},{"id":"3452148","name":"Quatis","latitude":"-22.407221","longitude":"-44.258060","country":"BR"},{"id":"3452167","name":"Quata","latitude":"-22.247499","longitude":"-50.698330","country":"BR"},{"id":"3452179","name":"Quarai","latitude":"-30.387501","longitude":"-56.451389","country":"BR"},{"id":"3452216","name":"Prudentopolis","latitude":"-25.213060","longitude":"-50.977779","country":"BR"},{"id":"3452233","name":"Propria","latitude":"-10.211110","longitude":"-36.840279","country":"BR"},{"id":"3452237","name":"Promissao","latitude":"-21.536671","longitude":"-49.858059","country":"BR"},{"id":"3452320","name":"Presidente Venceslau","latitude":"-21.876110","longitude":"-51.843891","country":"BR"},{"id":"3452324","name":"Presidente Prudente","latitude":"-22.125561","longitude":"-51.388889","country":"BR"},{"id":"3452327","name":"Presidente Olegario","latitude":"-18.417780","longitude":"-46.418060","country":"BR"},{"id":"3452331","name":"Presidente Epitacio","latitude":"-21.763330","longitude":"-52.115559","country":"BR"},{"id":"3452335","name":"Presidente Bernardes","latitude":"-22.006109","longitude":"-51.553059","country":"BR"},{"id":"3452440","name":"Prata","latitude":"-19.307220","longitude":"-48.924171","country":"BR"},{"id":"3452465","name":"Praia Grande","latitude":"-24.005831","longitude":"-46.402779","country":"BR"},{"id":"3452478","name":"Pradopolis","latitude":"-21.359440","longitude":"-48.065559","country":"BR"},{"id":"3452483","name":"Prado","latitude":"-17.341110","longitude":"-39.220829","country":"BR"},{"id":"3452490","name":"Poxoreo","latitude":"-15.837220","longitude":"-54.389172","country":"BR"},{"id":"3452525","name":"Pouso Alegre","latitude":"-22.230000","longitude":"-45.936390","country":"BR"},{"id":"3452599","name":"Posse","latitude":"-14.093060","longitude":"-46.369438","country":"BR"},{"id":"3452623","name":"Porto Uniao","latitude":"-26.238060","longitude":"-51.078331","country":"BR"},{"id":"3452640","name":"Porto Seguro","latitude":"-16.449720","longitude":"-39.064720","country":"BR"},{"id":"3452671","name":"Porto Real do Colegio","latitude":"-10.185830","longitude":"-36.840000","country":"BR"},{"id":"3452672","name":"Porto Real","latitude":"-22.419720","longitude":"-44.290279","country":"BR"},{"id":"3452712","name":"Porto Murtinho","latitude":"-21.698891","longitude":"-57.882500","country":"BR"},{"id":"3452775","name":"Porto Ferreira","latitude":"-21.853889","longitude":"-47.479172","country":"BR"},{"id":"3452779","name":"Porto Feliz","latitude":"-23.214720","longitude":"-47.523891","country":"BR"},{"id":"3452900","name":"Porto Belo","latitude":"-27.157780","longitude":"-48.553059","country":"BR"},{"id":"3452909","name":"Porto Barra do Ivinheima","latitude":"-22.966669","longitude":"-53.666672","country":"BR"},{"id":"3452925","name":"Porto Alegre","latitude":"-30.033060","longitude":"-51.230000","country":"BR"},{"id":"3452956","name":"Porteirinha","latitude":"-15.743330","longitude":"-43.028332","country":"BR"},{"id":"3452982","name":"Portao","latitude":"-29.701670","longitude":"-51.241940","country":"BR"},{"id":"3452992","name":"Porecatu","latitude":"-22.755831","longitude":"-51.379169","country":"BR"},{"id":"3453010","name":"Porciuncula","latitude":"-20.962780","longitude":"-42.040829","country":"BR"},{"id":"3453014","name":"Porangatu","latitude":"-13.440830","longitude":"-49.148609","country":"BR"},{"id":"3453025","name":"Ponto Novo","latitude":"-10.862780","longitude":"-40.133610","country":"BR"},{"id":"3453060","name":"Pontes e Lacerda","latitude":"-15.226110","longitude":"-59.335281","country":"BR"},{"id":"3453078","name":"Ponte Nova","latitude":"-20.416389","longitude":"-42.908611","country":"BR"},{"id":"3453150","name":"Ponta Pora","latitude":"-22.536110","longitude":"-55.725559","country":"BR"},{"id":"3453158","name":"Pontalina","latitude":"-17.525000","longitude":"-49.447220","country":"BR"},{"id":"3453171","name":"Pontal","latitude":"-21.022499","longitude":"-48.037220","country":"BR"},{"id":"3453186","name":"Ponta Grossa","latitude":"-25.094999","longitude":"-50.161942","country":"BR"},{"id":"3453240","name":"Pompeu","latitude":"-19.224440","longitude":"-44.935280","country":"BR"},{"id":"3453242","name":"Pompeia","latitude":"-22.108610","longitude":"-50.171669","country":"BR"},{"id":"3453245","name":"Pomerode","latitude":"-26.740561","longitude":"-49.176941","country":"BR"},{"id":"3453300","name":"Poco Verde","latitude":"-10.708330","longitude":"-38.183331","country":"BR"},{"id":"3453303","name":"Pocos de Caldas","latitude":"-21.787781","longitude":"-46.561390","country":"BR"},{"id":"3453315","name":"Pocone","latitude":"-16.256670","longitude":"-56.622780","country":"BR"},{"id":"3453337","name":"Pocoes","latitude":"-14.529720","longitude":"-40.365280","country":"BR"},{"id":"3453406","name":"Poa","latitude":"-23.528061","longitude":"-46.344719","country":"BR"},{"id":"3453420","name":"Planaltina","latitude":"-15.452780","longitude":"-47.614170","country":"BR"},{"id":"3453435","name":"Piuma","latitude":"-20.837780","longitude":"-40.721939","country":"BR"},{"id":"3453439","name":"Piui","latitude":"-20.465281","longitude":"-45.958061","country":"BR"},{"id":"3453457","name":"Pitangui","latitude":"-19.682779","longitude":"-44.890282","country":"BR"},{"id":"3453467","name":"Pitangueiras","latitude":"-21.009439","longitude":"-48.221668","country":"BR"},{"id":"3453478","name":"Pitanga","latitude":"-24.757219","longitude":"-51.761391","country":"BR"},{"id":"3453494","name":"Piritiba","latitude":"-11.730280","longitude":"-40.555279","country":"BR"},{"id":"3453503","name":"Pires do Rio","latitude":"-17.299721","longitude":"-48.279442","country":"BR"},{"id":"3453512","name":"Pirenopolis","latitude":"-15.852500","longitude":"-48.959171","country":"BR"},{"id":"3453535","name":"Piraquara","latitude":"-25.441669","longitude":"-49.063332","country":"BR"},{"id":"3453542","name":"Pirapozinho","latitude":"-22.275280","longitude":"-51.500000","country":"BR"},{"id":"3453544","name":"Pirapora do Bom Jesus","latitude":"-23.396940","longitude":"-47.002220","country":"BR"},{"id":"3453546","name":"Pirapora","latitude":"-17.344999","longitude":"-44.941940","country":"BR"},{"id":"3453586","name":"Piranhas","latitude":"-16.426941","longitude":"-51.822220","country":"BR"},{"id":"3453605","name":"Pirajui","latitude":"-21.998610","longitude":"-49.457218","country":"BR"},{"id":"3453610","name":"Piraju","latitude":"-23.193609","longitude":"-49.383888","country":"BR"},{"id":"3453622","name":"Pirai do Sul","latitude":"-24.526110","longitude":"-49.948608","country":"BR"},{"id":"3453635","name":"Pirai","latitude":"-22.629169","longitude":"-43.898060","country":"BR"},