[{"id":"1847947","name":"Shingu","latitude":"33.733330","longitude":"135.983337","country":"JP"},{"id":"1847963","name":"Atsugi","latitude":"35.438889","longitude":"139.359726","country":"JP"},{"id":"1847966","name":"Akashi","latitude":"34.633331","longitude":"134.983337","country":"JP"},{"id":"1847968","name":"Zushi","latitude":"35.291672","longitude":"139.585556","country":"JP"},{"id":"1848004","name":"Zama","latitude":"35.488892","longitude":"139.388611","country":"JP"},{"id":"1848016","name":"Yuza","latitude":"39.000000","longitude":"139.916672","country":"JP"},{"id":"1848087","name":"Yukuhashi","latitude":"33.728729","longitude":"130.983002","country":"JP"},{"id":"1848096","name":"Yuki","latitude":"36.299999","longitude":"139.883331","country":"JP"},{"id":"1848113","name":"Yugawara","latitude":"35.150002","longitude":"139.066666","country":"JP"},{"id":"1848169","name":"Yoshino-cho","latitude":"34.396111","longitude":"135.857681","country":"JP"},{"id":"1848188","name":"Yoshikawa","latitude":"35.885281","longitude":"139.839447","country":"JP"},{"id":"1848194","name":"Yoshii","latitude":"36.250000","longitude":"138.983337","country":"JP"},{"id":"1848210","name":"Yoshida","latitude":"37.683331","longitude":"138.883331","country":"JP"},{"id":"1848243","name":"Yorii","latitude":"36.116669","longitude":"139.199997","country":"JP"},{"id":"1848254","name":"Yono","latitude":"35.883331","longitude":"139.633331","country":"JP"},{"id":"1848277","name":"Yonago","latitude":"35.433331","longitude":"133.333328","country":"JP"},{"id":"1848313","name":"Yokosuka","latitude":"35.283611","longitude":"139.667221","country":"JP"},{"id":"1848354","name":"Yokohama-shi","latitude":"35.447781","longitude":"139.642502","country":"JP"},{"id":"1848373","name":"Yokkaichi","latitude":"34.966671","longitude":"136.616669","country":"JP"},{"id":"1848382","name":"Youkaichi","latitude":"35.116261","longitude":"136.197678","country":"JP"},{"id":"1848439","name":"Yawata","latitude":"34.870090","longitude":"135.702698","country":"JP"},{"id":"1848445","name":"Yatsushiro","latitude":"32.500000","longitude":"130.600006","country":"JP"},{"id":"1848447","name":"Yatsuo","latitude":"36.566669","longitude":"137.133331","country":"JP"},{"id":"1848482","name":"Yasugi","latitude":"35.433331","longitude":"133.250000","country":"JP"},{"id":"1848489","name":"Yasu","latitude":"35.068008","longitude":"136.023270","country":"JP"},{"id":"1848498","name":"Yashiro","latitude":"34.916672","longitude":"134.966675","country":"JP"},{"id":"1848499","name":"Yashio-shi","latitude":"35.822552","longitude":"139.839050","country":"JP"},{"id":"1848522","name":"Yao","latitude":"34.616669","longitude":"135.600006","country":"JP"},{"id":"1848550","name":"Yanai","latitude":"33.966671","longitude":"132.116669","country":"JP"},{"id":"1848573","name":"Yanagawa","latitude":"33.166672","longitude":"130.399994","country":"JP"},{"id":"1848633","name":"Yamasaki","latitude":"35.000000","longitude":"134.550003","country":"JP"},{"id":"1848689","name":"Yamaguchi-shi","latitude":"34.185829","longitude":"131.471390","country":"JP"},{"id":"1848705","name":"Yamaga","latitude":"33.016670","longitude":"130.683334","country":"JP"},{"id":"1848774","name":"Yaizu","latitude":"34.866669","longitude":"138.333328","country":"JP"},{"id":"1848776","name":"Yaita","latitude":"36.799999","longitude":"139.933334","country":"JP"},{"id":"1848903","name":"Warabi","latitude":"35.826389","longitude":"139.704437","country":"JP"},{"id":"1848933","name":"Waki","latitude":"34.066669","longitude":"134.149994","country":"JP"},{"id":"1849053","name":"Utsunomiya-shi","latitude":"36.565830","longitude":"139.883606","country":"JP"},{"id":"1849069","name":"Uto","latitude":"32.683331","longitude":"130.666672","country":"JP"},{"id":"1849094","name":"Usuki","latitude":"33.108059","longitude":"131.787781","country":"JP"},{"id":"1849154","name":"Ushibuka","latitude":"32.190559","longitude":"130.022781","country":"JP"},{"id":"1849183","name":"Ureshino","latitude":"33.099998","longitude":"129.983337","country":"JP"},{"id":"1849186","name":"Urayasu","latitude":"35.670559","longitude":"139.888611","country":"JP"},{"id":"1849237","name":"Uozu","latitude":"36.799999","longitude":"137.399994","country":"JP"},{"id":"1849299","name":"Umi","latitude":"33.566669","longitude":"130.500000","country":"JP"},{"id":"1849367","name":"Ujiie","latitude":"36.683331","longitude":"139.966675","country":"JP"},{"id":"1849372","name":"Uji","latitude":"34.883331","longitude":"135.800003","country":"JP"},{"id":"1849407","name":"Uenohara","latitude":"35.616669","longitude":"139.116669","country":"JP"},{"id":"1849414","name":"Ueno","latitude":"34.750000","longitude":"136.133331","country":"JP"},{"id":"1849424","name":"Ueki","latitude":"32.900002","longitude":"130.683334","country":"JP"},{"id":"1849429","name":"Ueda","latitude":"36.400002","longitude":"138.266663","country":"JP"},{"id":"1849498","name":"Ube","latitude":"33.943062","longitude":"131.251114","country":"JP"},{"id":"1849519","name":"Tsuyama","latitude":"35.049999","longitude":"134.000000","country":"JP"},{"id":"1849539","name":"Tsushima","latitude":"35.166672","longitude":"136.716675","country":"JP"},{"id":"1849561","name":"Tsurusaki","latitude":"33.240002","longitude":"131.684433","country":"JP"},{"id":"1849563","name":"Tsuruoka","latitude":"38.721668","longitude":"139.821671","country":"JP"},{"id":"1849584","name":"Tsurugi","latitude":"36.450001","longitude":"136.633331","country":"JP"},{"id":"1849592","name":"Tsuruga","latitude":"35.645470","longitude":"136.055801","country":"JP"},{"id":"1849647","name":"Tsuma","latitude":"32.099998","longitude":"131.399994","country":"JP"},{"id":"1849661","name":"Tsukumi","latitude":"33.070560","longitude":"131.857224","country":"JP"},{"id":"1849706","name":"Tsukawaki","latitude":"33.266670","longitude":"131.149994","country":"JP"},{"id":"1849729","name":"Tsuiki","latitude":"33.672390","longitude":"131.037415","country":"JP"},{"id":"1849782","name":"Tsubata","latitude":"36.666672","longitude":"136.733337","country":"JP"},{"id":"1849788","name":"Tsubame","latitude":"37.650002","longitude":"138.933334","country":"JP"},{"id":"1849796","name":"Tsu-shi","latitude":"34.730282","longitude":"136.508606","country":"JP"},{"id":"1849814","name":"Toyota","latitude":"35.083328","longitude":"137.149994","country":"JP"},{"id":"1849817","name":"Toyoshina","latitude":"36.299911","longitude":"137.901077","country":"JP"},{"id":"1849831","name":"Toyooka","latitude":"35.533329","longitude":"134.833328","country":"JP"},{"id":"1849837","name":"Toyonaka","latitude":"34.782440","longitude":"135.469315","country":"JP"},{"id":"1849845","name":"Toyokawa","latitude":"34.816669","longitude":"137.399994","country":"JP"},{"id":"1849846","name":"Toyohashi","latitude":"34.766670","longitude":"137.383331","country":"JP"},{"id":"1849850","name":"Toyohama","latitude":"34.700001","longitude":"136.933334","country":"JP"},{"id":"1849876","name":"Toyama-shi","latitude":"36.695278","longitude":"137.211395","country":"JP"},{"id":"1849892","name":"Tottori","latitude":"35.500000","longitude":"134.233337","country":"JP"},{"id":"1849904","name":"Tosu","latitude":"33.366669","longitude":"130.516663","country":"JP"},{"id":"1850004","name":"Tonosho","latitude":"34.483330","longitude":"134.183334","country":"JP"},{"id":"1850034","name":"Tondabayashi","latitude":"34.500000","longitude":"135.600006","country":"JP"},{"id":"1850091","name":"Tomioka","latitude":"36.250000","longitude":"138.899994","country":"JP"},{"id":"1850108","name":"Tomigusuku","latitude":"26.184999","longitude":"127.675003","country":"JP"},{"id":"1850147","name":"Tokyo","latitude":"35.689499","longitude":"139.691711","country":"JP"},{"id":"1850152","name":"Tokuyama","latitude":"34.049999","longitude":"131.816666","country":"JP"},{"id":"1850158","name":"Tokushima-shi","latitude":"34.065830","longitude":"134.559433","country":"JP"},{"id":"1850181","name":"Tokorozawa","latitude":"35.799160","longitude":"139.469025","country":"JP"},{"id":"1850185","name":"Tokoname","latitude":"34.883331","longitude":"136.850006","country":"JP"},{"id":"1850207","name":"Toki","latitude":"35.349998","longitude":"137.183334","country":"JP"},{"id":"1850217","name":"Tokamachi","latitude":"37.133331","longitude":"138.766663","country":"JP"},{"id":"1850269","name":"Togitsu","latitude":"32.833328","longitude":"129.850006","country":"JP"},{"id":"1850307","name":"Tochio","latitude":"37.466671","longitude":"139.000000","country":"JP"},{"id":"1850311","name":"Tochigi","latitude":"36.383331","longitude":"139.733337","country":"JP"},{"id":"1850345","name":"Toba","latitude":"34.483330","longitude":"136.850006","country":"JP"},{"id":"1850396","name":"Tenri","latitude":"34.583328","longitude":"135.833328","country":"JP"},{"id":"1850405","name":"Tenno","latitude":"39.900002","longitude":"139.966675","country":"JP"},{"id":"1850472","name":"Tawaramoto","latitude":"34.549999","longitude":"135.800003","country":"JP"},{"id":"1850498","name":"Tatsuno","latitude":"35.984261","longitude":"137.997208","country":"JP"},{"id":"1850499","name":"Tatsuno","latitude":"34.866669","longitude":"134.550003","country":"JP"},{"id":"1850523","name":"Tateyama","latitude":"34.983330","longitude":"139.866669","country":"JP"},{"id":"1850559","name":"Tatebayashi","latitude":"36.250000","longitude":"139.533325","country":"JP"},{"id":"1850589","name":"Tarumizu","latitude":"31.483330","longitude":"130.699997","country":"JP"},{"id":"1850600","name":"Tarui","latitude":"35.366669","longitude":"136.533325","country":"JP"},{"id":"1850627","name":"Tanushimaru","latitude":"33.349998","longitude":"130.683334","country":"JP"},{"id":"1850630","name":"Tanuma","latitude":"36.366669","longitude":"139.583328","country":"JP"},{"id":"1850692","name":"Nishi-Tokyo-shi","latitude":"35.725262","longitude":"139.538300","country":"JP"},{"id":"1850693","name":"Tanashi","latitude":"35.723888","longitude":"139.522217","country":"JP"},{"id":"1850707","name":"Tanabe","latitude":"34.816669","longitude":"135.766663","country":"JP"},{"id":"1850708","name":"Tanabe","latitude":"33.733330","longitude":"135.366669","country":"JP"},{"id":"1850742","name":"Tamano","latitude":"34.483330","longitude":"133.949997","country":"JP"},{"id":"1850745","name":"Tamana","latitude":"32.916672","longitude":"130.566666","country":"JP"},{"id":"1850746","name":"Tamamura","latitude":"36.299999","longitude":"139.116669","country":"JP"},{"id":"1850818","name":"Taketoyo","latitude":"34.849998","longitude":"136.916672","country":"JP"},{"id":"1850834","name":"Takeo","latitude":"33.200001","longitude":"130.016663","country":"JP"},{"id":"1850860","name":"Takehara","latitude":"34.338329","longitude":"132.916672","country":"JP"},{"id":"1850872","name":"Takefu","latitude":"35.903931","longitude":"136.166870","country":"JP"},{"id":"1850878","name":"Takedamachi","latitude":"32.966671","longitude":"131.399994","country":"JP"},{"id":"1850892","name":"Takayama","latitude":"36.133331","longitude":"137.250000","country":"JP"},{"id":"1850910","name":"Takatsuki","latitude":"34.848331","longitude":"135.616776","country":"JP"},{"id":"1851002","name":"Takasaki","latitude":"36.333328","longitude":"139.016663","country":"JP"},{"id":"1851012","name":"Takarazuka","latitude":"34.799358","longitude":"135.356964","country":"JP"},{"id":"1851032","name":"Takaoka","latitude":"36.750000","longitude":"137.016663","country":"JP"},{"id":"1851068","name":"Takanabe","latitude":"32.133331","longitude":"131.500000","country":"JP"},{"id":"1851100","name":"Takamatsu-shi","latitude":"34.340279","longitude":"134.043335","country":"JP"},{"id":"1851125","name":"Takaishi","latitude":"34.516670","longitude":"135.433334","country":"JP"},{"id":"1851137","name":"Takahashi","latitude":"34.783329","longitude":"133.616669","country":"JP"},{"id":"1851155","name":"Takahama","latitude":"34.916672","longitude":"136.983337","country":"JP"},{"id":"1851170","name":"Bungo-Takada-shi","latitude":"33.556702","longitude":"131.445053","country":"JP"},{"id":"1851193","name":"Tajimi","latitude":"35.316669","longitude":"137.133331","country":"JP"},{"id":"1851259","name":"Tahara","latitude":"34.666672","longitude":"137.266663","country":"JP"},{"id":"1851273","name":"Tagawa","latitude":"33.633331","longitude":"130.800003","country":"JP"},{"id":"1851282","name":"Tadotsu","latitude":"34.275002","longitude":"133.750000","country":"JP"},{"id":"1851307","name":"Tachikawa","latitude":"35.692780","longitude":"139.418060","country":"JP"},{"id":"1851348","name":"Suzuka","latitude":"34.883331","longitude":"136.583328","country":"JP"},{"id":"1851357","name":"Suzaka","latitude":"36.650002","longitude":"138.316666","country":"JP"},{"id":"1851368","name":"Suwa","latitude":"36.037991","longitude":"138.113083","country":"JP"},{"id":"1851390","name":"Susaki","latitude":"33.366669","longitude":"133.283325","country":"JP"},{"id":"1851426","name":"Sumoto","latitude":"34.349998","longitude":"134.899994","country":"JP"},{"id":"1851462","name":"Sukumo","latitude":"32.933331","longitude":"132.733337","country":"JP"},{"id":"1851483","name":"Suita","latitude":"34.761429","longitude":"135.515671","country":"JP"},{"id":"1851494","name":"Suibara","latitude":"37.833328","longitude":"139.233337","country":"JP"},{"id":"1851504","name":"Sugito","latitude":"36.033329","longitude":"139.733337","country":"JP"},{"id":"1851542","name":"Sueyoshi","latitude":"31.650000","longitude":"131.016663","country":"JP"},{"id":"1851604","name":"Soka","latitude":"35.820278","longitude":"139.804443","country":"JP"},{"id":"1851606","name":"Soja","latitude":"34.666672","longitude":"133.750000","country":"JP"},{"id":"1851622","name":"Sobue","latitude":"35.250000","longitude":"136.716675","country":"JP"},{"id":"1851711","name":"Shobu","latitude":"36.066669","longitude":"139.600006","country":"JP"},{"id":"1851713","name":"Shobara","latitude":"34.849998","longitude":"133.016663","country":"JP"},{"id":"1851717","name":"Shizuoka-shi","latitude":"34.976940","longitude":"138.383057","country":"JP"},{"id":"1851813","name":"Shirone","latitude":"37.766670","longitude":"139.016663","country":"JP"},{"id":"1851883","name":"Shiraoka","latitude":"36.016670","longitude":"139.666672","country":"JP"},{"id":"1851935","name":"Shirahama","latitude":"34.783329","longitude":"134.716675","country":"JP"},{"id":"1851952","name":"Shiozawa","latitude":"37.033329","longitude":"138.850006","country":"JP"},{"id":"1852003","name":"Shiojiri","latitude":"36.099998","longitude":"137.966675","country":"JP"},{"id":"1852046","name":"Shinshiro","latitude":"34.900002","longitude":"137.500000","country":"JP"},{"id":"1852102","name":"Shinichi","latitude":"34.549999","longitude":"133.266663","country":"JP"},{"id":"1852109","name":"Shingu","latitude":"33.716671","longitude":"130.433334","country":"JP"},{"id":"1852140","name":"Shinagawa-ku","latitude":"35.609020","longitude":"139.730164","country":"JP"},{"id":"1852225","name":"Shimonoseki","latitude":"33.950001","longitude":"130.949997","country":"JP"},{"id":"1852347","name":"Shimodate","latitude":"36.299999","longitude":"139.983337","country":"JP"},{"id":"1852357","name":"Shimoda","latitude":"34.666672","longitude":"138.949997","country":"JP"},{"id":"1852383","name":"Shimminatocho","latitude":"34.183331","longitude":"135.199997","country":"JP"},{"id":"1852385","name":"Shimminato","latitude":"36.783329","longitude":"137.066666","country":"JP"},{"id":"1852472","name":"Shimada","latitude":"34.816669","longitude":"138.183334","country":"JP"},{"id":"1852479","name":"Shimabara","latitude":"32.783329","longitude":"130.366669","country":"JP"},{"id":"1852502","name":"Shiki","latitude":"35.833328","longitude":"139.583328","country":"JP"},{"id":"1852534","name":"Shiida","latitude":"33.653412","longitude":"131.057968","country":"JP"},{"id":"1852561","name":"Shido","latitude":"34.323330","longitude":"134.173325","country":"JP"},{"id":"1852588","name":"Shibushi","latitude":"31.466669","longitude":"131.104996","country":"JP"},{"id":"1852595","name":"Shibukawa","latitude":"36.483330","longitude":"139.000000","country":"JP"},{"id":"1852607","name":"Shibata","latitude":"37.950001","longitude":"139.333328","country":"JP"},{"id":"1852663","name":"Seto","latitude":"35.233330","longitude":"137.100006","country":"JP"},{"id":"1852673","name":"Setaka","latitude":"33.150002","longitude":"130.466675","country":"JP"},{"id":"1852736","name":"Sendai","latitude":"31.816669","longitude":"130.300003","country":"JP"},{"id":"1852849","name":"Satte","latitude":"36.066669","longitude":"139.716675","country":"JP"},{"id":"1852899","name":"Sasebo","latitude":"33.159168","longitude":"129.722778","country":"JP"},{"id":"1852901","name":"Sasayama","latitude":"35.066669","longitude":"135.216675","country":"JP"},{"id":"1852915","name":"Sasaguri","latitude":"33.616669","longitude":"130.533325","country":"JP"},{"id":"1852964","name":"Sano","latitude":"36.316669","longitude":"139.583328","country":"JP"},{"id":"1852984","name":"Sanjo","latitude":"37.616669","longitude":"138.949997","country":"JP"},{"id":"1853008","name":"Sanda","latitude":"34.883331","longitude":"135.233337","country":"JP"},{"id":"1853066","name":"Sakurai","latitude":"34.500000","longitude":"135.850006","country":"JP"},{"id":"1853081","name":"Saku","latitude":"36.216671","longitude":"138.483337","country":"JP"},{"id":"1853140","name":"Sakata","latitude":"38.916672","longitude":"139.854996","country":"JP"},{"id":"1853174","name":"Sakaiminato","latitude":"35.549999","longitude":"133.233337","country":"JP"},{"id":"1853190","name":"Sakaide","latitude":"34.316669","longitude":"133.850006","country":"JP"},{"id":"1853192","name":"Sakai","latitude":"36.266670","longitude":"139.250000","country":"JP"},{"id":"1853193","name":"Sakai","latitude":"36.099998","longitude":"139.800003","country":"JP"},{"id":"1853195","name":"Sakai","latitude":"34.583328","longitude":"135.466675","country":"JP"},{"id":"1853209","name":"Sakado","latitude":"35.956940","longitude":"139.388885","country":"JP"},{"id":"1853237","name":"Saiki","latitude":"32.950001","longitude":"131.899994","country":"JP"},{"id":"1853280","name":"Sagara","latitude":"34.683331","longitude":"138.199997","country":"JP"},{"id":"1853295","name":"Sagamihara","latitude":"35.553059","longitude":"139.354446","country":"JP"},{"id":"1853303","name":"Saga-shi","latitude":"33.249321","longitude":"130.298798","country":"JP"},{"id":"1853338","name":"Sabae","latitude":"35.946468","longitude":"136.184982","country":"JP"},{"id":"1853354","name":"Ryuo","latitude":"35.650002","longitude":"138.500000","country":"JP"},{"id":"1853371","name":"Ryotsu","latitude":"38.083328","longitude":"138.433334","country":"JP"},{"id":"1853433","name":"Ozu","latitude":"32.866669","longitude":"130.866669","country":"JP"},{"id":"1853483","name":"Oyama","latitude":"36.299999","longitude":"139.800003","country":"JP"},{"id":"1853486","name":"Oyama","latitude":"34.599998","longitude":"138.216675","country":"JP"},{"id":"1853514","name":"Owase","latitude":"34.066669","longitude":"136.199997","country":"JP"},{"id":"1853564","name":"Otsuki","latitude":"35.599998","longitude":"138.933334","country":"JP"},{"id":"1853574","name":"Otsu-shi","latitude":"35.004440","longitude":"135.868332","country":"JP"},{"id":"1853662","name":"Otake","latitude":"34.200001","longitude":"132.216675","country":"JP"},{"id":"1853677","name":"Ota","latitude":"36.299999","longitude":"139.366669","country":"JP"},{"id":"1853909","name":"Osaka-shi","latitude":"34.693741","longitude":"135.502182","country":"JP"},{"id":"1853992","name":"Onomichi","latitude":"34.416672","longitude":"133.199997","country":"JP"},{"id":"1854018","name":"Onoda","latitude":"34.001389","longitude":"131.183609","country":"JP"},{"id":"1854022","name":"Ono","latitude":"35.981060","longitude":"136.487274","country":"JP"},{"id":"1854026","name":"Ono","latitude":"34.849998","longitude":"134.933334","country":"JP"},{"id":"1854028","name":"Ono","latitude":"34.283329","longitude":"132.266663","country":"JP"},{"id":"1854083","name":"Omuta","latitude":"33.033329","longitude":"130.449997","country":"JP"},{"id":"1854093","name":"Omura","latitude":"32.921391","longitude":"129.953888","country":"JP"},{"id":"1854162","name":"Ome","latitude":"35.783890","longitude":"139.243057","country":"JP"},{"id":"1854177","name":"Omama","latitude":"36.433331","longitude":"139.283325","country":"JP"},{"id":"1854186","name":"Omachi","latitude":"36.500000","longitude":"137.866669","country":"JP"},{"id":"1854246","name":"Okuchi","latitude":"32.066669","longitude":"130.616669","country":"JP"},{"id":"1854371","name":"Okegawa","latitude":"36.000000","longitude":"139.557220","country":"JP"},{"id":"1854376","name":"Okazaki","latitude":"34.950001","longitude":"137.166672","country":"JP"},{"id":"1854383","name":"Okayama-shi","latitude":"34.661671","longitude":"133.934998","country":"JP"},{"id":"1854384","name":"Okaya","latitude":"36.056591","longitude":"138.045105","country":"JP"},{"id":"1854405","name":"Okawa","latitude":"33.200001","longitude":"130.350006","country":"JP"},{"id":"1854444","name":"Ojiya","latitude":"37.299999","longitude":"138.800003","country":"JP"},{"id":"1854487","name":"Oita-shi","latitude":"33.238060","longitude":"131.612503","country":"JP"},{"id":"1854492","name":"Oiso","latitude":"35.303059","longitude":"139.302780","country":"JP"},{"id":"1854530","name":"Oi","latitude":"35.851109","longitude":"139.516663","country":"JP"},{"id":"1854629","name":"Ogori","latitude":"34.099998","longitude":"131.399994","country":"JP"},{"id":"1854665","name":"Ogawa","latitude":"36.049999","longitude":"139.266663","country":"JP"},{"id":"1854703","name":"Ogaki","latitude":"35.349998","longitude":"136.616669","country":"JP"},{"id":"1854747","name":"Odawara","latitude":"35.255562","longitude":"139.159714","country":"JP"},{"id":"1854774","name":"Oda","latitude":"35.183331","longitude":"132.500000","country":"JP"},{"id":"1854803","name":"Obu","latitude":"35.000000","longitude":"136.966675","country":"JP"},{"id":"1854807","name":"Obita","latitude":"32.816669","longitude":"129.883331","country":"JP"},{"id":"1854849","name":"Obama","latitude":"35.495762","longitude":"135.746033","country":"JP"},{"id":"1854868","name":"Nyuzen","latitude":"36.933331","longitude":"137.500000","country":"JP"},{"id":"1854902","name":"Numazu","latitude":"35.099998","longitude":"138.866669","country":"JP"},{"id":"1854905","name":"Numata","latitude":"36.633331","longitude":"139.050003","country":"JP"},{"id":"1854979","name":"Nonoichi","latitude":"36.533329","longitude":"136.616669","country":"JP"},{"id":"1855066","name":"Nogata","latitude":"33.733330","longitude":"130.733337","country":"JP"},{"id":"1855078","name":"Noda","latitude":"35.941109","longitude":"139.858063","country":"JP"},{"id":"1855095","name":"Nobeoka","latitude":"32.583328","longitude":"131.666672","country":"JP"},{"id":"1855134","name":"Nishiwaki","latitude":"34.983330","longitude":"134.966675","country":"JP"},{"id":"1855189","name":"Nishio","latitude":"34.866669","longitude":"137.050003","country":"JP"},{"id":"1855203","name":"Nishinoomote","latitude":"30.733330","longitude":"131.000000","country":"JP"},{"id":"1855207","name":"Nishinomiya","latitude":"34.716671","longitude":"135.333328","country":"JP"},{"id":"1855363","name":"Nirasaki","latitude":"35.700001","longitude":"138.449997","country":"JP"},{"id":"1855380","name":"Ninomiya","latitude":"35.303329","longitude":"139.253326","country":"JP"},{"id":"1855395","name":"Nikko","latitude":"36.750000","longitude":"139.616669","country":"JP"},{"id":"1855410","name":"Niitsu","latitude":"37.799999","longitude":"139.116669","country":"JP"},{"id":"1855416","name":"Niimi","latitude":"34.983330","longitude":"133.466675","country":"JP"},{"id":"1855425","name":"Niihama","latitude":"33.959332","longitude":"133.316727","country":"JP"},{"id":"1855431","name":"Niigata-shi","latitude":"37.902222","longitude":"139.023605","country":"JP"},{"id":"1855476","name":"Nichinan","latitude":"31.600000","longitude":"131.366669","country":"JP"},{"id":"1855503","name":"Nerima","latitude":"35.733330","longitude":"139.649994","country":"JP"},{"id":"1855540","name":"Naze","latitude":"28.366671","longitude":"129.483337","country":"JP"},{"id":"1855580","name":"Naruto","latitude":"34.183331","longitude":"134.616669","country":"JP"},{"id":"1855612","name":"Nara-shi","latitude":"34.685051","longitude":"135.804855","country":"JP"},{"id":"1855670","name":"Nanao","latitude":"37.049999","longitude":"136.966675","country":"JP"},{"id":"1855694","name":"Namerikawa","latitude":"36.766670","longitude":"137.333328","country":"JP"},{"id":"1855753","name":"Nakatsugawa","latitude":"35.483330","longitude":"137.500000","country":"JP"},{"id":"1855757","name":"Nakatsu","latitude":"33.598110","longitude":"131.188293","country":"JP"},{"id":"1855852","name":"Nakanojo","latitude":"36.583328","longitude":"138.850006","country":"JP"},{"id":"1855863","name":"Nakano","latitude":"36.750000","longitude":"138.366669","country":"JP"},{"id":"1855891","name":"Nakamura","latitude":"32.983330","longitude":"132.933334","country":"JP"},{"id":"1855907","name":"Nakama","latitude":"33.816669","longitude":"130.699997","country":"JP"},{"id":"1856035","name":"Naha-shi","latitude":"26.212500","longitude":"127.681107","country":"JP"},{"id":"1856057","name":"Nagoya-shi","latitude":"35.181469","longitude":"136.906403","country":"JP"},{"id":"1856068","name":"Nago","latitude":"26.588060","longitude":"127.976112","country":"JP"},{"id":"1856177","name":"Nagasaki-shi","latitude":"32.744720","longitude":"129.873611","country":"JP"},{"id":"1856184","name":"Nagareyama","latitude":"35.856300","longitude":"139.902664","country":"JP"},{"id":"1856199","name":"Nagaoka","latitude":"37.450001","longitude":"138.850006","country":"JP"},{"id":"1856215","name":"Nagano-shi","latitude":"36.651390","longitude":"138.181107","country":"JP"},{"id":"1856243","name":"Nagahama","latitude":"35.383331","longitude":"136.266663","country":"JP"},{"id":"1856293","name":"Nabari","latitude":"34.616669","longitude":"136.083328","country":"JP"},{"id":"1856367","name":"Musashino","latitude":"35.706108","longitude":"139.559433","country":"JP"},{"id":"1856392","name":"Muroto","latitude":"33.283329","longitude":"134.149994","country":"JP"},{"id":"1856426","name":"Muramatsu","latitude":"37.683331","longitude":"139.183334","country":"JP"},{"id":"1856434","name":"Murakami","latitude":"38.233330","longitude":"139.483337","country":"JP"},{"id":"1856456","name":"Muko","latitude":"34.965450","longitude":"135.704147","country":"JP"},{"id":"1856476","name":"Muikamachi","latitude":"37.066669","longitude":"138.883331","country":"JP"},{"id":"1856560","name":"Morohongo","latitude":"35.935558","longitude":"139.304443","country":"JP"},{"id":"1856569","name":"Moriyama","latitude":"35.066669","longitude":"135.983337","country":"JP"},{"id":"1856584","name":"Moriguchi","latitude":"34.733330","longitude":"135.566666","country":"JP"},{"id":"1856586","name":"Mori","latitude":"34.833328","longitude":"137.933334","country":"JP"},{"id":"1856667","name":"Mizunami","latitude":"35.366669","longitude":"137.250000","country":"JP"},{"id":"1856697","name":"Miyoshi","latitude":"35.083328","longitude":"137.066666","country":"JP"},{"id":"1856698","name":"Miyoshi","latitude":"34.799999","longitude":"132.850006","country":"JP"},{"id":"1856703","name":"Miyazu","latitude":"35.533329","longitude":"135.183334","country":"JP"},{"id":"1856717","name":"Miyazaki-shi","latitude":"31.911110","longitude":"131.423889","country":"JP"},{"id":"1856775","name":"Miyakonojo","latitude":"31.733330","longitude":"131.066666","country":"JP"},{"id":"1856798","name":"Miyajima","latitude":"34.301830","longitude":"132.326126","country":"JP"},{"id":"1856828","name":"Miyada","latitude":"33.716671","longitude":"130.666672","country":"JP"},{"id":"1856878","name":"Mitsuke","latitude":"37.533329","longitude":"138.933334","country":"JP"},{"id":"1856881","name":"Mitsukaido","latitude":"36.016670","longitude":"139.983337","country":"JP"},{"id":"1856938","name":"Mitake","latitude":"35.416672","longitude":"137.133331","country":"JP"},{"id":"1856942","name":"Mitaka-shi","latitude":"35.683510","longitude":"139.559631","country":"JP"},{"id":"1856977","name":"Mishima","latitude":"35.116669","longitude":"138.916672","country":"JP"},{"id":"1857046","name":"Mino","latitude":"34.826908","longitude":"135.470566","country":"JP"},{"id":"1857062","name":"Mino","latitude":"35.533329","longitude":"136.916672","country":"JP"},{"id":"1857144","name":"Minami-rinkan","latitude":"35.483330","longitude":"139.449997","country":"JP"},{"id":"1857208","name":"Minamata","latitude":"32.216671","longitude":"130.399994","country":"JP"},{"id":"1857209","name":"Minakuchi","latitude":"34.966671","longitude":"136.166672","country":"JP"},{"id":"1857260","name":"Mikuni","latitude":"36.217060","longitude":"136.151855","country":"JP"},{"id":"1857276","name":"Miki","latitude":"34.799999","longitude":"134.983337","country":"JP"},{"id":"1857334","name":"Mihara","latitude":"34.400002","longitude":"133.083328","country":"JP"},{"id":"1857379","name":"Mibu","latitude":"36.416672","longitude":"139.800003","country":"JP"},{"id":"1857403","name":"Menuma","latitude":"36.216671","longitude":"139.383331","country":"JP"},{"id":"1857470","name":"Matsuto","latitude":"36.516670","longitude":"136.566666","country":"JP"},{"id":"1857496","name":"Matsuzaka","latitude":"34.566669","longitude":"136.533325","country":"JP"},{"id":"1857519","name":"Matsumoto","latitude":"36.233330","longitude":"137.966675","country":"JP"},{"id":"1857550","name":"Matsue-shi","latitude":"35.472221","longitude":"133.050568","country":"JP"},{"id":"1857553","name":"Matsudo","latitude":"35.783329","longitude":"139.899994","country":"JP"},{"id":"1857560","name":"Matsubase","latitude":"32.650002","longitude":"130.666672","country":"JP"},{"id":"1857568","name":"Matsubara","latitude":"34.566669","longitude":"135.550003","country":"JP"},{"id":"1857594","name":"Masuda","latitude":"34.666672","longitude":"131.850006","country":"JP"},{"id":"1857651","name":"Maruoka","latitude":"36.153400","longitude":"136.270294","country":"JP"},{"id":"1857659","name":"Maruko","latitude":"36.316669","longitude":"138.266663","country":"JP"},{"id":"1857665","name":"Marugame","latitude":"34.283329","longitude":"133.783325","country":"JP"},{"id":"1857712","name":"Makurazaki","latitude":"31.266670","longitude":"130.316666","country":"JP"},{"id":"1857751","name":"Maki","latitude":"37.750000","longitude":"138.883331","country":"JP"},{"id":"1857766","name":"Maizuru","latitude":"35.450001","longitude":"135.333328","country":"JP"},{"id":"1857843","name":"Maebashi-shi","latitude":"36.391109","longitude":"139.060837","country":"JP"},{"id":"1857844","name":"Maebaru","latitude":"33.549999","longitude":"130.199997","country":"JP"},{"id":"1857871","name":"Machida","latitude":"35.540279","longitude":"139.450836","country":"JP"},{"id":"1857910","name":"Kyoto","latitude":"35.021069","longitude":"135.753845","country":"JP"},{"id":"1857968","name":"Kuwana","latitude":"35.066669","longitude":"136.699997","country":"JP"},{"id":"1858041","name":"Kushikino","latitude":"31.716669","longitude":"130.266663","country":"JP"},{"id":"1858067","name":"Kusatsu","latitude":"35.016670","longitude":"135.966675","country":"JP"},{"id":"1858088","name":"Kurume","latitude":"33.316669","longitude":"130.516663","country":"JP"},{"id":"1858249","name":"Kuroda","latitude":"35.349998","longitude":"136.783325","country":"JP"},{"id":"1858283","name":"Kurihashi","latitude":"36.133331","longitude":"139.699997","country":"JP"},{"id":"1858296","name":"Kure","latitude":"34.233330","longitude":"132.566666","country":"JP"},{"id":"1858301","name":"Kurayoshi","latitude":"35.433331","longitude":"133.816666","country":"JP"},{"id":"1858311","name":"Kurashiki","latitude":"34.583328","longitude":"133.766663","country":"JP"},{"id":"1858421","name":"Kumamoto-shi","latitude":"32.789719","longitude":"130.741669","country":"JP"},{"id":"1858428","name":"Kumagaya","latitude":"36.133331","longitude":"139.383331","country":"JP"},{"id":"1858445","name":"Kuki","latitude":"36.066669","longitude":"139.666672","country":"JP"},{"id":"1858498","name":"Kudamatsu","latitude":"34.000000","longitude":"131.866669","country":"JP"},{"id":"1858591","name":"Kozakai-cho","latitude":"34.799999","longitude":"137.358887","country":"JP"},{"id":"1858695","name":"Kosugi","latitude":"36.716671","longitude":"137.100006","country":"JP"},{"id":"1858729","name":"Koshigaya","latitude":"35.883331","longitude":"139.783325","country":"JP"},{"id":"1858756","name":"Kosai-shi","latitude":"34.718399","longitude":"137.531754","country":"JP"},{"id":"1858794","name":"Konosu","latitude":"36.049999","longitude":"139.516663","country":"JP"},{"id":"1858836","name":"Konan","latitude":"35.331650","longitude":"136.870422","country":"JP"},{"id":"1858858","name":"Komoro","latitude":"36.316669","longitude":"138.433334","country":"JP"},{"id":"1858866","name":"Komono","latitude":"35.000000","longitude":"136.516663","country":"JP"},{"id":"1858902","name":"Komatsushima","latitude":"34.000000","longitude":"134.583328","country":"JP"},{"id":"1858910","name":"Komatsu","latitude":"36.402630","longitude":"136.450882","country":"JP"},{"id":"1858926","name":"Komaki","latitude":"35.283329","longitude":"136.916672","country":"JP"},{"id":"1858964","name":"Kokubunji","latitude":"35.702221","longitude":"139.475555","country":"JP"},{"id":"1858972","name":"Kokubu","latitude":"31.733330","longitude":"130.766663","country":"JP"},{"id":"1859088","name":"Koganei","latitude":"35.691391","longitude":"139.501114","country":"JP"},{"id":"1859093","name":"Koga","latitude":"36.183331","longitude":"139.716675","country":"JP"},{"id":"1859094","name":"Koga","latitude":"33.733330","longitude":"130.466675","country":"JP"},{"id":"1859100","name":"Kofu-shi","latitude":"35.663891","longitude":"138.568329","country":"JP"},{"id":"1859113","name":"Kodama","latitude":"36.183331","longitude":"139.133331","country":"JP"},{"id":"1859116","name":"Kodaira","latitude":"35.726391","longitude":"139.483887","country":"JP"},{"id":"1859146","name":"Kochi-shi","latitude":"33.559719","longitude":"133.531113","country":"JP"},{"id":"1859171","name":"Kobe-shi","latitude":"34.691299","longitude":"135.182999","country":"JP"},{"id":"1859175","name":"Kobayashi","latitude":"31.983330","longitude":"130.983337","country":"JP"},{"id":"1859234","name":"Kitsuki","latitude":"33.416672","longitude":"131.616669","country":"JP"},{"id":"1859307","name":"Kitakyushu","latitude":"33.833328","longitude":"130.833328","country":"JP"},{"id":"1859319","name":"Kitakata","latitude":"37.650002","longitude":"139.866669","country":"JP"},{"id":"1859335","name":"Kitahama","latitude":"35.166672","longitude":"135.916672","country":"JP"},{"id":"1859383","name":"Kishiwada","latitude":"34.466671","longitude":"135.366669","country":"JP"},{"id":"1859393","name":"Kisarazu","latitude":"35.374722","longitude":"139.922501","country":"JP"},{"id":"1859400","name":"Kisai","latitude":"36.099998","longitude":"139.583328","country":"JP"},{"id":"1859405","name":"Kiryu","latitude":"36.400002","longitude":"139.333328","country":"JP"},{"id":"1859492","name":"Kikuchi","latitude":"32.983330","longitude":"130.816666","country":"JP"},{"id":"1859586","name":"Kazo","latitude":"36.116669","longitude":"139.600006","country":"JP"},{"id":"1859642","name":"Kawasaki","latitude":"35.520561","longitude":"139.717224","country":"JP"},{"id":"1859647","name":"Kawasaki","latitude":"33.583328","longitude":"130.833328","country":"JP"},{"id":"1859675","name":"Kawanishi","latitude":"34.816669","longitude":"135.416672","country":"JP"},{"id":"1859730","name":"Kawaguchi","latitude":"35.805000","longitude":"139.720566","country":"JP"},{"id":"1859740","name":"Kawagoe","latitude":"35.908611","longitude":"139.485275","country":"JP"},{"id":"1859765","name":"Katsuyama","latitude":"36.061729","longitude":"136.501007","country":"JP"},{"id":"1859884","name":"Kasukabe","latitude":"35.976391","longitude":"139.753616","country":"JP"},{"id":"1859891","name":"Kasugai","latitude":"35.247620","longitude":"136.972290","country":"JP"},{"id":"1859908","name":"Kashiwazaki","latitude":"37.366669","longitude":"138.550003","country":"JP"},{"id":"1859924","name":"Kashiwa","latitude":"35.854439","longitude":"139.968887","country":"JP"},{"id":"1859941","name":"Kashima","latitude":"33.106110","longitude":"130.090561","country":"JP"},{"id":"1859951","name":"Kashihara-shi","latitude":"34.508961","longitude":"135.792892","country":"JP"},{"id":"1859952","name":"Kashihara","latitude":"34.583328","longitude":"135.616669","country":"JP"},{"id":"1859964","name":"Kaseda","latitude":"31.416670","longitude":"130.316666","country":"JP"},{"id":"1859990","name":"Kasaoka","latitude":"34.500000","longitude":"133.500000","country":"JP"},{"id":"1859998","name":"Kasamatsucho","latitude":"35.366669","longitude":"136.766663","country":"JP"},{"id":"1860034","name":"Kariya","latitude":"34.983330","longitude":"136.983337","country":"JP"},{"id":"1860063","name":"Karatsu","latitude":"33.442501","longitude":"129.969727","country":"JP"},{"id":"1860095","name":"Kanzaki","latitude":"33.299999","longitude":"130.366669","country":"JP"},{"id":"1860098","name":"Kanuma","latitude":"36.549999","longitude":"139.733337","country":"JP"},{"id":"1860112","name":"Kanoya","latitude":"31.383329","longitude":"130.850006","country":"JP"},{"id":"1860122","name":"Kanonji","latitude":"34.116669","longitude":"133.649994","country":"JP"},{"id":"1860176","name":"Kannabe","latitude":"34.533329","longitude":"133.383331","country":"JP"},{"id":"1860191","name":"Kanie","latitude":"35.133331","longitude":"136.800003","country":"JP"},{"id":"1860211","name":"Kaneko","latitude":"36.400002","longitude":"139.000000","country":"JP"},{"id":"1860234","name":"Kanda","latitude":"33.783329","longitude":"130.983337","country":"JP"},{"id":"1860243","name":"Kanazawa-shi","latitude":"36.594440","longitude":"136.625565","country":"JP"},{"id":"1860256","name":"Kanaya","latitude":"34.816669","longitude":"138.133331","country":"JP"},{"id":"1860321","name":"Kamojima","latitude":"34.066669","longitude":"134.350006","country":"JP"},{"id":"1860335","name":"Kamogata","latitude":"34.533329","longitude":"133.583328","country":"JP"},{"id":"1860341","name":"Kamo","latitude":"37.650002","longitude":"139.050003","country":"JP"},{"id":"1860437","name":"Kami-renjaku","latitude":"35.683331","longitude":"139.550003","country":"JP"},{"id":"1860458","name":"Kaminokawa","latitude":"36.433331","longitude":"139.916672","country":"JP"},{"id":"1860563","name":"Kamiichi","latitude":"36.700001","longitude":"137.366669","country":"JP"},{"id":"1860626","name":"Kameyama","latitude":"34.849998","longitude":"136.449997","country":"JP"},{"id":"1860635","name":"Kameoka","latitude":"35.000000","longitude":"135.583328","country":"JP"},{"id":"1860648","name":"Kameda","latitude":"37.866669","longitude":"139.116669","country":"JP"},{"id":"1860672","name":"Kamakura","latitude":"35.308891","longitude":"139.550278","country":"JP"},{"id":"1860704","name":"Kakogawa","latitude":"34.766670","longitude":"134.850006","country":"JP"},{"id":"1860728","name":"Kakegawa","latitude":"34.766670","longitude":"138.016663","country":"JP"},{"id":"1860735","name":"Kakamigahara","latitude":"35.416672","longitude":"136.866669","country":"JP"},{"id":"1860748","name":"Kashima-shi","latitude":"35.965359","longitude":"140.644745","country":"JP"},{"id":"1860750","name":"Kajiki","latitude":"31.733330","longitude":"130.666672","country":"JP"},{"id":"1860765","name":"Kaizuka","latitude":"34.450001","longitude":"135.350006","country":"JP"},{"id":"1860785","name":"Kainan","latitude":"34.150002","longitude":"135.199997","country":"JP"},{"id":"1860827","name":"Kagoshima-shi","latitude":"31.560181","longitude":"130.558136","country":"JP"},{"id":"1860871","name":"Kadoma","latitude":"34.733330","longitude":"135.583328","country":"JP"},{"id":"1861084","name":"Izumo","latitude":"35.366669","longitude":"132.766663","country":"JP"},{"id":"1861095","name":"Izumiotsu","latitude":"34.500000","longitude":"135.399994","country":"JP"},{"id":"1861107","name":"Izumi","latitude":"34.483330","longitude":"135.433334","country":"JP"},{"id":"1861108","name":"Izumi","latitude":"32.083328","longitude":"130.366669","country":"JP"},{"id":"1861164","name":"Iwatsuki","latitude":"35.942780","longitude":"139.691940","country":"JP"},{"id":"1861171","name":"Iwata","latitude":"34.700001","longitude":"137.850006","country":"JP"},{"id":"1861207","name":"Iwakura","latitude":"35.283329","longitude":"136.866669","country":"JP"},{"id":"1861212","name":"Iwakuni","latitude":"34.150002","longitude":"132.183334","country":"JP"},{"id":"1861223","name":"Iwai","latitude":"36.049999","longitude":"139.899994","country":"JP"},{"id":"1861244","name":"Iwade","latitude":"34.250000","longitude":"135.316666","country":"JP"},{"id":"1861261","name":"Itsukaichi","latitude":"35.725281","longitude":"139.217773","country":"JP"},{"id":"1861280","name":"Itoman","latitude":"26.124720","longitude":"127.669441","country":"JP"},{"id":"1861285","name":"Itoigawa","latitude":"37.033329","longitude":"137.850006","country":"JP"},{"id":"1861290","name":"Ito","latitude":"34.966671","longitude":"139.083328","country":"JP"},{"id":"1861310","name":"Itami","latitude":"34.784271","longitude":"135.401260","country":"JP"},{"id":"1861383","name":"Ishiki","latitude":"34.799999","longitude":"137.016663","country":"JP"},{"id":"1861393","name":"Ishikawa","latitude":"26.423330","longitude":"127.821388","country":"JP"},{"id":"1861400","name":"Ishii","latitude":"34.066669","longitude":"134.433334","country":"JP"},{"id":"1861406","name":"Ishige","latitude":"36.116669","longitude":"139.966675","country":"JP"},{"id":"1861416","name":"Ishigaki","latitude":"24.344780","longitude":"124.157173","country":"JP"},{"id":"1861436","name":"Isesaki","latitude":"36.316669","longitude":"139.199997","country":"JP"},{"id":"1861449","name":"Isehara","latitude":"35.390560","longitude":"139.307785","country":"JP"},{"id":"1861450","name":"Ise","latitude":"34.483330","longitude":"136.699997","country":"JP"},{"id":"1861454","name":"Isawa","latitude":"35.650002","longitude":"138.633331","country":"JP"},{"id":"1861464","name":"Isahaya","latitude":"32.841110","longitude":"130.043060","country":"JP"},{"id":"1861528","name":"Inuyama","latitude":"35.379951","longitude":"136.942947","country":"JP"},{"id":"1861584","name":"Ino","latitude":"33.549999","longitude":"133.433334","country":"JP"},{"id":"1861586","name":"Innoshima","latitude":"34.283329","longitude":"133.183334","country":"JP"},{"id":"1861602","name":"Inazawa","latitude":"35.250000","longitude":"136.783325","country":"JP"},{"id":"1861641","name":"Ina","latitude":"35.827560","longitude":"137.953781","country":"JP"},{"id":"1861677","name":"Imari","latitude":"33.266670","longitude":"129.883331","country":"JP"},{"id":"1861699","name":"Imaichi","latitude":"36.716671","longitude":"139.683334","country":"JP"},{"id":"1861749","name":"Ikoma","latitude":"34.683331","longitude":"135.699997","country":"JP"},{"id":"1861795","name":"Ikeda","latitude":"34.822079","longitude":"135.429794","country":"JP"},{"id":"1861799","name":"Ikeda","latitude":"34.016670","longitude":"133.800003","country":"JP"},{"id":"1861825","name":"Ijuin","latitude":"31.616671","longitude":"130.399994","country":"JP"},{"id":"1861835","name":"Iizuka","latitude":"33.633331","longitude":"130.683334","country":"JP"},{"id":"1861838","name":"Iiyama","latitude":"36.849998","longitude":"138.366669","country":"JP"},{"id":"1861864","name":"Iida","latitude":"35.519650","longitude":"137.820740","country":"JP"},{"id":"1861901","name":"Iga","latitude":"34.768551","longitude":"136.130127","country":"JP"},{"id":"1861949","name":"Ichinomiya","latitude":"35.299999","longitude":"136.800003","country":"JP"},{"id":"1861968","name":"Ichikawa","latitude":"35.719719","longitude":"139.924713","country":"JP"},{"id":"1862010","name":"Ibusuki","latitude":"31.233330","longitude":"130.649994","country":"JP"},{"id":"1862033","name":"Ibaraki","latitude":"34.816410","longitude":"135.568283","country":"JP"},{"id":"1862034","name":"Ibara","latitude":"34.599998","longitude":"133.466675","country":"JP"},{"id":"1862098","name":"Hotaka","latitude":"36.339600","longitude":"137.882538","country":"JP"},{"id":"1862198","name":"Honjo","latitude":"36.233330","longitude":"139.183334","country":"JP"},{"id":"1862230","name":"Hondo","latitude":"32.450001","longitude":"130.199997","country":"JP"},{"id":"1862302","name":"Hofu","latitude":"34.049999","longitude":"131.566666","country":"JP"},{"id":"1862352","name":"Hitoyoshi","latitude":"32.216671","longitude":"130.750000","country":"JP"},{"id":"1862373","name":"Hita","latitude":"33.316669","longitude":"130.933334","country":"JP"},{"id":"1862389","name":"Hisai","latitude":"34.666672","longitude":"136.466675","country":"JP"},{"id":"1862415","name":"Hiroshima-shi","latitude":"34.396271","longitude":"132.459366","country":"JP"},{"id":"1862462","name":"Hiratsuka","latitude":"35.323059","longitude":"139.342224","country":"JP"},{"id":"1862471","name":"Hirata","latitude":"35.433331","longitude":"132.816666","country":"JP"},{"id":"1862505","name":"Hirara","latitude":"24.799999","longitude":"125.283333","country":"JP"},{"id":"1862540","name":"Hirakata","latitude":"34.813519","longitude":"135.649139","country":"JP"},{"id":"1862555","name":"Hirado","latitude":"33.359718","longitude":"129.553055","country":"JP"},{"id":"1862599","name":"Hino","latitude":"35.673061","longitude":"139.400284","country":"JP"},{"id":"1862601","name":"Hino","latitude":"35.000000","longitude":"136.250000","country":"JP"},{"id":"1862612","name":"Himi","latitude":"36.849998","longitude":"136.983337","country":"JP"},{"id":"1862627","name":"Himeji","latitude":"34.816669","longitude":"134.699997","country":"JP"},{"id":"1862636","name":"Hikone","latitude":"35.250000","longitude":"136.250000","country":"JP"},{"id":"1862689","name":"Hiji","latitude":"33.366669","longitude":"131.533325","country":"JP"},{"id":"1862912","name":"Hekinan","latitude":"34.883331","longitude":"136.983337","country":"JP"},{"id":"1862944","name":"Heda","latitude":"34.966671","longitude":"138.766663","country":"JP"},{"id":"1862992","name":"Hayama","latitude":"35.266670","longitude":"139.583328","country":"JP"},{"id":"1863018","name":"Hatsukaichi","latitude":"34.349998","longitude":"132.333328","country":"JP"},{"id":"1863023","name":"Hatogaya","latitude":"35.834171","longitude":"139.736389","country":"JP"},{"id":"1863082","name":"Hashimoto","latitude":"34.316669","longitude":"135.616669","country":"JP"},{"id":"1863173","name":"Hanyu","latitude":"36.166672","longitude":"139.533325","country":"JP"},{"id":"1863183","name":"Hanno","latitude":"35.851940","longitude":"139.318054","country":"JP"},{"id":"1863209","name":"Handa","latitude":"34.883331","longitude":"136.933334","country":"JP"},{"id":"1863279","name":"Hamanoichi","latitude":"31.716669","longitude":"130.733337","country":"JP"},{"id":"1863289","name":"Hamamatsu","latitude":"34.700001","longitude":"137.733337","country":"JP"},{"id":"1863293","name":"Hamakita","latitude":"34.799999","longitude":"137.783325","country":"JP"},{"id":"1863310","name":"Hamada","latitude":"34.883331","longitude":"132.083328","country":"JP"},{"id":"1863341","name":"Hakui","latitude":"36.883331","longitude":"136.783325","country":"JP"},{"id":"1863357","name":"Hakone","latitude":"35.183331","longitude":"139.033325","country":"JP"},{"id":"1863398","name":"Haibara","latitude":"34.533329","longitude":"135.949997","country":"JP"},{"id":"1863418","name":"Hagi","latitude":"34.400002","longitude":"131.416672","country":"JP"},{"id":"1863426","name":"Haebaru","latitude":"26.336941","longitude":"127.871941","country":"JP"},{"id":"1863431","name":"Hadano","latitude":"35.371109","longitude":"139.223618","country":"JP"},{"id":"1863440","name":"Hachioji","latitude":"35.655830","longitude":"139.323883","country":"JP"},{"id":"1863451","name":"Omihachiman","latitude":"35.128609","longitude":"136.097595","country":"JP"},{"id":"1863482","name":"Gyoda","latitude":"36.133331","longitude":"139.449997","country":"JP"},{"id":"1863495","name":"Gushikawa","latitude":"26.354441","longitude":"127.868607","country":"JP"},{"id":"1863521","name":"Gotsu","latitude":"35.000000","longitude":"132.216675","country":"JP"},{"id":"1863528","name":"Gotemba","latitude":"35.299999","longitude":"138.933334","country":"JP"},{"id":"1863540","name":"Gosen","latitude":"37.733330","longitude":"139.166672","country":"JP"},{"id":"1863541","name":"Gose","latitude":"34.450001","longitude":"135.733337","country":"JP"},{"id":"1863592","name":"Gojo","latitude":"34.349998","longitude":"135.699997","country":"JP"},{"id":"1863611","name":"Godo","latitude":"35.416672","longitude":"136.600006","country":"JP"},{"id":"1863614","name":"Gobo","latitude":"33.883331","longitude":"135.149994","country":"JP"},{"id":"1863627","name":"Ginowan","latitude":"26.262650","longitude":"127.761467","country":"JP"},{"id":"1863641","name":"Gifu-shi","latitude":"35.422909","longitude":"136.760391","country":"JP"},{"id":"1863693","name":"Gamagori","latitude":"34.833328","longitude":"137.233337","country":"JP"},{"id":"1863713","name":"Futtsu","latitude":"35.305279","longitude":"139.818604","country":"JP"},{"id":"1863905","name":"Funabashi","latitude":"35.693062","longitude":"139.983337","country":"JP"},{"id":"1863917","name":"Fukuyama","latitude":"34.483330","longitude":"133.366669","country":"JP"},{"id":"1863945","name":"Fukuroi","latitude":"34.750000","longitude":"137.916672","country":"JP"},{"id":"1863953","name":"Fukura","latitude":"34.250000","longitude":"134.716675","country":"JP"},{"id":"1863967","name":"Fukuoka-shi","latitude":"33.606392","longitude":"130.418060","country":"JP"},{"id":"1863973","name":"Fukumitsu","latitude":"36.549999","longitude":"136.866669","country":"JP"},{"id":"1863978","name":"Fukuma","latitude":"33.766670","longitude":"130.466675","country":"JP"},{"id":"1863985","name":"Fukui-shi","latitude":"36.064430","longitude":"136.222565","country":"JP"},{"id":"1863997","name":"Fukue","latitude":"32.688061","longitude":"128.841934","country":"JP"},{"id":"1864009","name":"Fukuchiyama","latitude":"35.299999","longitude":"135.116669","country":"JP"},{"id":"1864025","name":"Fukiage","latitude":"36.099998","longitude":"139.449997","country":"JP"},{"id":"1864031","name":"Fukaya","latitude":"36.200001","longitude":"139.283325","country":"JP"},{"id":"1864092","name":"Fujisawa","latitude":"35.341942","longitude":"139.470001","country":"JP"},{"id":"1864098","name":"Fujioka","latitude":"36.250000","longitude":"139.649994","country":"JP"},{"id":"1864099","name":"Fujioka","latitude":"36.250000","longitude":"139.083328","country":"JP"},{"id":"1864105","name":"Fujinomiya","latitude":"35.216671","longitude":"138.616669","country":"JP"},{"id":"1864132","name":"Fujieda","latitude":"34.866669","longitude":"138.266663","country":"JP"},{"id":"1864134","name":"Fuji","latitude":"35.166672","longitude":"138.683334","country":"JP"},{"id":"1864154","name":"Fuchu","latitude":"35.666672","longitude":"139.483337","country":"JP"},{"id":"1864155","name":"Fuchu","latitude":"34.566669","longitude":"133.233337","country":"JP"},{"id":"1864180","name":"Enzan","latitude":"35.700001","longitude":"138.733337","country":"JP"},{"id":"1864416","name":"Daito","latitude":"34.700001","longitude":"135.616669","country":"JP"},{"id":"1864518","name":"Chofu","latitude":"35.655560","longitude":"139.552216","country":"JP"},{"id":"1864549","name":"Chiryu","latitude":"35.000000","longitude":"137.033325","country":"JP"},{"id":"1864557","name":"Chino","latitude":"35.994400","longitude":"138.154282","country":"JP"},{"id":"1864572","name":"Chikushino-shi","latitude":"33.496311","longitude":"130.515594","country":"JP"},{"id":"1864624","name":"Chigasaki","latitude":"35.326111","longitude":"139.403885","country":"JP"},{"id":"1864637","name":"Chichibu","latitude":"35.990280","longitude":"139.076385","country":"JP"},{"id":"1864652","name":"Chatan","latitude":"26.309441","longitude":"127.770279","country":"JP"},{"id":"1864750","name":"Beppu","latitude":"33.273609","longitude":"131.491943","country":"JP"},{"id":"1864873","name":"Ayabe","latitude":"35.299999","longitude":"135.250000","country":"JP"},{"id":"1864945","name":"Atami","latitude":"35.089439","longitude":"139.068604","country":"JP"},{"id":"1864985","name":"Ashiya","latitude":"34.728069","longitude":"135.302643","country":"JP"},{"id":"1865005","name":"Ashikaga","latitude":"36.333328","longitude":"139.449997","country":"JP"},{"id":"1865207","name":"Arai","latitude":"37.016670","longitude":"138.250000","country":"JP"},{"id":"1865290","name":"Annaka","latitude":"36.316669","longitude":"138.899994","country":"JP"},{"id":"1865294","name":"Anjo","latitude":"34.958279","longitude":"137.080536","country":"JP"},{"id":"1865309","name":"Anan","latitude":"33.916672","longitude":"134.649994","country":"JP"},{"id":"1865375","name":"Amagi","latitude":"33.416672","longitude":"130.649994","country":"JP"},{"id":"1865387","name":"Amagasaki","latitude":"34.716671","longitude":"135.416672","country":"JP"},{"id":"1865401","name":"Akune","latitude":"32.016670","longitude":"130.199997","country":"JP"},{"id":"1865412","name":"Ako","latitude":"34.750000","longitude":"134.399994","country":"JP"},{"id":"1865449","name":"Aki","latitude":"33.500000","longitude":"133.899994","country":"JP"},{"id":"1865661","name":"Aioi-shi","latitude":"34.803612","longitude":"134.468063","country":"JP"},{"id":"1865714","name":"Ageo","latitude":"35.969719","longitude":"139.588608","country":"JP"},{"id":"1894616","name":"Okinawa","latitude":"26.335831","longitude":"127.801392","country":"JP"},{"id":"1895695","name":"Kushima","latitude":"31.458330","longitude":"131.233337","country":"JP"},{"id":"1896348","name":"Hikari","latitude":"33.955002","longitude":"131.949997","country":"JP"},{"id":"1897590","name":"Kaita","latitude":"34.366669","longitude":"132.550003","country":"JP"},{"id":"1899102","name":"Nagato","latitude":"34.383331","longitude":"131.199997","country":"JP"},{"id":"1907123","name":"Hasuda","latitude":"35.975559","longitude":"139.650833","country":"JP"},{"id":"1907125","name":"Kamifukuoka","latitude":"35.872501","longitude":"139.509720","country":"JP"},{"id":"1907146","name":"Sayama","latitude":"35.852951","longitude":"139.412125","country":"JP"},{"id":"1907148","name":"Fussa","latitude":"35.736671","longitude":"139.323608","country":"JP"},{"id":"1907165","name":"Kunitachi","latitude":"35.674438","longitude":"139.434998","country":"JP"},{"id":"1907299","name":"Asaka","latitude":"35.804722","longitude":"139.601944","country":"JP"},{"id":"1907300","name":"Wako","latitude":"35.789440","longitude":"139.623337","country":"JP"},{"id":"1907301","name":"Toda","latitude":"35.809441","longitude":"139.692505","country":"JP"},{"id":"1907306","name":"Komae","latitude":"35.636391","longitude":"139.574432","country":"JP"},{"id":"1907307","name":"Kimitsu","latitude":"35.325279","longitude":"139.891113","country":"JP"},{"id":"1907309","name":"Miura","latitude":"35.139999","longitude":"139.619171","country":"JP"},{"id":"1926004","name":"Wakayama-shi","latitude":"34.226109","longitude":"135.167496","country":"JP"},{"id":"1926006","name":"Iyo","latitude":"33.751389","longitude":"132.701385","country":"JP"},{"id":"1926020","name":"Uwajima","latitude":"33.223751","longitude":"132.560013","country":"JP"},{"id":"1926054","name":"Saijo","latitude":"33.916672","longitude":"133.183334","country":"JP"},{"id":"1926055","name":"Ozu","latitude":"33.500000","longitude":"132.550003","country":"JP"},{"id":"1926099","name":"Matsuyama-shi","latitude":"33.839161","longitude":"132.765747","country":"JP"},{"id":"1926101","name":"Masaki-cho","latitude":"33.787571","longitude":"132.711243","country":"JP"},{"id":"1926116","name":"Kawanoe","latitude":"34.016670","longitude":"133.566666","country":"JP"},{"id":"1926142","name":"Hojo","latitude":"33.976608","longitude":"132.777664","country":"JP"},{"id":"2110460","name":"Yuzawa","latitude":"39.166672","longitude":"140.500000","country":"JP"},{"id":"2110480","name":"Yotsukaido","latitude":"35.650002","longitude":"140.166672","country":"JP"},{"id":"2110498","name":"Yonezawa","latitude":"37.916672","longitude":"140.116669","country":"JP"},{"id":"2110506","name":"Yokote","latitude":"39.299999","longitude":"140.566666","country":"JP"},{"id":"2110518","name":"Yokaichiba","latitude":"35.700001","longitude":"140.550003","country":"JP"},{"id":"2110538","name":"Yanagawa","latitude":"37.849998","longitude":"140.600006","country":"JP"},{"id":"2110541","name":"Yamoto","latitude":"38.427380","longitude":"141.214874","country":"JP"},{"id":"2110556","name":"Yamagata-shi","latitude":"38.240559","longitude":"140.363327","country":"JP"},{"id":"2110560","name":"Yamada","latitude":"39.466671","longitude":"141.949997","country":"JP"},{"id":"2110579","name":"Yachimata","latitude":"35.650002","longitude":"140.316666","country":"JP"},{"id":"2110586","name":"Watari","latitude":"38.035000","longitude":"140.851105","country":"JP"},{"id":"2110596","name":"Wakuya","latitude":"38.533329","longitude":"141.133331","country":"JP"},{"id":"2110629","name":"Ushiku","latitude":"35.966671","longitude":"140.133331","country":"JP"},{"id":"2110683","name":"Tsukuba","latitude":"36.200001","longitude":"140.100006","country":"JP"},{"id":"2110729","name":"Toride","latitude":"35.900002","longitude":"140.083328","country":"JP"},{"id":"2110735","name":"Tono","latitude":"39.316669","longitude":"141.533325","country":"JP"},{"id":"2110743","name":"Tomobe","latitude":"36.349998","longitude":"140.300003","country":"JP"},{"id":"2110744","name":"Tomiya","latitude":"38.393059","longitude":"140.886108","country":"JP"},{"id":"2110774","name":"Togane","latitude":"35.549999","longitude":"140.366669","country":"JP"},{"id":"2110793","name":"Tendo","latitude":"38.353611","longitude":"140.369720","country":"JP"},{"id":"2110891","name":"Takahata","latitude":"38.002499","longitude":"140.191116","country":"JP"},{"id":"2110893","name":"Takahagi","latitude":"36.716671","longitude":"140.716675","country":"JP"},{"id":"2110959","name":"Sukagawa","latitude":"37.283329","longitude":"140.383331","country":"JP"},{"id":"2110994","name":"Shizukuishi","latitude":"39.683331","longitude":"140.983337","country":"JP"},{"id":"2111008","name":"Shisui","latitude":"35.716671","longitude":"140.266663","country":"JP"},{"id":"2111016","name":"Shiroishi","latitude":"38.003330","longitude":"140.618332","country":"JP"},{"id":"2111018","name":"Shiroi","latitude":"35.799999","longitude":"140.066666","country":"JP"},{"id":"2111049","name":"Shiogama","latitude":"38.316669","longitude":"141.033325","country":"JP"},{"id":"2111065","name":"Shinjo","latitude":"38.758610","longitude":"140.300827","country":"JP"},{"id":"2111149","name":"Sendai-shi","latitude":"38.268890","longitude":"140.871933","country":"JP"},{"id":"2111173","name":"Sawara","latitude":"35.883331","longitude":"140.500000","country":"JP"},{"id":"2111220","name":"Sakura","latitude":"35.716671","longitude":"140.233337","country":"JP"},{"id":"2111248","name":"Sagae","latitude":"38.372501","longitude":"140.272507","country":"JP"},{"id":"2111258","name":"Ryugasaki","latitude":"35.900002","longitude":"140.183334","country":"JP"},{"id":"2111277","name":"Rifu","latitude":"38.323608","longitude":"140.974442","country":"JP"},{"id":"2111310","name":"Otsuchi","latitude":"39.366669","longitude":"141.899994","country":"JP"},{"id":"2111325","name":"Otawara","latitude":"36.866669","longitude":"140.033325","country":"JP"},{"id":"2111425","name":"Omiya","latitude":"36.549999","longitude":"140.416672","country":"JP"},{"id":"2111429","name":"Omigawa","latitude":"35.849998","longitude":"140.616669","country":"JP"},{"id":"2111435","name":"Omagari","latitude":"39.450001","longitude":"140.483337","country":"JP"},{"id":"2111441","name":"Okunoya","latitude":"36.283329","longitude":"140.416672","country":"JP"},{"id":"2111461","name":"Okawara","latitude":"38.049999","longitude":"140.733612","country":"JP"},{"id":"2111495","name":"Ohara","latitude":"35.250000","longitude":"140.383331","country":"JP"},{"id":"2111530","name":"Ofunato","latitude":"39.071671","longitude":"141.716675","country":"JP"},{"id":"2111559","name":"Obanazawa","latitude":"38.603329","longitude":"140.401947","country":"JP"},{"id":"2111567","name":"Oarai","latitude":"36.316669","longitude":"140.600006","country":"JP"},{"id":"2111568","name":"Oami","latitude":"35.516670","longitude":"140.316666","country":"JP"},{"id":"2111656","name":"Nihommatsu","latitude":"37.583328","longitude":"140.433334","country":"JP"},{"id":"2111677","name":"Naruto","latitude":"35.599998","longitude":"140.416672","country":"JP"},{"id":"2111684","name":"Narita","latitude":"35.783329","longitude":"140.316666","country":"JP"},{"id":"2111687","name":"Narashino","latitude":"35.683331","longitude":"140.033325","country":"JP"},{"id":"2111704","name":"Namie","latitude":"37.483330","longitude":"141.000000","country":"JP"},{"id":"2111749","name":"Naka","latitude":"36.049999","longitude":"140.166672","country":"JP"},{"id":"2111781","name":"Nagai","latitude":"38.103611","longitude":"140.035004","country":"JP"},{"id":"2111824","name":"Motomiya","latitude":"37.516670","longitude":"140.399994","country":"JP"},{"id":"2111827","name":"Motegi","latitude":"36.516670","longitude":"140.183334","country":"JP"},{"id":"2111831","name":"Moriya","latitude":"35.933331","longitude":"140.000000","country":"JP"},{"id":"2111834","name":"Morioka-shi","latitude":"39.703609","longitude":"141.152496","country":"JP"},{"id":"2111836","name":"Mooka","latitude":"36.433331","longitude":"140.016663","country":"JP"},{"id":"2111855","name":"Mobara","latitude":"35.416672","longitude":"140.300003","country":"JP"},{"id":"2111859","name":"Mizusawa","latitude":"39.133331","longitude":"141.133331","country":"JP"},{"id":"2111884","name":"Miyako","latitude":"39.636669","longitude":"141.952499","country":"JP"},{"id":"2111901","name":"Mito-shi","latitude":"36.341389","longitude":"140.446671","country":"JP"},{"id":"2111943","name":"Miharu","latitude":"37.433331","longitude":"140.483337","country":"JP"},{"id":"2111964","name":"Matsushima","latitude":"38.373569","longitude":"141.061050","country":"JP"},{"id":"2111999","name":"Mashiko","latitude":"36.466671","longitude":"140.100006","country":"JP"},{"id":"2112008","name":"Marumori","latitude":"37.916672","longitude":"140.766663","country":"JP"},{"id":"2112019","name":"Makabe","latitude":"36.266670","longitude":"140.100006","country":"JP"},{"id":"2112077","name":"Kuroiso","latitude":"36.966671","longitude":"140.050003","country":"JP"},{"id":"2112141","name":"Koriyama","latitude":"37.400002","longitude":"140.383331","country":"JP"},{"id":"2112182","name":"Kogota","latitude":"38.549999","longitude":"141.050003","country":"JP"},{"id":"2112227","name":"Kitakami","latitude":"39.283329","longitude":"141.116669","country":"JP"},{"id":"2112232","name":"Kitaibaraki","latitude":"36.783329","longitude":"140.750000","country":"JP"},{"id":"2112297","name":"Kawaguchi","latitude":"35.099998","longitude":"140.100006","country":"JP"},{"id":"2112309","name":"Katsuura","latitude":"35.133331","longitude":"140.300003","country":"JP"},{"id":"2112312","name":"Katsuta","latitude":"36.383331","longitude":"140.533325","country":"JP"},{"id":"2112319","name":"Katori-shi","latitude":"35.897671","longitude":"140.499435","country":"JP"},{"id":"2112343","name":"Kasama","latitude":"36.383331","longitude":"140.266663","country":"JP"},{"id":"2112354","name":"Karasuyama","latitude":"36.650002","longitude":"140.149994","country":"JP"},{"id":"2112409","name":"Kaminoyama","latitude":"38.153889","longitude":"140.273605","country":"JP"},{"id":"2112444","name":"Kamaishi","latitude":"39.266670","longitude":"141.883331","country":"JP"},{"id":"2112454","name":"Kakudate","latitude":"39.583328","longitude":"140.566666","country":"JP"},{"id":"2112455","name":"Kakuda","latitude":"37.966671","longitude":"140.783325","country":"JP"},{"id":"2112521","name":"Iwase","latitude":"36.349998","longitude":"140.100006","country":"JP"},{"id":"2112527","name":"Iwanuma","latitude":"38.104721","longitude":"140.859436","country":"JP"},{"id":"2112539","name":"Iwaki","latitude":"37.049999","longitude":"140.883331","country":"JP"},{"id":"2112555","name":"Itako","latitude":"35.933331","longitude":"140.550003","country":"JP"},{"id":"2112571","name":"Ishioka","latitude":"36.183331","longitude":"140.266663","country":"JP"},{"id":"2112576","name":"Ishinomaki","latitude":"38.416672","longitude":"141.300003","country":"JP"},{"id":"2112583","name":"Ishikawa","latitude":"37.150002","longitude":"140.449997","country":"JP"},{"id":"2112615","name":"Inawashiro","latitude":"37.566669","longitude":"140.116669","country":"JP"},{"id":"2112656","name":"Ichinoseki","latitude":"38.916672","longitude":"141.133331","country":"JP"},{"id":"2112664","name":"Ichihara","latitude":"35.516670","longitude":"140.083328","country":"JP"},{"id":"2112692","name":"Hobara","latitude":"37.816669","longitude":"140.550003","country":"JP"},{"id":"2112708","name":"Hitachi","latitude":"36.599998","longitude":"140.649994","country":"JP"},{"id":"2112758","name":"Higashine","latitude":"38.438889","longitude":"140.400558","country":"JP"},{"id":"2112802","name":"Hasaki","latitude":"35.733330","longitude":"140.833328","country":"JP"},{"id":"2112823","name":"Hanamaki","latitude":"39.383331","longitude":"141.116669","country":"JP"},{"id":"2112899","name":"Furukawa","latitude":"38.571671","longitude":"140.955566","country":"JP"},{"id":"2112903","name":"Funehiki","latitude":"37.433331","longitude":"140.583328","country":"JP"},{"id":"2112913","name":"Funaishikawa","latitude":"36.466671","longitude":"140.566666","country":"JP"},{"id":"2112923","name":"Fukushima-shi","latitude":"37.750000","longitude":"140.467773","country":"JP"},{"id":"2112940","name":"Fujishiro","latitude":"35.916672","longitude":"140.116669","country":"JP"},{"id":"2112963","name":"Edosaki","latitude":"35.950001","longitude":"140.316666","country":"JP"},{"id":"2112989","name":"Daigo","latitude":"36.766670","longitude":"140.350006","country":"JP"},{"id":"2113015","name":"Chiba-shi","latitude":"35.604721","longitude":"140.123337","country":"JP"},{"id":"2113077","name":"Asahi","latitude":"35.716671","longitude":"140.649994","country":"JP"},{"id":"2113115","name":"Ami","latitude":"36.033329","longitude":"140.199997","country":"JP"},{"id":"2113126","name":"Akita","latitude":"39.716671","longitude":"140.116669","country":"JP"},{"id":"2113164","name":"Abiko","latitude":"35.866669","longitude":"140.016663","country":"JP"},{"id":"2113719","name":"Akita Shi","latitude":"39.718060","longitude":"140.103333","country":"JP"},{"id":"2127383","name":"Bihoro","latitude":"43.822781","longitude":"144.104446","country":"JP"},{"id":"2127515","name":"Wakkanai","latitude":"45.409439","longitude":"141.673889","country":"JP"},{"id":"2127545","name":"Utashinai","latitude":"43.516670","longitude":"142.050003","country":"JP"},{"id":"2127733","name":"Tomakomai","latitude":"42.636940","longitude":"141.603333","country":"JP"},{"id":"2127802","name":"Tobetsu","latitude":"43.216942","longitude":"141.516937","country":"JP"},{"id":"2127878","name":"Mutsu","latitude":"41.289440","longitude":"141.216934","country":"JP"},{"id":"2127896","name":"Takikawa","latitude":"43.552780","longitude":"141.906387","country":"JP"},{"id":"2127910","name":"Takanosu","latitude":"40.221939","longitude":"140.369446","country":"JP"},{"id":"2127955","name":"Sunagawa","latitude":"43.486389","longitude":"141.905563","country":"JP"},{"id":"2128025","name":"Shizunai","latitude":"42.333889","longitude":"142.366943","country":"JP"},{"id":"2128072","name":"Shiraoi","latitude":"42.549999","longitude":"141.350006","country":"JP"},{"id":"2128147","name":"Shimo-furano","latitude":"43.349998","longitude":"142.383331","country":"JP"},{"id":"2128206","name":"Shibetsu","latitude":"43.658989","longitude":"145.131973","country":"JP"},{"id":"2128295","name":"Sapporo-shi","latitude":"43.064171","longitude":"141.346939","country":"JP"},{"id":"2128382","name":"Rumoi","latitude":"43.934441","longitude":"141.642776","country":"JP"},{"id":"2128558","name":"Otofuke","latitude":"42.991669","longitude":"143.200287","country":"JP"},{"id":"2128574","name":"Otaru","latitude":"43.189442","longitude":"141.002213","country":"JP"},{"id":"2128787","name":"Odate","latitude":"40.268608","longitude":"140.568329","country":"JP"},{"id":"2128815","name":"Obihiro","latitude":"42.917221","longitude":"143.204437","country":"JP"},{"id":"2128867","name":"Noshiro","latitude":"40.203892","longitude":"140.024170","country":"JP"},{"id":"2128975","name":"Nemuro","latitude":"43.323608","longitude":"145.574997","country":"JP"},{"id":"2128983","name":"Nayoro","latitude":"44.350559","longitude":"142.457779","country":"JP"},{"id":"2129003","name":"Nanae","latitude":"41.883331","longitude":"140.683334","country":"JP"},{"id":"2129005","name":"Namioka","latitude":"40.707218","longitude":"140.589447","country":"JP"},{"id":"2129101","name":"Muroran","latitude":"42.317219","longitude":"140.988068","country":"JP"},{"id":"2129163","name":"Mombetsu","latitude":"44.352501","longitude":"143.352493","country":"JP"},{"id":"2129211","name":"Misawa","latitude":"40.683609","longitude":"141.359726","country":"JP"},{"id":"2129218","name":"Yoichi","latitude":"43.203892","longitude":"140.770279","country":"JP"},{"id":"2129324","name":"Makubetsu","latitude":"45.371391","longitude":"141.821106","country":"JP"},{"id":"2129376","name":"Kushiro","latitude":"42.974998","longitude":"144.374725","country":"JP"},{"id":"2129395","name":"Kuroishi","latitude":"40.638889","longitude":"140.592224","country":"JP"},{"id":"2129513","name":"Kizukuri","latitude":"40.806110","longitude":"140.386108","country":"JP"},{"id":"2129537","name":"Kitami","latitude":"43.803059","longitude":"143.890823","country":"JP"},{"id":"2129761","name":"Kamikawa","latitude":"43.840000","longitude":"142.771103","country":"JP"},{"id":"2129766","name":"Kamiiso","latitude":"41.816669","longitude":"140.649994","country":"JP"},{"id":"2129868","name":"Iwanai","latitude":"42.974442","longitude":"140.508896","country":"JP"},{"id":"2129870","name":"Iwamizawa","latitude":"43.200279","longitude":"141.759720","country":"JP"},{"id":"2129909","name":"Ishikari","latitude":"43.239719","longitude":"141.353897","country":"JP"},{"id":"2129961","name":"Ichinohe","latitude":"40.206940","longitude":"141.301666","country":"JP"},{"id":"2130054","name":"Kitahiroshima","latitude":"42.975830","longitude":"141.567215","country":"JP"},{"id":"2130057","name":"Hirosaki","latitude":"40.593060","longitude":"140.472504","country":"JP"},{"id":"2130146","name":"Kazuno","latitude":"40.183609","longitude":"140.787216","country":"JP"},{"id":"2130188","name":"Hakodate","latitude":"41.775829","longitude":"140.736664","country":"JP"},{"id":"2130203","name":"Hachinohe","latitude":"40.500000","longitude":"141.500000","country":"JP"},{"id":"2130332","name":"Fukagawa","latitude":"43.708061","longitude":"142.039169","country":"JP"},{"id":"2130404","name":"Ebetsu","latitude":"43.108059","longitude":"141.550568","country":"JP"},{"id":"2130421","name":"Date","latitude":"42.468060","longitude":"140.868057","country":"JP"},{"id":"2130452","name":"Chitose","latitude":"42.819439","longitude":"141.652222","country":"JP"},{"id":"2130534","name":"Bibai","latitude":"43.324718","longitude":"141.858612","country":"JP"},{"id":"2130612","name":"Ashibetsu","latitude":"43.509720","longitude":"142.185562","country":"JP"},{"id":"2130629","name":"Asahikawa","latitude":"43.767780","longitude":"142.370285","country":"JP"},{"id":"2130658","name":"Aomori-shi","latitude":"40.824440","longitude":"140.740005","country":"JP"},{"id":"2130705","name":"Akabira","latitude":"43.551392","longitude":"142.053055","country":"JP"},{"id":"2130741","name":"Abashiri","latitude":"44.021271","longitude":"144.269714","country":"JP"},{"id":"2131612","name":"Goshogawara","latitude":"40.804440","longitude":"140.441391","country":"JP"},{"id":"6417596","name":"Koya","latitude":"34.212940","longitude":"135.622437","country":"JP"},{"id":"6691616","name":"Kihoku-cho","latitude":"33.255920","longitude":"132.683426","country":"JP"},{"id":"6694821","name":"Nanto-shi","latitude":"36.569221","longitude":"136.911621","country":"JP"},{"id":"6696932","name":"Kawage","latitude":"34.804470","longitude":"136.546448","country":"JP"},{"id":"6697514","name":"Asahi","latitude":"35.972591","longitude":"136.124557","country":"JP"},{"id":"6697563","name":"Neyagawa","latitude":"34.766151","longitude":"135.627594","country":"JP"},{"id":"6822096","name":"Hitachi-Naka","latitude":"36.396591","longitude":"140.534790","country":"JP"},{"id":"6822108","name":"Inashiki","latitude":"35.956329","longitude":"140.323563","country":"JP"},{"id":"6822131","name":"Akiruno-shi","latitude":"35.728779","longitude":"139.294144","country":"JP"},{"id":"6822146","name":"Onojo","latitude":"33.535671","longitude":"130.478607","country":"JP"},{"id":"6822181","name":"Kamagaya-shi","latitude":"35.776741","longitude":"140.000748","country":"JP"},{"id":"6822217","name":"Minokamo","latitude":"35.481991","longitude":"137.021667","country":"JP"},{"id":"6822219","name":"Gujo","latitude":"35.736912","longitude":"136.958527","country":"JP"},{"id":"6825489","name":"Joetsu","latitude":"37.148281","longitude":"138.236420","country":"JP"},{"id":"6940394","name":"Saitama","latitude":"35.908070","longitude":"139.656570","country":"JP"},{"id":"6941783","name":"Niseko Town","latitude":"42.778709","longitude":"140.669037","country":"JP"},{"id":"7279570","name":"Higashimurayama-shi","latitude":"35.754589","longitude":"139.468521","country":"JP"},{"id":"7279571","name":"Kunisaki-shi","latitude":"33.565430","longitude":"131.731567","country":"JP"},{"id":"7281819","name":"Fujikawaguchiko","latitude":"35.489330","longitude":"138.688324","country":"JP"},{"id":"7303387","name":"Rishiri Town","latitude":"45.159279","longitude":"141.196289","country":"JP"},{"id":"8125829","name":"Kamigyo-ku","latitude":"35.029541","longitude":"135.756653","country":"JP"},{"id":"8198709","name":"Buzen","latitude":"33.611530","longitude":"131.130020","country":"JP"},{"id":"8198710","name":"Yoshitomi","latitude":"33.602470","longitude":"131.175995","country":"JP"}]