[{"id":"2353197","name":"Zorgho","latitude":"12.248890","longitude":"-0.615830","country":"BF"},{"id":"2353257","name":"Ziniare","latitude":"12.582220","longitude":"-1.298330","country":"BF"},{"id":"2353688","name":"Yako","latitude":"12.966670","longitude":"-2.266670","country":"BF"},{"id":"2354176","name":"Tougan","latitude":"13.066670","longitude":"-3.066670","country":"BF"},{"id":"2354265","name":"Toma","latitude":"12.766670","longitude":"-2.883330","country":"BF"},{"id":"2354349","name":"Titao","latitude":"13.766670","longitude":"-2.066670","country":"BF"},{"id":"2354675","name":"Tenkodogo","latitude":"11.780000","longitude":"-0.369720","country":"BF"},{"id":"2355404","name":"Salanso","latitude":"12.183330","longitude":"-4.083330","country":"BF"},{"id":"2355548","name":"Sindou","latitude":"10.666670","longitude":"-5.166670","country":"BF"},{"id":"2355869","name":"Sapouy","latitude":"11.554440","longitude":"-1.773610","country":"BF"},{"id":"2356228","name":"Reo","latitude":"12.316670","longitude":"-2.466670","country":"BF"},{"id":"2356454","name":"Po","latitude":"11.169720","longitude":"-1.145000","country":"BF"},{"id":"2356459","name":"Pitmoaga","latitude":"12.239720","longitude":"-1.876670","country":"BF"},{"id":"2356738","name":"Pama","latitude":"11.249720","longitude":"0.707500","country":"BF"},{"id":"2357012","name":"Ouargaye","latitude":"11.503330","longitude":"0.057220","country":"BF"},{"id":"2357043","name":"Ouahigouya","latitude":"13.582780","longitude":"-2.421580","country":"BF"},{"id":"2357048","name":"Ouagadougou","latitude":"12.364230","longitude":"-1.538340","country":"BF"},{"id":"2357163","name":"Nouna","latitude":"12.733330","longitude":"-3.866670","country":"BF"},{"id":"2358100","name":"Manga","latitude":"11.663610","longitude":"-1.073060","country":"BF"},{"id":"2358382","name":"Leo","latitude":"11.100000","longitude":"-2.100000","country":"BF"},{"id":"2358738","name":"Koupela","latitude":"12.179440","longitude":"-0.351670","country":"BF"},{"id":"2358946","name":"Koudougou","latitude":"12.250000","longitude":"-2.366670","country":"BF"},{"id":"2359142","name":"Kongoussi","latitude":"13.325830","longitude":"-1.534720","country":"BF"},{"id":"2359227","name":"Kombissiri","latitude":"12.065560","longitude":"-1.337500","country":"BF"},{"id":"2359317","name":"Kokologo","latitude":"12.189720","longitude":"-1.885560","country":"BF"},{"id":"2359608","name":"Kaya","latitude":"13.091670","longitude":"-1.084440","country":"BF"},{"id":"2360073","name":"Hounde","latitude":"11.500000","longitude":"-3.516670","country":"BF"},{"id":"2360238","name":"Gourcy","latitude":"13.216670","longitude":"-2.350000","country":"BF"},{"id":"2360286","name":"Gouloure","latitude":"12.230560","longitude":"-1.928890","country":"BF"},{"id":"2360372","name":"Gorom Gorom","latitude":"14.443890","longitude":"-0.236110","country":"BF"},{"id":"2360541","name":"Gayeri","latitude":"12.649720","longitude":"0.493060","country":"BF"},{"id":"2360615","name":"Garango","latitude":"11.800000","longitude":"-0.550560","country":"BF"},{"id":"2360886","name":"Fada NGourma","latitude":"12.062220","longitude":"0.357780","country":"BF"},{"id":"2361082","name":"Dori","latitude":"14.035400","longitude":"-0.034500","country":"BF"},{"id":"2361177","name":"Djibo","latitude":"14.102220","longitude":"-1.630560","country":"BF"},{"id":"2361342","name":"Diebougou","latitude":"10.966670","longitude":"-3.250000","country":"BF"},{"id":"2361373","name":"Diapaga","latitude":"12.070830","longitude":"1.788890","country":"BF"},{"id":"2361477","name":"Dedougou","latitude":"12.466670","longitude":"-3.466670","country":"BF"},{"id":"2361586","name":"Dano","latitude":"11.150000","longitude":"-3.066670","country":"BF"},{"id":"2361845","name":"Bousse","latitude":"12.660560","longitude":"-1.892220","country":"BF"},{"id":"2361946","name":"Boulsa","latitude":"12.667500","longitude":"-0.575830","country":"BF"},{"id":"2362150","name":"Boromo","latitude":"11.750000","longitude":"-2.933330","country":"BF"},{"id":"2362323","name":"Bogande","latitude":"12.971390","longitude":"-0.143610","country":"BF"},{"id":"2362344","name":"Bobo-Dioulasso","latitude":"11.177150","longitude":"-4.297900","country":"BF"},{"id":"2362669","name":"Batie","latitude":"9.883330","longitude":"-2.916670","country":"BF"},{"id":"2362909","name":"Banfora","latitude":"10.633330","longitude":"-4.766670","country":"BF"},{"id":"2577162","name":"Gaoua","latitude":"10.299170","longitude":"-3.250830","country":"BF"},{"id":"2577164","name":"Orodara","latitude":"10.949170","longitude":"-4.934170","country":"BF"}]