[{"id":"325579","name":"Ziway","latitude":"7.933330","longitude":"38.716671","country":"ET"},{"id":"325780","name":"Yirga Alem","latitude":"6.750000","longitude":"38.416672","country":"ET"},{"id":"326036","name":"Yabelo","latitude":"4.883330","longitude":"38.083328","country":"ET"},{"id":"326206","name":"Werota","latitude":"11.916670","longitude":"37.700001","country":"ET"},{"id":"326259","name":"Were Ilu","latitude":"10.600000","longitude":"39.433331","country":"ET"},{"id":"326308","name":"Wenji","latitude":"8.450000","longitude":"39.283329","country":"ET"},{"id":"326321","name":"Wendo","latitude":"6.600000","longitude":"38.416672","country":"ET"},{"id":"327234","name":"Tulu Bolo","latitude":"8.666670","longitude":"38.216671","country":"ET"},{"id":"327694","name":"Tippi","latitude":"7.200000","longitude":"35.450001","country":"ET"},{"id":"328316","name":"Sirre","latitude":"8.316670","longitude":"39.483330","country":"ET"},{"id":"328689","name":"Shashemene","latitude":"7.200000","longitude":"38.599998","country":"ET"},{"id":"328709","name":"Shambu","latitude":"9.566670","longitude":"37.099998","country":"ET"},{"id":"328716","name":"Shakiso","latitude":"5.750000","longitude":"38.916672","country":"ET"},{"id":"328880","name":"Sendafa","latitude":"9.150000","longitude":"39.033329","country":"ET"},{"id":"329114","name":"Sebeta","latitude":"8.916670","longitude":"38.616669","country":"ET"},{"id":"329586","name":"Robit","latitude":"12.016670","longitude":"39.633331","country":"ET"},{"id":"330120","name":"Nejo","latitude":"9.500000","longitude":"35.500000","country":"ET"},{"id":"330186","name":"Nazret","latitude":"8.550000","longitude":"39.266670","country":"ET"},{"id":"330491","name":"Mojo","latitude":"8.600000","longitude":"39.116669","country":"ET"},{"id":"330534","name":"Mizan Teferi","latitude":"6.983330","longitude":"35.583328","country":"ET"},{"id":"330764","name":"Metu","latitude":"8.300000","longitude":"35.583328","country":"ET"},{"id":"330811","name":"Metahara","latitude":"8.900000","longitude":"39.916672","country":"ET"},{"id":"331038","name":"Mendi","latitude":"9.800000","longitude":"35.099998","country":"ET"},{"id":"331180","name":"Mekele","latitude":"13.496670","longitude":"39.475281","country":"ET"},{"id":"331259","name":"Mega","latitude":"4.050000","longitude":"38.299999","country":"ET"},{"id":"331416","name":"Maychew","latitude":"12.787500","longitude":"39.542221","country":"ET"},{"id":"331968","name":"Lobuni","latitude":"4.833330","longitude":"36.099998","country":"ET"},{"id":"332129","name":"Leku","latitude":"6.866670","longitude":"38.450001","country":"ET"},{"id":"332288","name":"Lalibela","latitude":"12.033330","longitude":"39.033329","country":"ET"},{"id":"332746","name":"Korem","latitude":"12.505830","longitude":"39.522781","country":"ET"},{"id":"332817","name":"Konso","latitude":"5.250000","longitude":"37.483330","country":"ET"},{"id":"332880","name":"Kolito","latitude":"7.316670","longitude":"38.083328","country":"ET"},{"id":"332938","name":"Kofele","latitude":"7.066670","longitude":"38.783329","country":"ET"},{"id":"333103","name":"Kibre Mengist","latitude":"5.883330","longitude":"38.983330","country":"ET"},{"id":"333356","name":"Kemise","latitude":"10.716670","longitude":"39.866669","country":"ET"},{"id":"333373","name":"Kombolcha","latitude":"11.081550","longitude":"39.743389","country":"ET"},{"id":"333750","name":"Jinka","latitude":"5.650000","longitude":"36.650002","country":"ET"},{"id":"333772","name":"Jima","latitude":"7.666670","longitude":"36.833328","country":"ET"},{"id":"333795","name":"Jijiga","latitude":"9.350000","longitude":"42.799999","country":"ET"},{"id":"334227","name":"Inda Silase","latitude":"14.103070","longitude":"38.282890","country":"ET"},{"id":"334529","name":"Huruta","latitude":"8.150000","longitude":"39.349998","country":"ET"},{"id":"334700","name":"Hirna","latitude":"9.216670","longitude":"41.099998","country":"ET"},{"id":"335035","name":"Harer","latitude":"9.309440","longitude":"42.125832","country":"ET"},{"id":"335286","name":"Hagere Selam","latitude":"6.483330","longitude":"38.516670","country":"ET"},{"id":"335288","name":"Hagere Hiywet","latitude":"8.983330","longitude":"37.849998","country":"ET"},{"id":"335733","name":"Guder","latitude":"8.966670","longitude":"37.766670","country":"ET"},{"id":"335943","name":"Gore","latitude":"8.150000","longitude":"35.533329","country":"ET"},{"id":"336014","name":"Gonder","latitude":"12.600000","longitude":"37.466671","country":"ET"},{"id":"336350","name":"Goba","latitude":"7.016670","longitude":"39.983330","country":"ET"},{"id":"336372","name":"Giyon","latitude":"8.533330","longitude":"37.983330","country":"ET"},{"id":"336454","name":"Ginir","latitude":"7.133330","longitude":"40.700001","country":"ET"},{"id":"336496","name":"Gimbi","latitude":"9.166670","longitude":"35.833328","country":"ET"},{"id":"336526","name":"Gidole","latitude":"5.650000","longitude":"37.366669","country":"ET"},{"id":"336745","name":"Gewane","latitude":"10.166390","longitude":"40.645279","country":"ET"},{"id":"336931","name":"Genet","latitude":"9.066670","longitude":"38.500000","country":"ET"},{"id":"337010","name":"Gelemso","latitude":"8.816670","longitude":"40.516670","country":"ET"},{"id":"337083","name":"Gedo","latitude":"9.016670","longitude":"37.450001","country":"ET"},{"id":"337152","name":"Gebre Guracha","latitude":"9.800000","longitude":"38.400002","country":"ET"},{"id":"337405","name":"Gambela","latitude":"8.250000","longitude":"34.583328","country":"ET"},{"id":"337712","name":"Finote Selam","latitude":"10.700000","longitude":"37.266670","country":"ET"},{"id":"337771","name":"Fiche","latitude":"9.800000","longitude":"38.733330","country":"ET"},{"id":"337853","name":"Felege Neway","latitude":"6.300000","longitude":"36.883331","country":"ET"},{"id":"338554","name":"Dubti","latitude":"11.736110","longitude":"41.085281","country":"ET"},{"id":"338726","name":"Dodola","latitude":"6.983330","longitude":"39.183331","country":"ET"},{"id":"338832","name":"Dire Dawa","latitude":"9.593060","longitude":"41.866112","country":"ET"},{"id":"338998","name":"Dila","latitude":"6.416670","longitude":"38.316669","country":"ET"},{"id":"339219","name":"Dese","latitude":"11.133330","longitude":"39.633331","country":"ET"},{"id":"339448","name":"Dembi Dolo","latitude":"8.533330","longitude":"34.799999","country":"ET"},{"id":"339551","name":"Dejen","latitude":"10.166670","longitude":"38.133331","country":"ET"},{"id":"339629","name":"Deder","latitude":"9.316670","longitude":"41.450001","country":"ET"},{"id":"339666","name":"Debre Zeyit","latitude":"8.750000","longitude":"38.983330","country":"ET"},{"id":"339671","name":"Debre Werk","latitude":"10.666670","longitude":"38.166672","country":"ET"},{"id":"339686","name":"Debre Tabor","latitude":"11.850000","longitude":"38.016670","country":"ET"},{"id":"339692","name":"Debre Sina","latitude":"9.850000","longitude":"39.766670","country":"ET"},{"id":"339708","name":"Debre Markos","latitude":"10.350000","longitude":"37.733330","country":"ET"},{"id":"339734","name":"Debre Birhan","latitude":"9.683330","longitude":"39.533329","country":"ET"},{"id":"339823","name":"Debark","latitude":"13.156110","longitude":"37.898060","country":"ET"},{"id":"340358","name":"Dabat","latitude":"12.984170","longitude":"37.764999","country":"ET"},{"id":"341297","name":"Butajira","latitude":"8.116670","longitude":"38.366669","country":"ET"},{"id":"341397","name":"Bure","latitude":"10.700000","longitude":"37.066669","country":"ET"},{"id":"341742","name":"Bonga","latitude":"7.283330","longitude":"36.233330","country":"ET"},{"id":"341877","name":"Boditi","latitude":"6.966670","longitude":"37.866669","country":"ET"},{"id":"342190","name":"Bichena","latitude":"10.450000","longitude":"38.200001","country":"ET"},{"id":"342559","name":"Bedesa","latitude":"8.900000","longitude":"40.783329","country":"ET"},{"id":"342567","name":"Bedele","latitude":"8.456000","longitude":"36.353020","country":"ET"},{"id":"342641","name":"Bati","latitude":"11.183330","longitude":"40.016670","country":"ET"},{"id":"342856","name":"Bako","latitude":"5.783330","longitude":"36.566669","country":"ET"},{"id":"342884","name":"Bahir Dar","latitude":"11.593640","longitude":"37.390770","country":"ET"},{"id":"343134","name":"Awash","latitude":"8.983330","longitude":"40.166672","country":"ET"},{"id":"343137","name":"Hawassa","latitude":"7.050000","longitude":"38.466671","country":"ET"},{"id":"343292","name":"Asosa","latitude":"10.066670","longitude":"34.533329","country":"ET"},{"id":"343402","name":"Asbe Teferi","latitude":"9.083330","longitude":"40.866669","country":"ET"},{"id":"343409","name":"Asaita","latitude":"11.563610","longitude":"41.439442","country":"ET"},{"id":"343413","name":"Asasa","latitude":"7.100000","longitude":"39.200001","country":"ET"},{"id":"343593","name":"Areka","latitude":"7.066670","longitude":"37.700001","country":"ET"},{"id":"343663","name":"Arba Minch","latitude":"6.033330","longitude":"37.549999","country":"ET"},{"id":"344420","name":"Aksum","latitude":"14.124480","longitude":"38.724442","country":"ET"},{"id":"344620","name":"Hagere Maryam","latitude":"5.633330","longitude":"38.233330","country":"ET"},{"id":"344661","name":"Agaro","latitude":"7.850000","longitude":"36.650002","country":"ET"},{"id":"344923","name":"Adis Zemen","latitude":"12.116670","longitude":"37.783329","country":"ET"},{"id":"344976","name":"Adis Alem","latitude":"9.033330","longitude":"38.400002","country":"ET"},{"id":"344979","name":"Addis Ababa","latitude":"9.024970","longitude":"38.746891","country":"ET"},{"id":"345149","name":"Adigrat","latitude":"14.277000","longitude":"39.462002","country":"ET"},{"id":"345353","name":"Addiet Canna","latitude":"11.266670","longitude":"37.483330","country":"ET"},{"id":"345704","name":"Abomsa","latitude":"9.983330","longitude":"39.983330","country":"ET"}]