[{"id":"1252408","name":"Trongsa","latitude":"27.502600","longitude":"90.507156","country":"BT"},{"id":"1252416","name":"Thimphu","latitude":"27.466089","longitude":"89.641907","country":"BT"},{"id":"1252422","name":"Trashi Yangtse","latitude":"27.611601","longitude":"91.498001","country":"BT"},{"id":"1252433","name":"Daga","latitude":"27.075291","longitude":"89.876877","country":"BT"},{"id":"1252484","name":"Phuntsholing","latitude":"26.851641","longitude":"89.388367","country":"BT"},{"id":"1252490","name":"Paro","latitude":"27.430500","longitude":"89.413338","country":"BT"},{"id":"1252495","name":"Pajo","latitude":"27.533331","longitude":"89.883331","country":"BT"},{"id":"1252514","name":"Mongar","latitude":"27.274710","longitude":"91.239632","country":"BT"}]