[{"id":"295781","name":"Demre","latitude":"36.244438","longitude":"29.985001","country":"TR"},{"id":"295982","name":"Zara","latitude":"39.897781","longitude":"37.758331","country":"TR"},{"id":"296134","name":"Yunak","latitude":"38.814178","longitude":"31.732241","country":"TR"},{"id":"296138","name":"Yumurtalik","latitude":"36.766670","longitude":"35.783329","country":"TR"},{"id":"296173","name":"Yuksekova","latitude":"37.573620","longitude":"44.287159","country":"TR"},{"id":"296247","name":"Yukarisalat","latitude":"37.840000","longitude":"40.894169","country":"TR"},{"id":"296562","name":"Yozgat","latitude":"39.820000","longitude":"34.804440","country":"TR"},{"id":"296644","name":"Yolbasi","latitude":"37.388920","longitude":"41.317131","country":"TR"},{"id":"296653","name":"Yolagzi","latitude":"37.524841","longitude":"41.353569","country":"TR"},{"id":"296791","name":"Yesilyurt","latitude":"38.297218","longitude":"38.249722","country":"TR"},{"id":"296823","name":"Yesilova","latitude":"37.508060","longitude":"29.754721","country":"TR"},{"id":"296832","name":"Yesilli","latitude":"37.340500","longitude":"40.825581","country":"TR"},{"id":"296852","name":"Erzin","latitude":"36.955891","longitude":"36.200001","country":"TR"},{"id":"296860","name":"Yesilhisar","latitude":"38.349720","longitude":"35.086670","country":"TR"},{"id":"296885","name":"Yesilalan","latitude":"37.463520","longitude":"40.788120","country":"TR"},{"id":"296895","name":"Yerkoy","latitude":"39.638062","longitude":"34.467220","country":"TR"},{"id":"296942","name":"Yenisarbademli","latitude":"37.707779","longitude":"31.386391","country":"TR"},{"id":"296950","name":"Yenipazar","latitude":"37.824188","longitude":"28.197170","country":"TR"},{"id":"297027","name":"Yenikoy","latitude":"37.881111","longitude":"41.049721","country":"TR"},{"id":"297090","name":"Didim","latitude":"37.375561","longitude":"27.267780","country":"TR"},{"id":"297099","name":"Yenifakili","latitude":"39.211418","longitude":"35.000359","country":"TR"},{"id":"297119","name":"Altpinar","latitude":"39.204170","longitude":"32.747780","country":"TR"},{"id":"297148","name":"Yenice","latitude":"39.760899","longitude":"28.907280","country":"TR"},{"id":"297371","name":"Yazihan","latitude":"38.594719","longitude":"38.180000","country":"TR"},{"id":"297461","name":"Yayladere","latitude":"39.226139","longitude":"40.069500","country":"TR"},{"id":"297466","name":"Yayladagi","latitude":"35.902500","longitude":"36.062721","country":"TR"},{"id":"297532","name":"Yavuzeli","latitude":"37.317719","longitude":"37.568241","country":"TR"},{"id":"297564","name":"Yatagan","latitude":"37.340260","longitude":"28.142790","country":"TR"},{"id":"297628","name":"Yarma","latitude":"37.811489","longitude":"32.882778","country":"TR"},{"id":"297789","name":"Yalvac","latitude":"38.295559","longitude":"31.177780","country":"TR"},{"id":"297839","name":"Yalihuyuk","latitude":"37.300770","longitude":"32.085480","country":"TR"},{"id":"297917","name":"Yahyali","latitude":"38.102280","longitude":"35.357040","country":"TR"},{"id":"298033","name":"Viransehir","latitude":"37.235279","longitude":"39.763062","country":"TR"},{"id":"298088","name":"Varto","latitude":"39.173210","longitude":"41.455929","country":"TR"},{"id":"298117","name":"Van","latitude":"38.492390","longitude":"43.383110","country":"TR"},{"id":"298198","name":"Uzungecit","latitude":"37.494720","longitude":"42.993328","country":"TR"},{"id":"298230","name":"Cimin","latitude":"39.710110","longitude":"39.702129","country":"TR"},{"id":"298299","name":"Usak","latitude":"38.673512","longitude":"29.405800","country":"TR"},{"id":"298316","name":"Urla","latitude":"38.322922","longitude":"26.764030","country":"TR"},{"id":"298326","name":"Urgub","latitude":"38.629601","longitude":"34.911980","country":"TR"},{"id":"298333","name":"Sanliurfa","latitude":"37.167080","longitude":"38.793919","country":"TR"},{"id":"298378","name":"Uluyatir","latitude":"36.963329","longitude":"37.693611","country":"TR"},{"id":"298433","name":"Uludere","latitude":"37.445000","longitude":"42.861671","country":"TR"},{"id":"298451","name":"Uluborlu","latitude":"38.077782","longitude":"30.457220","country":"TR"},{"id":"298454","name":"Ulubey","latitude":"38.419868","longitude":"29.291290","country":"TR"},{"id":"298471","name":"Ulas","latitude":"39.444920","longitude":"37.039001","country":"TR"},{"id":"298485","name":"Ula","latitude":"37.104912","longitude":"28.416670","country":"TR"},{"id":"298533","name":"Kerh","latitude":"37.825241","longitude":"40.543610","country":"TR"},{"id":"298647","name":"Tuzlukcu","latitude":"38.477779","longitude":"31.626390","country":"TR"},{"id":"298728","name":"Tut","latitude":"37.795292","longitude":"37.916100","country":"TR"},{"id":"298806","name":"Turgutlu","latitude":"38.495331","longitude":"27.699699","country":"TR"},{"id":"298846","name":"Tunceli","latitude":"39.108292","longitude":"39.547112","country":"TR"},{"id":"298882","name":"Tufanbeyli","latitude":"38.263329","longitude":"36.220558","country":"TR"},{"id":"298935","name":"Torbali","latitude":"38.151901","longitude":"27.362230","country":"TR"},{"id":"298977","name":"Toprakkale","latitude":"37.068550","longitude":"36.146610","country":"TR"},{"id":"299054","name":"Tomarza","latitude":"38.447220","longitude":"35.799171","country":"TR"},{"id":"299137","name":"Tire","latitude":"38.088772","longitude":"27.735081","country":"TR"},{"id":"299268","name":"Tercan","latitude":"39.779442","longitude":"40.392502","country":"TR"},{"id":"299413","name":"Tekman","latitude":"39.643608","longitude":"41.507778","country":"TR"},{"id":"299445","name":"Tekirova","latitude":"36.501701","longitude":"30.527229","country":"TR"},{"id":"299499","name":"Tefenni","latitude":"37.309681","longitude":"29.775379","country":"TR"},{"id":"299545","name":"Tavsanli","latitude":"39.542370","longitude":"29.498659","country":"TR"},{"id":"299575","name":"Tavas","latitude":"37.573509","longitude":"29.070580","country":"TR"},{"id":"299582","name":"Tatvan","latitude":"38.506672","longitude":"42.281670","country":"TR"},{"id":"299701","name":"Taslicay","latitude":"39.633610","longitude":"43.375000","country":"TR"},{"id":"299755","name":"Taskent","latitude":"36.924301","longitude":"32.491310","country":"TR"},{"id":"299817","name":"Tarsus","latitude":"36.918758","longitude":"34.878399","country":"TR"},{"id":"299900","name":"Talas","latitude":"38.690800","longitude":"35.553799","country":"TR"},{"id":"300030","name":"Pavlu Cebel","latitude":"37.500580","longitude":"30.947760","country":"TR"},{"id":"300058","name":"Susurluk","latitude":"39.913609","longitude":"28.157780","country":"TR"},{"id":"300075","name":"Suruc","latitude":"36.976139","longitude":"38.424950","country":"TR"},{"id":"300087","name":"Avine","latitude":"37.584999","longitude":"40.737221","country":"TR"},{"id":"300141","name":"Sulusaray","latitude":"39.993889","longitude":"36.084042","country":"TR"},{"id":"300195","name":"Sultanhisar","latitude":"37.889721","longitude":"28.157499","country":"TR"},{"id":"300201","name":"Sultandagi","latitude":"38.531109","longitude":"31.228060","country":"TR"},{"id":"300273","name":"Suhut","latitude":"38.531109","longitude":"30.545830","country":"TR"},{"id":"300352","name":"Sorgun","latitude":"39.810120","longitude":"35.185959","country":"TR"},{"id":"300371","name":"Soma","latitude":"39.185539","longitude":"27.609449","country":"TR"},{"id":"300377","name":"Solhan","latitude":"38.963379","longitude":"41.029308","country":"TR"},{"id":"300399","name":"Soeke","latitude":"37.748199","longitude":"27.406139","country":"TR"},{"id":"300438","name":"Kindirip","latitude":"37.447029","longitude":"41.221039","country":"TR"},{"id":"300593","name":"Sivrihisar","latitude":"39.450371","longitude":"31.534090","country":"TR"},{"id":"300601","name":"Sivrice","latitude":"38.448158","longitude":"39.308449","country":"TR"},{"id":"300614","name":"Siverek","latitude":"37.755020","longitude":"39.316669","country":"TR"},{"id":"300616","name":"Sivasli","latitude":"38.499439","longitude":"29.683611","country":"TR"},{"id":"300619","name":"Sivas","latitude":"39.748329","longitude":"37.016109","country":"TR"},{"id":"300632","name":"Sirvan","latitude":"38.062401","longitude":"42.029179","country":"TR"},{"id":"300635","name":"Tililan","latitude":"37.377781","longitude":"42.033890","country":"TR"},{"id":"300640","name":"Sirnak","latitude":"37.522781","longitude":"42.459438","country":"TR"},{"id":"300732","name":"Sindirgi","latitude":"39.241280","longitude":"28.178419","country":"TR"},{"id":"300743","name":"Sincik","latitude":"38.036751","longitude":"38.614868","country":"TR"},{"id":"300754","name":"Sincanli","latitude":"38.744438","longitude":"30.242781","country":"TR"},{"id":"300791","name":"Simav","latitude":"39.088200","longitude":"28.977671","country":"TR"},{"id":"300796","name":"Silvan","latitude":"38.141941","longitude":"41.008060","country":"TR"},{"id":"300797","name":"Silopi","latitude":"37.249722","longitude":"42.469440","country":"TR"},{"id":"300808","name":"Silifke","latitude":"36.377781","longitude":"33.934441","country":"TR"},{"id":"300822","name":"Siirt","latitude":"37.932621","longitude":"41.940250","country":"TR"},{"id":"300920","name":"Seyitgazi","latitude":"39.444721","longitude":"30.694719","country":"TR"},{"id":"301010","name":"Seydisehir","latitude":"37.419258","longitude":"31.845270","country":"TR"},{"id":"301101","name":"Serik","latitude":"36.916939","longitude":"31.098890","country":"TR"},{"id":"301116","name":"Sereflikochisar","latitude":"38.939251","longitude":"33.538601","country":"TR"},{"id":"301158","name":"Senyurt","latitude":"37.078861","longitude":"40.644081","country":"TR"},{"id":"301161","name":"Senoba","latitude":"37.461941","longitude":"42.713058","country":"TR"},{"id":"301167","name":"Ebish","latitude":"37.463902","longitude":"41.190571","country":"TR"},{"id":"301172","name":"Senirkent","latitude":"38.104439","longitude":"30.548611","country":"TR"},{"id":"301209","name":"Semdinli","latitude":"37.305141","longitude":"44.574200","country":"TR"},{"id":"301238","name":"Side","latitude":"36.766720","longitude":"31.388519","country":"TR"},{"id":"301251","name":"Selendi","latitude":"38.744438","longitude":"28.867781","country":"TR"},{"id":"301256","name":"Selcuk","latitude":"37.951370","longitude":"27.368490","country":"TR"},{"id":"301290","name":"Sekili","latitude":"36.978329","longitude":"37.673328","country":"TR"},{"id":"301350","name":"Seferihisar","latitude":"38.196861","longitude":"26.839020","country":"TR"},{"id":"301353","name":"Sefaatli","latitude":"39.504299","longitude":"34.756302","country":"TR"},{"id":"301431","name":"Savur","latitude":"37.538841","longitude":"40.887680","country":"TR"},{"id":"301453","name":"Savastepe","latitude":"39.383190","longitude":"27.656120","country":"TR"},{"id":"301483","name":"Sason","latitude":"38.336441","longitude":"41.413021","country":"TR"},{"id":"301492","name":"Saruhanli","latitude":"38.734550","longitude":"27.568110","country":"TR"},{"id":"301529","name":"Sarmansuyu","latitude":"38.418030","longitude":"43.236488","country":"TR"},{"id":"301537","name":"Sarkisla","latitude":"39.351860","longitude":"36.409760","country":"TR"},{"id":"301539","name":"Sarkikaraagac","latitude":"38.079441","longitude":"31.366390","country":"TR"},{"id":"301546","name":"Sariz","latitude":"38.479172","longitude":"36.498981","country":"TR"},{"id":"301566","name":"Sariyahsi","latitude":"38.983490","longitude":"33.841358","country":"TR"},{"id":"301567","name":"Sariveliler","latitude":"36.691299","longitude":"32.619579","country":"TR"},{"id":"301609","name":"Sarioglan","latitude":"39.076939","longitude":"35.966709","country":"TR"},{"id":"301731","name":"Sarigol","latitude":"38.239529","longitude":"28.696630","country":"TR"},{"id":"301824","name":"Sarayonu","latitude":"38.262009","longitude":"32.404572","country":"TR"},{"id":"301827","name":"Saraykoy","latitude":"37.924480","longitude":"28.925159","country":"TR"},{"id":"301829","name":"Saraykent","latitude":"39.693611","longitude":"35.511108","country":"TR"},{"id":"301884","name":"Saphane","latitude":"39.027302","longitude":"29.222179","country":"TR"},{"id":"301911","name":"Sandikli","latitude":"38.464722","longitude":"30.269461","country":"TR"},{"id":"301943","name":"Samsat","latitude":"37.581940","longitude":"38.474171","country":"TR"},{"id":"302043","name":"Salihli","latitude":"38.482578","longitude":"28.147739","country":"TR"},{"id":"302150","name":"Saimbeyli","latitude":"37.986320","longitude":"36.090561","country":"TR"},{"id":"302355","name":"Reyhanli","latitude":"36.269169","longitude":"36.567219","country":"TR"},{"id":"302401","name":"Refahiye","latitude":"39.900829","longitude":"38.766670","country":"TR"},{"id":"302482","name":"Pozanti","latitude":"37.427780","longitude":"34.871670","country":"TR"},{"id":"302525","name":"Polatli","latitude":"39.577160","longitude":"32.141319","country":"TR"},{"id":"302645","name":"Pinardere","latitude":"37.472881","longitude":"40.822128","country":"TR"},{"id":"302667","name":"Pinarbasi","latitude":"38.722851","longitude":"36.393139","country":"TR"},{"id":"302720","name":"Pervari","latitude":"37.935730","longitude":"42.549271","country":"TR"},{"id":"302724","name":"Pertek","latitude":"38.866329","longitude":"39.326839","country":"TR"},{"id":"302781","name":"Pazaryeri","latitude":"39.993950","longitude":"29.904240","country":"TR"},{"id":"302787","name":"Pazarlar","latitude":"38.994999","longitude":"29.125830","country":"TR"},{"id":"302800","name":"Pazarcik","latitude":"37.486851","longitude":"37.299610","country":"TR"},{"id":"302819","name":"Patnos","latitude":"39.233608","longitude":"42.863441","country":"TR"},{"id":"302824","name":"Pasinler","latitude":"39.980309","longitude":"41.676350","country":"TR"},{"id":"302903","name":"Pamukkale","latitude":"37.916439","longitude":"29.117290","country":"TR"},{"id":"302912","name":"Palu","latitude":"38.691669","longitude":"39.928890","country":"TR"},{"id":"303022","name":"Ozalp","latitude":"38.654770","longitude":"43.993011","country":"TR"},{"id":"303046","name":"Oymatas","latitude":"37.799068","longitude":"41.020828","country":"TR"},{"id":"303062","name":"Oyali","latitude":"37.228889","longitude":"41.740559","country":"TR"},{"id":"303092","name":"Ovakavagi","latitude":"37.710789","longitude":"32.934818","country":"TR"},{"id":"303147","name":"Otlukbeli","latitude":"39.973961","longitude":"40.023720","country":"TR"},{"id":"303195","name":"Osmaniye","latitude":"37.074169","longitude":"36.247780","country":"TR"},{"id":"303290","name":"Ortakoy","latitude":"38.737282","longitude":"34.038658","country":"TR"},{"id":"303305","name":"Ortakoy","latitude":"37.222149","longitude":"40.785172","country":"TR"},{"id":"303353","name":"Ortaca","latitude":"37.473610","longitude":"41.550560","country":"TR"},{"id":"303354","name":"Ortaca","latitude":"36.829441","longitude":"28.770830","country":"TR"},{"id":"303357","name":"Ortabag","latitude":"37.395828","longitude":"42.913609","country":"TR"},{"id":"303409","name":"Orhaneli","latitude":"39.903332","longitude":"28.990561","country":"TR"},{"id":"303532","name":"Omerli","latitude":"37.402222","longitude":"40.954090","country":"TR"},{"id":"303642","name":"Oguzeli","latitude":"36.965721","longitude":"37.513390","country":"TR"},{"id":"303648","name":"Oguz","latitude":"37.177631","longitude":"40.954369","country":"TR"},{"id":"303700","name":"Hypaepa","latitude":"38.227798","longitude":"27.969549","country":"TR"},{"id":"303750","name":"Nusaybin","latitude":"37.077801","longitude":"41.217800","country":"TR"},{"id":"303763","name":"Nurhak","latitude":"37.962879","longitude":"37.420231","country":"TR"},{"id":"303798","name":"Nizip","latitude":"37.009720","longitude":"37.794170","country":"TR"},{"id":"303827","name":"Nigde","latitude":"37.965832","longitude":"34.679352","country":"TR"},{"id":"303831","name":"Nevsehir","latitude":"38.625000","longitude":"34.712219","country":"TR"},{"id":"303872","name":"Nazimiye","latitude":"39.179859","longitude":"39.828430","country":"TR"},{"id":"303873","name":"Nazilli","latitude":"37.916309","longitude":"28.322250","country":"TR"},{"id":"304009","name":"Mutki","latitude":"38.409439","longitude":"41.918610","country":"TR"},{"id":"304013","name":"Mut","latitude":"36.643890","longitude":"33.438850","country":"TR"},{"id":"304078","name":"Musabeyli","latitude":"36.886391","longitude":"36.918610","country":"TR"},{"id":"304081","name":"Mus","latitude":"38.745251","longitude":"41.506931","country":"TR"},{"id":"304110","name":"Muratli","latitude":"36.961670","longitude":"40.100559","country":"TR"},{"id":"304184","name":"Mugla","latitude":"37.218071","longitude":"28.366501","country":"TR"},{"id":"304196","name":"Mucur","latitude":"39.061470","longitude":"34.382858","country":"TR"},{"id":"304349","name":"Balveren","latitude":"37.483330","longitude":"42.546940","country":"TR"},{"id":"304355","name":"Milas","latitude":"37.316391","longitude":"27.783890","country":"TR"},{"id":"304382","name":"Midyat","latitude":"37.424702","longitude":"41.339340","country":"TR"},{"id":"304414","name":"Mezrea","latitude":"37.662571","longitude":"43.188850","country":"TR"},{"id":"304531","name":"Mercin","latitude":"36.795261","longitude":"34.617920","country":"TR"},{"id":"304612","name":"Menemen","latitude":"38.607540","longitude":"27.069380","country":"TR"},{"id":"304734","name":"Mazidagi","latitude":"37.477501","longitude":"40.488060","country":"TR"},{"id":"304738","name":"Mazgirt","latitude":"39.020039","longitude":"39.606041","country":"TR"},{"id":"304782","name":"Marmaris","latitude":"36.855000","longitude":"28.274170","country":"TR"},{"id":"304797","name":"Mardin","latitude":"37.313091","longitude":"40.743568","country":"TR"},{"id":"304827","name":"Manisa","latitude":"38.612019","longitude":"27.426460","country":"TR"},{"id":"304854","name":"Manavgat","latitude":"36.786671","longitude":"31.443060","country":"TR"},{"id":"304916","name":"Malazgirt","latitude":"39.142651","longitude":"42.540081","country":"TR"},{"id":"304922","name":"Malatya","latitude":"38.350182","longitude":"38.316669","country":"TR"},{"id":"305089","name":"Lice","latitude":"38.459171","longitude":"40.647499","country":"TR"},{"id":"305182","name":"Kuyulusebil","latitude":"38.653889","longitude":"32.529720","country":"TR"},{"id":"305210","name":"Kuyucak","latitude":"37.913300","longitude":"28.459169","country":"TR"},{"id":"305268","name":"Kutahya","latitude":"39.424171","longitude":"29.983330","country":"TR"},{"id":"305359","name":"Kusadasi","latitude":"37.855621","longitude":"27.256599","country":"TR"},{"id":"305532","name":"Kurtalan","latitude":"37.927170","longitude":"41.702820","country":"TR"},{"id":"305680","name":"Beykonak","latitude":"36.325729","longitude":"30.303020","country":"TR"},{"id":"305699","name":"Kumcati","latitude":"37.465660","longitude":"42.283642","country":"TR"},{"id":"305737","name":"Kulucak","latitude":"38.882778","longitude":"37.672779","country":"TR"},{"id":"305742","name":"Kulu","latitude":"39.095139","longitude":"33.079891","country":"TR"},{"id":"305750","name":"Kulp","latitude":"38.497219","longitude":"41.012218","country":"TR"},{"id":"305810","name":"Kula","latitude":"38.547260","longitude":"28.649759","country":"TR"},{"id":"306041","name":"Kozluk","latitude":"38.193829","longitude":"41.488529","country":"TR"},{"id":"306112","name":"Kozan","latitude":"37.455170","longitude":"35.815731","country":"TR"},{"id":"306116","name":"Kozakli","latitude":"39.216431","longitude":"34.849091","country":"TR"},{"id":"306207","name":"Kovancilar","latitude":"38.721390","longitude":"39.868061","country":"TR"},{"id":"306285","name":"Kosk","latitude":"37.853329","longitude":"28.051670","country":"TR"},{"id":"306474","name":"Korkuteli","latitude":"37.064980","longitude":"30.195650","country":"TR"},{"id":"306476","name":"Korkut","latitude":"38.739079","longitude":"41.782162","country":"TR"},{"id":"306537","name":"Koprubasi","latitude":"38.749722","longitude":"28.404720","country":"TR"},{"id":"306571","name":"Konya","latitude":"37.871349","longitude":"32.484638","country":"TR"},{"id":"306612","name":"Konalga","latitude":"37.859879","longitude":"43.096851","country":"TR"},{"id":"306859","name":"Goecek","latitude":"36.758179","longitude":"28.928160","country":"TR"},{"id":"306908","name":"Kocarli","latitude":"37.761131","longitude":"27.705820","country":"TR"},{"id":"306935","name":"Kocakoy","latitude":"38.290279","longitude":"40.502499","country":"TR"},{"id":"307084","name":"Kiziltepe","latitude":"37.193329","longitude":"40.584999","country":"TR"},{"id":"307129","name":"Kiziloren","latitude":"38.258060","longitude":"30.151670","country":"TR"},{"id":"307211","name":"Serinhisar","latitude":"37.581039","longitude":"29.266390","country":"TR"},{"id":"307515","name":"Kirsehir","latitude":"39.145828","longitude":"34.163891","country":"TR"},{"id":"307623","name":"Kirkagac","latitude":"39.106380","longitude":"27.669250","country":"TR"},{"id":"307654","name":"Kirikkale","latitude":"39.845280","longitude":"33.506390","country":"TR"},{"id":"307657","name":"Kirikhan","latitude":"36.499390","longitude":"36.357552","country":"TR"},{"id":"307727","name":"Kiraz","latitude":"38.230560","longitude":"28.204439","country":"TR"},{"id":"307786","name":"Kinik","latitude":"39.087219","longitude":"27.383329","country":"TR"},{"id":"307864","name":"Kilis","latitude":"36.716110","longitude":"37.115002","country":"TR"},{"id":"307939","name":"Kilavuz","latitude":"37.478329","longitude":"41.780560","country":"TR"},{"id":"308024","name":"Keskin","latitude":"39.673061","longitude":"33.613609","country":"TR"},{"id":"308133","name":"Kepsut","latitude":"39.688889","longitude":"28.152220","country":"TR"},{"id":"308217","name":"Kemer","latitude":"37.352219","longitude":"30.063061","country":"TR"},{"id":"308220","name":"Kemer","latitude":"36.597778","longitude":"30.560560","country":"TR"},{"id":"308224","name":"Kemalpasa","latitude":"38.426208","longitude":"27.417311","country":"TR"},{"id":"308230","name":"Kemaliye","latitude":"39.262878","longitude":"38.496738","country":"TR"},{"id":"308233","name":"Kemah","latitude":"39.601669","longitude":"39.038059","country":"TR"},{"id":"308261","name":"Keles","latitude":"39.913609","longitude":"29.229441","country":"TR"},{"id":"308365","name":"Keciborlu","latitude":"37.942501","longitude":"30.302219","country":"TR"},{"id":"308389","name":"Keban","latitude":"38.797779","longitude":"38.733608","country":"TR"},{"id":"308400","name":"Kazimkarabekir","latitude":"37.230282","longitude":"32.958889","country":"TR"},{"id":"308464","name":"Kayseri","latitude":"38.732220","longitude":"35.485279","country":"TR"},{"id":"308572","name":"Kayapinar","latitude":"37.557350","longitude":"41.164959","country":"TR"},{"id":"308697","name":"Kayabaglar","latitude":"37.982498","longitude":"41.665279","country":"TR"},{"id":"308776","name":"Kavaklidere","latitude":"37.444630","longitude":"28.362761","country":"TR"},{"id":"308948","name":"Kas","latitude":"36.201759","longitude":"29.637659","country":"TR"},{"id":"308998","name":"Aladag","latitude":"37.548500","longitude":"35.396030","country":"TR"},{"id":"309008","name":"Karpuzlu","latitude":"37.558609","longitude":"27.835279","country":"TR"},{"id":"309032","name":"Karliova","latitude":"39.298328","longitude":"41.014172","country":"TR"},{"id":"309134","name":"Karkamis","latitude":"36.833328","longitude":"37.998058","country":"TR"},{"id":"309199","name":"Karayazi","latitude":"39.702801","longitude":"42.145611","country":"TR"},{"id":"309312","name":"Karatas","latitude":"36.582039","longitude":"35.370140","country":"TR"},{"id":"309415","name":"Karapinar","latitude":"37.715961","longitude":"33.550640","country":"TR"},{"id":"309512","name":"Karamanli","latitude":"37.373009","longitude":"29.823080","country":"TR"},{"id":"309527","name":"Karaman","latitude":"37.181110","longitude":"33.215000","country":"TR"},{"id":"309554","name":"Karalar","latitude":"37.299171","longitude":"41.672501","country":"TR"},{"id":"309610","name":"Karakoyunlu","latitude":"39.870361","longitude":"43.630138","country":"TR"},{"id":"309647","name":"Agri","latitude":"39.719440","longitude":"43.051392","country":"TR"},{"id":"309663","name":"Karakocan","latitude":"38.955830","longitude":"40.038609","country":"TR"},{"id":"309705","name":"Karakecili","latitude":"39.594170","longitude":"33.377781","country":"TR"},{"id":"309758","name":"Karaisali","latitude":"37.256672","longitude":"35.058891","country":"TR"},{"id":"309821","name":"Karahalli","latitude":"38.320831","longitude":"29.530279","country":"TR"},{"id":"310004","name":"Karacoban","latitude":"39.349190","longitude":"42.112389","country":"TR"},{"id":"310044","name":"Karacasu","latitude":"37.728161","longitude":"28.605690","country":"TR"},{"id":"310200","name":"Karaburun","latitude":"38.639671","longitude":"26.511101","country":"TR"},{"id":"310554","name":"Kangal","latitude":"39.233540","longitude":"37.391109","country":"TR"},{"id":"310641","name":"Kaman","latitude":"39.357498","longitude":"33.723888","country":"TR"},{"id":"310677","name":"Kalkan","latitude":"36.265099","longitude":"29.413691","country":"TR"},{"id":"310784","name":"Kale","latitude":"39.033329","longitude":"38.000000","country":"TR"},{"id":"310789","name":"Kale","latitude":"37.439171","longitude":"28.845280","country":"TR"},{"id":"310855","name":"Kahta","latitude":"37.785519","longitude":"38.623699","country":"TR"},{"id":"310859","name":"Kahramanmaras","latitude":"37.584702","longitude":"36.926399","country":"TR"},{"id":"310888","name":"Kadisehri","latitude":"39.995682","longitude":"35.791931","country":"TR"},{"id":"310892","name":"Kadirli","latitude":"37.373890","longitude":"36.096111","country":"TR"},{"id":"310907","name":"Kadinhani","latitude":"38.239719","longitude":"32.211391","country":"TR"},{"id":"310982","name":"Kabala","latitude":"37.349960","longitude":"40.814629","country":"TR"},{"id":"311046","name":"Izmir","latitude":"38.412731","longitude":"27.138380","country":"TR"},{"id":"311054","name":"Ivrindi","latitude":"39.583889","longitude":"27.486389","country":"TR"},{"id":"311073","name":"Isparta","latitude":"37.764439","longitude":"30.552219","country":"TR"},{"id":"311111","name":"Iskenderun","latitude":"36.587181","longitude":"36.173470","country":"TR"},{"id":"311193","name":"Iscehisar","latitude":"38.861938","longitude":"30.750280","country":"TR"},{"id":"311264","name":"Inonu","latitude":"37.316669","longitude":"33.766670","country":"TR"},{"id":"311314","name":"Incirliova","latitude":"37.852219","longitude":"27.723610","country":"TR"},{"id":"311433","name":"Imranli","latitude":"39.875439","longitude":"38.113579","country":"TR"},{"id":"311453","name":"Imamoglu","latitude":"37.265060","longitude":"35.657169","country":"TR"},{"id":"311533","name":"Ilica","latitude":"39.946270","longitude":"41.109058","country":"TR"},{"id":"311547","name":"Ilic","latitude":"39.455029","longitude":"38.563999","country":"TR"},{"id":"311553","name":"Ilgin","latitude":"38.279171","longitude":"31.913891","country":"TR"},{"id":"311628","name":"Aviski","latitude":"37.965771","longitude":"41.329281","country":"TR"},{"id":"311645","name":"Ihsaniye","latitude":"39.029160","longitude":"30.416389","country":"TR"},{"id":"311665","name":"Igdir","latitude":"39.923710","longitude":"44.044998","country":"TR"},{"id":"311704","name":"Idil","latitude":"37.341141","longitude":"41.889500","country":"TR"},{"id":"311777","name":"Huyuk","latitude":"37.953880","longitude":"31.596390","country":"TR"},{"id":"311869","name":"Hozat","latitude":"39.108292","longitude":"39.221272","country":"TR"},{"id":"311962","name":"Honaz","latitude":"37.757301","longitude":"29.269960","country":"TR"},{"id":"311994","name":"Hocalar","latitude":"38.578239","longitude":"29.967680","country":"TR"},{"id":"312024","name":"Hizan","latitude":"38.225719","longitude":"42.427761","country":"TR"},{"id":"312073","name":"Hisarkoy","latitude":"37.600941","longitude":"41.227989","country":"TR"},{"id":"312114","name":"Hinis","latitude":"39.360600","longitude":"41.702221","country":"TR"},{"id":"312134","name":"Hilvan","latitude":"37.586861","longitude":"38.955051","country":"TR"},{"id":"312143","name":"Hilal","latitude":"37.475281","longitude":"42.785831","country":"TR"},{"id":"312245","name":"Hekimhan","latitude":"38.817959","longitude":"37.931171","country":"TR"},{"id":"312253","name":"Hazro","latitude":"38.253330","longitude":"40.781670","country":"TR"},{"id":"312289","name":"Haymana","latitude":"39.432121","longitude":"32.497318","country":"TR"},{"id":"312355","name":"Havran","latitude":"39.558331","longitude":"27.098330","country":"TR"},{"id":"312405","name":"Hassa","latitude":"36.799438","longitude":"36.517780","country":"TR"},{"id":"312479","name":"Hasankeyf","latitude":"37.713081","longitude":"41.414589","country":"TR"},{"id":"312504","name":"Hasanbeyli","latitude":"37.137180","longitude":"36.559330","country":"TR"},{"id":"312531","name":"Harran","latitude":"36.860001","longitude":"39.031391","country":"TR"},{"id":"312663","name":"Hani","latitude":"38.416672","longitude":"40.400002","country":"TR"},{"id":"312699","name":"Han","latitude":"36.950809","longitude":"40.198551","country":"TR"},{"id":"312731","name":"Hamur","latitude":"39.608891","longitude":"42.989170","country":"TR"},{"id":"312817","name":"Halkapinar","latitude":"37.433941","longitude":"34.187431","country":"TR"},{"id":"312862","name":"Halfeti","latitude":"37.247292","longitude":"37.868961","country":"TR"},{"id":"312894","name":"Hafik","latitude":"39.856392","longitude":"37.386391","country":"TR"},{"id":"312899","name":"Hadim","latitude":"36.987759","longitude":"32.456741","country":"TR"},{"id":"313013","name":"Hacilar","latitude":"38.646309","longitude":"35.449371","country":"TR"},{"id":"313110","name":"Hacibektas","latitude":"38.940769","longitude":"34.557701","country":"TR"},{"id":"313199","name":"Guzelyurt","latitude":"38.277222","longitude":"34.371941","country":"TR"},{"id":"313314","name":"Gurun","latitude":"38.722252","longitude":"37.270969","country":"TR"},{"id":"313331","name":"Guroymak","latitude":"38.577389","longitude":"42.028111","country":"TR"},{"id":"313500","name":"Guneren","latitude":"36.734169","longitude":"39.088612","country":"TR"},{"id":"313526","name":"Eksere","latitude":"36.813389","longitude":"31.999710","country":"TR"},{"id":"313635","name":"Becuh","latitude":"37.392502","longitude":"42.988060","country":"TR"},{"id":"313640","name":"Gulveren","latitude":"37.487782","longitude":"41.494438","country":"TR"},{"id":"313658","name":"Gulsehir","latitude":"38.745941","longitude":"34.625240","country":"TR"},{"id":"313669","name":"Gulnar","latitude":"36.341480","longitude":"33.399212","country":"TR"},{"id":"313713","name":"Guellue","latitude":"38.269718","longitude":"29.108061","country":"TR"},{"id":"313794","name":"Baraniferho","latitude":"37.469719","longitude":"41.914169","country":"TR"},{"id":"313825","name":"Gozpinar","latitude":"37.978260","longitude":"41.457008","country":"TR"},{"id":"313922","name":"Bisbin","latitude":"37.338612","longitude":"42.570278","country":"TR"},{"id":"313947","name":"Goereme","latitude":"38.643700","longitude":"34.835289","country":"TR"},{"id":"313960","name":"Gordes","latitude":"38.932781","longitude":"28.289419","country":"TR"},{"id":"313973","name":"Gonen","latitude":"37.956390","longitude":"30.511400","country":"TR"},{"id":"313995","name":"Armutova","latitude":"39.390160","longitude":"26.841270","country":"TR"},{"id":"314038","name":"Golmarmara","latitude":"38.713890","longitude":"27.914169","country":"TR"},{"id":"314072","name":"Golhisar","latitude":"37.145901","longitude":"29.508760","country":"TR"},{"id":"314136","name":"Golbasi","latitude":"37.783611","longitude":"37.636669","country":"TR"},{"id":"314188","name":"Goksun","latitude":"38.020962","longitude":"36.497299","country":"TR"},{"id":"314350","name":"Civankan","latitude":"37.905830","longitude":"41.873329","country":"TR"},{"id":"314364","name":"Selah","latitude":"37.205002","longitude":"40.694439","country":"TR"},{"id":"314557","name":"Gevas","latitude":"38.296810","longitude":"43.108250","country":"TR"},{"id":"314573","name":"Germencik","latitude":"37.870560","longitude":"27.602831","country":"TR"},{"id":"314588","name":"Gerger","latitude":"37.950001","longitude":"39.016670","country":"TR"},{"id":"314608","name":"Gerdzhyush","latitude":"37.565102","longitude":"41.391609","country":"TR"},{"id":"314648","name":"Genc","latitude":"38.750710","longitude":"40.560349","country":"TR"},{"id":"314665","name":"Gemerek","latitude":"39.183418","longitude":"36.071892","country":"TR"},{"id":"314677","name":"Gelinkaya","latitude":"37.417011","longitude":"41.293011","country":"TR"},{"id":"314698","name":"Gelendost","latitude":"38.120831","longitude":"31.015280","country":"TR"},{"id":"314716","name":"Gediz","latitude":"39.041672","longitude":"29.410000","country":"TR"},{"id":"314812","name":"Gazipasa","latitude":"36.269421","longitude":"32.317921","country":"TR"},{"id":"314830","name":"Gaziantep","latitude":"37.059441","longitude":"37.382500","country":"TR"},{"id":"314903","name":"Foca","latitude":"38.670300","longitude":"26.756559","country":"TR"},{"id":"314923","name":"Finike","latitude":"36.294998","longitude":"30.140560","country":"TR"},{"id":"314967","name":"Fethiye","latitude":"36.621670","longitude":"29.116390","country":"TR"},{"id":"314996","name":"Felahiye","latitude":"39.090561","longitude":"35.567219","country":"TR"},{"id":"315000","name":"Feke","latitude":"37.814461","longitude":"35.912319","country":"TR"},{"id":"315061","name":"Ezine","latitude":"39.785610","longitude":"26.340830","country":"TR"},{"id":"315132","name":"Evciler","latitude":"38.041389","longitude":"29.886669","country":"TR"},{"id":"315183","name":"Esme","latitude":"38.399761","longitude":"28.969049","country":"TR"},{"id":"315202","name":"Eskisehir","latitude":"39.776669","longitude":"30.520559","country":"TR"},{"id":"315368","name":"Erzurum","latitude":"39.908611","longitude":"41.276939","country":"TR"},{"id":"315373","name":"Erzincan","latitude":"39.752220","longitude":"39.492779","country":"TR"},{"id":"315378","name":"Eruh","latitude":"37.751671","longitude":"42.181110","country":"TR"},{"id":"315401","name":"Ermenek","latitude":"36.640430","longitude":"32.891788","country":"TR"},{"id":"315468","name":"Ergani","latitude":"38.265331","longitude":"39.762119","country":"TR"},{"id":"315498","name":"Eregli","latitude":"37.513329","longitude":"34.046719","country":"TR"},{"id":"315515","name":"Erdemli","latitude":"36.604980","longitude":"34.308361","country":"TR"},{"id":"315530","name":"Ercis","latitude":"39.028690","longitude":"43.358639","country":"TR"},{"id":"315617","name":"Emirgazi","latitude":"37.902222","longitude":"33.837219","country":"TR"},{"id":"315621","name":"Emirdag","latitude":"39.019718","longitude":"31.150000","country":"TR"},{"id":"315639","name":"Emet","latitude":"39.342999","longitude":"29.258471","country":"TR"},{"id":"315697","name":"Elmali","latitude":"36.735828","longitude":"29.917749","country":"TR"},{"id":"315720","name":"Elmadag","latitude":"39.920830","longitude":"33.230831","country":"TR"},{"id":"315758","name":"Eleskirt","latitude":"39.803329","longitude":"42.673611","country":"TR"},{"id":"315795","name":"Elbistan","latitude":"38.205910","longitude":"37.198299","country":"TR"},{"id":"315800","name":"Elbeyli","latitude":"36.674171","longitude":"37.466671","country":"TR"},{"id":"315808","name":"Elazig","latitude":"38.674309","longitude":"39.223209","country":"TR"},{"id":"315835","name":"Celeyke","latitude":"38.059738","longitude":"37.187859","country":"TR"},{"id":"315905","name":"Egirdir","latitude":"37.874619","longitude":"30.850420","country":"TR"},{"id":"315953","name":"Egil","latitude":"38.257221","longitude":"40.082779","country":"TR"},{"id":"315985","name":"Edremit","latitude":"39.596111","longitude":"27.024441","country":"TR"},{"id":"316096","name":"Duruca","latitude":"37.093330","longitude":"41.308609","country":"TR"},{"id":"316102","name":"Dursunbey","latitude":"39.585960","longitude":"28.625681","country":"TR"},{"id":"316165","name":"Dumlupinar","latitude":"38.866669","longitude":"30.000000","country":"TR"},{"id":"316284","name":"Dortyol","latitude":"36.861580","longitude":"36.228851","country":"TR"},{"id":"316330","name":"Domanic Kozluca","latitude":"39.799999","longitude":"29.616671","country":"TR"},{"id":"316411","name":"Dogubayazit","latitude":"39.546940","longitude":"44.084171","country":"TR"},{"id":"316431","name":"Doganyol","latitude":"38.311840","longitude":"39.038189","country":"TR"},{"id":"316440","name":"Dogansehir","latitude":"38.091942","longitude":"37.878891","country":"TR"},{"id":"316466","name":"Dogankoy","latitude":"37.752769","longitude":"42.798012","country":"TR"},{"id":"316473","name":"Dogankavak","latitude":"37.962372","longitude":"41.227291","country":"TR"},{"id":"316475","name":"Doganhisar","latitude":"38.146301","longitude":"31.676479","country":"TR"},{"id":"316497","name":"Doganca","latitude":"37.808331","longitude":"42.340000","country":"TR"},{"id":"316541","name":"Diyarbakir","latitude":"37.915829","longitude":"40.218891","country":"TR"},{"id":"316542","name":"Diyadin","latitude":"39.540562","longitude":"43.671349","country":"TR"},{"id":"316544","name":"Divrigi","latitude":"39.370998","longitude":"38.113701","country":"TR"},{"id":"316634","name":"Dinar","latitude":"38.064999","longitude":"30.165569","country":"TR"},{"id":"316726","name":"Dikili","latitude":"39.070999","longitude":"26.890169","country":"TR"},{"id":"316746","name":"Dicle","latitude":"38.375149","longitude":"40.072189","country":"TR"},{"id":"316795","name":"Develi","latitude":"38.390560","longitude":"35.492222","country":"TR"},{"id":"316877","name":"Derinkuyu","latitude":"38.375099","longitude":"34.734192","country":"TR"},{"id":"317049","name":"Derebucak","latitude":"37.391788","longitude":"31.509180","country":"TR"},{"id":"317095","name":"Derbent","latitude":"38.014221","longitude":"32.016392","country":"TR"},{"id":"317109","name":"Denizli","latitude":"37.774170","longitude":"29.087500","country":"TR"},{"id":"317241","name":"Demirci","latitude":"39.046070","longitude":"28.658890","country":"TR"},{"id":"317332","name":"Delice","latitude":"39.953709","longitude":"34.025871","country":"TR"},{"id":"317496","name":"Dazkiri","latitude":"37.918610","longitude":"29.860559","country":"TR"},{"id":"317543","name":"Datca","latitude":"36.737782","longitude":"27.684170","country":"TR"},{"id":"317587","name":"Dargecit","latitude":"37.545448","longitude":"41.719662","country":"TR"},{"id":"317588","name":"Darende","latitude":"38.545830","longitude":"37.505829","country":"TR"},{"id":"317681","name":"Dalyan","latitude":"36.834290","longitude":"28.644600","country":"TR"},{"id":"317837","name":"Cungus","latitude":"38.212502","longitude":"39.285561","country":"TR"},{"id":"317844","name":"Cumra","latitude":"37.573200","longitude":"32.774460","country":"TR"},{"id":"317851","name":"Cumaovasi","latitude":"38.249630","longitude":"27.134291","country":"TR"},{"id":"317953","name":"Cukurca","latitude":"37.248058","longitude":"43.613609","country":"TR"},{"id":"318137","name":"Hakkari","latitude":"37.574440","longitude":"43.740829","country":"TR"},{"id":"318253","name":"Cizre","latitude":"37.327221","longitude":"42.190281","country":"TR"},{"id":"318264","name":"Civril","latitude":"38.301392","longitude":"29.738609","country":"TR"},{"id":"318372","name":"Cine","latitude":"37.611671","longitude":"28.061390","country":"TR"},{"id":"318506","name":"Cihanbeyli","latitude":"38.660721","longitude":"32.924370","country":"TR"},{"id":"318526","name":"Serkan","latitude":"37.159439","longitude":"41.741669","country":"TR"},{"id":"318603","name":"Cifteler","latitude":"39.383060","longitude":"31.039169","country":"TR"},{"id":"318668","name":"Ceylanpinar","latitude":"36.847221","longitude":"40.049999","country":"TR"},{"id":"318675","name":"Ceyhan","latitude":"37.024719","longitude":"35.817501","country":"TR"},{"id":"318755","name":"Cesme","latitude":"38.322781","longitude":"26.306391","country":"TR"},{"id":"318766","name":"Cermik","latitude":"38.136131","longitude":"39.449291","country":"TR"},{"id":"318904","name":"Celikhan","latitude":"38.034168","longitude":"38.243328","country":"TR"},{"id":"319069","name":"Cayiralan","latitude":"39.302780","longitude":"35.643890","country":"TR"},{"id":"319104","name":"Cay","latitude":"38.591671","longitude":"31.028610","country":"TR"},{"id":"319118","name":"Cavuslu","latitude":"37.498611","longitude":"41.244171","country":"TR"},{"id":"319487","name":"Candarli","latitude":"38.935032","longitude":"26.934000","country":"TR"},{"id":"319670","name":"Anamas","latitude":"37.766670","longitude":"30.799999","country":"TR"},{"id":"319787","name":"Caliskan","latitude":"37.297218","longitude":"42.643608","country":"TR"},{"id":"320004","name":"Caglayancerit","latitude":"37.749592","longitude":"37.296219","country":"TR"},{"id":"320177","name":"Nikfer","latitude":"37.405418","longitude":"29.137270","country":"TR"},{"id":"320369","name":"Burhaniye","latitude":"39.500408","longitude":"26.972691","country":"TR"},{"id":"320374","name":"Buharkent","latitude":"37.963959","longitude":"28.742701","country":"TR"},{"id":"320392","name":"Burdur","latitude":"37.720280","longitude":"30.290831","country":"TR"},{"id":"320406","name":"Bunyan","latitude":"38.846298","longitude":"35.860321","country":"TR"},{"id":"320437","name":"Buldan","latitude":"38.044998","longitude":"28.830561","country":"TR"},{"id":"320448","name":"Bulanik","latitude":"39.092918","longitude":"42.270309","country":"TR"},{"id":"320533","name":"Bucak","latitude":"37.459171","longitude":"30.594999","country":"TR"},{"id":"320552","name":"Bozyazi","latitude":"36.108200","longitude":"32.961128","country":"TR"},{"id":"320557","name":"Bozuyuk","latitude":"39.907780","longitude":"30.036671","country":"TR"},{"id":"320581","name":"Bozova","latitude":"37.362499","longitude":"38.526669","country":"TR"},{"id":"320606","name":"Bozkurt","latitude":"37.824169","longitude":"29.609720","country":"TR"},{"id":"320621","name":"Bozkir","latitude":"37.189629","longitude":"32.247360","country":"TR"},{"id":"320647","name":"Bozdogan","latitude":"37.671341","longitude":"28.313950","country":"TR"},{"id":"320700","name":"Bozcaada","latitude":"39.834999","longitude":"26.069719","country":"TR"},{"id":"320745","name":"Bozalan","latitude":"37.328941","longitude":"42.264820","country":"TR"},{"id":"320835","name":"Bostanci","latitude":"37.180000","longitude":"42.330002","country":"TR"},{"id":"320871","name":"Bor","latitude":"37.890560","longitude":"34.558891","country":"TR"},{"id":"320879","name":"Bolvadin","latitude":"38.711109","longitude":"31.048611","country":"TR"},{"id":"320995","name":"Bodrum","latitude":"37.038330","longitude":"27.429171","country":"TR"},{"id":"321031","name":"Bismil","latitude":"37.848610","longitude":"40.665829","country":"TR"},{"id":"321062","name":"Birecik","latitude":"37.029442","longitude":"37.990280","country":"TR"},{"id":"321082","name":"Bingol","latitude":"38.884720","longitude":"40.493889","country":"TR"},{"id":"321088","name":"Binatli","latitude":"37.847980","longitude":"41.216358","country":"TR"},{"id":"321136","name":"Bigadic","latitude":"39.392502","longitude":"28.131109","country":"TR"},{"id":"321184","name":"Beytussebap","latitude":"37.569439","longitude":"43.168060","country":"TR"},{"id":"321191","name":"Beysehir","latitude":"37.677349","longitude":"31.724581","country":"TR"},{"id":"321219","name":"Beylikova","latitude":"39.686939","longitude":"31.205561","country":"TR"},{"id":"321337","name":"Besni","latitude":"37.692780","longitude":"37.861111","country":"TR"},{"id":"321360","name":"Besiri","latitude":"37.918381","longitude":"41.292400","country":"TR"},{"id":"321426","name":"Bergama","latitude":"39.120739","longitude":"27.180519","country":"TR"},{"id":"321572","name":"Belen","latitude":"36.489109","longitude":"36.223309","country":"TR"},{"id":"321580","name":"Belek","latitude":"36.862782","longitude":"31.055559","country":"TR"},{"id":"321637","name":"Bekilli","latitude":"38.231049","longitude":"29.419701","country":"TR"},{"id":"321673","name":"Begendik","latitude":"37.975559","longitude":"42.644169","country":"TR"},{"id":"321750","name":"Baykan","latitude":"38.162659","longitude":"41.783329","country":"TR"},{"id":"321786","name":"Bayindir","latitude":"38.217411","longitude":"27.647440","country":"TR"},{"id":"321814","name":"Bayat","latitude":"38.983059","longitude":"30.924721","country":"TR"},{"id":"321836","name":"Batman","latitude":"37.887379","longitude":"41.132210","country":"TR"},{"id":"321887","name":"Basmakci","latitude":"37.897221","longitude":"30.011669","country":"TR"},{"id":"321929","name":"Baskil","latitude":"38.567909","longitude":"38.823818","country":"TR"},{"id":"321935","name":"Baskavak","latitude":"37.568241","longitude":"40.895802","country":"TR"},{"id":"321940","name":"Baskale","latitude":"38.045261","longitude":"44.017181","country":"TR"},{"id":"322051","name":"Banaz","latitude":"38.737068","longitude":"29.751940","country":"TR"},{"id":"322076","name":"Balpinar","latitude":"37.868328","longitude":"41.054722","country":"TR"},{"id":"322137","name":"Baliseyh","latitude":"39.914108","longitude":"33.723331","country":"TR"},{"id":"322165","name":"Balikesir","latitude":"39.649170","longitude":"27.886110","country":"TR"},{"id":"322250","name":"Baklan","latitude":"37.976940","longitude":"29.608610","country":"TR"},{"id":"322324","name":"Bahcesaray","latitude":"38.125340","longitude":"42.806740","country":"TR"},{"id":"322391","name":"Bahce","latitude":"37.197239","longitude":"36.576580","country":"TR"},{"id":"322618","name":"Babadag","latitude":"37.808849","longitude":"28.878771","country":"TR"},{"id":"322673","name":"Ayvalik","latitude":"39.319050","longitude":"26.695400","country":"TR"},{"id":"322692","name":"Ayvacik","latitude":"39.601109","longitude":"26.404720","country":"TR"},{"id":"322810","name":"Aydinlar","latitude":"37.949108","longitude":"42.012100","country":"TR"},{"id":"322817","name":"Ibradi","latitude":"37.096939","longitude":"31.599171","country":"TR"},{"id":"322826","name":"Aydincik","latitude":"36.143700","longitude":"33.320160","country":"TR"},{"id":"322830","name":"Aydin","latitude":"37.845009","longitude":"27.839630","country":"TR"},{"id":"322887","name":"Avsallar","latitude":"36.616009","longitude":"31.780621","country":"TR"},{"id":"322965","name":"Avanos","latitude":"38.715000","longitude":"34.846668","country":"TR"},{"id":"323039","name":"Atabey","latitude":"37.950829","longitude":"30.638611","country":"TR"},{"id":"323082","name":"Aslanapa","latitude":"39.215809","longitude":"29.869900","country":"TR"},{"id":"323094","name":"Askale","latitude":"39.920830","longitude":"40.695000","country":"TR"},{"id":"323653","name":"Aricak","latitude":"38.563889","longitude":"40.134720","country":"TR"},{"id":"323660","name":"Arguvan","latitude":"38.769951","longitude":"38.271198","country":"TR"},{"id":"323721","name":"Arapgir","latitude":"39.041168","longitude":"38.495159","country":"TR"},{"id":"323750","name":"Araban","latitude":"37.426670","longitude":"37.688999","country":"TR"},{"id":"323777","name":"Antalya","latitude":"36.908119","longitude":"30.695560","country":"TR"},{"id":"323779","name":"Antioch","latitude":"36.206551","longitude":"36.157219","country":"TR"},{"id":"323786","name":"Ankara","latitude":"39.919868","longitude":"32.854271","country":"TR"},{"id":"323797","name":"Andirin","latitude":"37.577572","longitude":"36.354919","country":"TR"},{"id":"323806","name":"Andac","latitude":"37.355282","longitude":"43.265560","country":"TR"},{"id":"323828","name":"Anamur","latitude":"36.075081","longitude":"32.836910","country":"TR"},{"id":"323854","name":"Ambar","latitude":"37.853161","longitude":"40.527760","country":"TR"},{"id":"323886","name":"Altinyayla","latitude":"39.272491","longitude":"36.750980","country":"TR"},{"id":"323887","name":"Altinyayla","latitude":"36.997219","longitude":"29.545790","country":"TR"},{"id":"323906","name":"Fatikli","latitude":"36.115002","longitude":"36.248169","country":"TR"},{"id":"323921","name":"Altinkum","latitude":"38.264252","longitude":"41.061119","country":"TR"},{"id":"323927","name":"Altinhisar","latitude":"37.991589","longitude":"34.373341","country":"TR"},{"id":"323930","name":"Altinekin","latitude":"38.307781","longitude":"32.868610","country":"TR"},{"id":"323963","name":"Alpu","latitude":"39.769032","longitude":"30.960600","country":"TR"},{"id":"324106","name":"Aliaga","latitude":"38.799751","longitude":"26.972031","country":"TR"},{"id":"324172","name":"Alasehir","latitude":"38.350830","longitude":"28.517179","country":"TR"},{"id":"324190","name":"Alanya","latitude":"36.543751","longitude":"31.999821","country":"TR"},{"id":"324294","name":"Alacati","latitude":"38.282459","longitude":"26.374590","country":"TR"},{"id":"324315","name":"Turluk","latitude":"39.440338","longitude":"39.877731","country":"TR"},{"id":"324470","name":"Aksu","latitude":"37.798889","longitude":"31.071110","country":"TR"},{"id":"324486","name":"Akseki","latitude":"37.048611","longitude":"31.790001","country":"TR"},{"id":"324490","name":"Aksehir","latitude":"38.357498","longitude":"31.416389","country":"TR"},{"id":"324496","name":"Aksaray","latitude":"38.372551","longitude":"34.025372","country":"TR"},{"id":"324630","name":"Akkoy","latitude":"37.956940","longitude":"29.078140","country":"TR"},{"id":"324643","name":"Akkisla","latitude":"39.002220","longitude":"36.173809","country":"TR"},{"id":"324698","name":"Akhisar","latitude":"38.918522","longitude":"27.840059","country":"TR"},{"id":"324768","name":"Akdagmadeni","latitude":"39.660278","longitude":"35.883610","country":"TR"},{"id":"324944","name":"Akcakale","latitude":"36.711109","longitude":"38.947498","country":"TR"},{"id":"324953","name":"Akcadag","latitude":"38.345280","longitude":"37.967220","country":"TR"},{"id":"325028","name":"Akarsu","latitude":"37.235489","longitude":"41.060680","country":"TR"},{"id":"325066","name":"Ahmetli","latitude":"38.519600","longitude":"27.938650","country":"TR"},{"id":"325103","name":"Ahlat","latitude":"38.751781","longitude":"42.481350","country":"TR"},{"id":"325171","name":"Aglasun","latitude":"37.649441","longitude":"30.534170","country":"TR"},{"id":"325183","name":"Agin","latitude":"38.945190","longitude":"38.711979","country":"TR"},{"id":"325269","name":"Agacoren","latitude":"38.874840","longitude":"33.916740","country":"TR"},{"id":"325303","name":"Afyonkarahisar","latitude":"38.756672","longitude":"30.543329","country":"TR"},{"id":"325304","name":"Afsin","latitude":"38.247688","longitude":"36.913990","country":"TR"},{"id":"325330","name":"Adiyaman","latitude":"37.764408","longitude":"38.276291","country":"TR"},{"id":"325336","name":"Adilcevaz","latitude":"38.803890","longitude":"42.734219","country":"TR"},{"id":"325363","name":"Adana","latitude":"37.001671","longitude":"35.328892","country":"TR"},{"id":"325420","name":"Acirli","latitude":"37.457298","longitude":"41.296860","country":"TR"},{"id":"325426","name":"Acipayam","latitude":"37.423851","longitude":"29.349409","country":"TR"},{"id":"325449","name":"Dobada","latitude":"38.550282","longitude":"34.509171","country":"TR"},{"id":"392066","name":"Yemisli","latitude":"37.372921","longitude":"43.075859","country":"TR"},{"id":"415534","name":"Nurdagi","latitude":"37.177299","longitude":"36.741940","country":"TR"},{"id":"436138","name":"Yesildere","latitude":"36.985279","longitude":"37.507221","country":"TR"},{"id":"436507","name":"Mahmutlar","latitude":"36.949001","longitude":"36.192310","country":"TR"},{"id":"438046","name":"Kuzeytepe","latitude":"36.265560","longitude":"36.151669","country":"TR"},{"id":"438056","name":"Kastal","latitude":"36.245972","longitude":"36.245079","country":"TR"},{"id":"438096","name":"Toygarli","latitude":"36.214458","longitude":"36.070782","country":"TR"},{"id":"438116","name":"Gumusgoze","latitude":"36.154869","longitude":"36.138699","country":"TR"},{"id":"438119","name":"Dursunlu","latitude":"36.162781","longitude":"36.159721","country":"TR"},{"id":"438122","name":"Asagiokcular","latitude":"36.183922","longitude":"36.136959","country":"TR"},{"id":"438158","name":"Uzunbag","latitude":"36.148319","longitude":"36.024719","country":"TR"},{"id":"438184","name":"Hacipasa","latitude":"36.078171","longitude":"36.384048","country":"TR"},{"id":"438236","name":"Anayazi","latitude":"36.314442","longitude":"36.199169","country":"TR"},{"id":"438241","name":"Buyukdalyan","latitude":"36.277710","longitude":"36.199211","country":"TR"},{"id":"438243","name":"Gunyazi","latitude":"36.235062","longitude":"36.116150","country":"TR"},{"id":"438245","name":"Tepehan","latitude":"36.158531","longitude":"36.228600","country":"TR"},{"id":"438400","name":"Denizciler","latitude":"36.649509","longitude":"36.229561","country":"TR"},{"id":"439101","name":"Pekmezli","latitude":"36.753609","longitude":"39.450001","country":"TR"},{"id":"442301","name":"Batikent","latitude":"39.968330","longitude":"32.730831","country":"TR"},{"id":"447049","name":"Basyayla","latitude":"36.753368","longitude":"32.680180","country":"TR"},{"id":"447273","name":"Dalaman","latitude":"36.765911","longitude":"28.802799","country":"TR"},{"id":"737022","name":"Zonguldak","latitude":"41.451389","longitude":"31.793051","country":"TR"},{"id":"737054","name":"Zile","latitude":"40.303059","longitude":"35.886391","country":"TR"},{"id":"737071","name":"Zeytinburnu","latitude":"40.994411","longitude":"28.904169","country":"TR"},{"id":"737119","name":"Yuvacik","latitude":"40.688148","longitude":"29.967381","country":"TR"},{"id":"737140","name":"Yusufeli","latitude":"40.820351","longitude":"41.544300","country":"TR"},{"id":"737421","name":"Yomra","latitude":"40.954109","longitude":"39.864052","country":"TR"},{"id":"737529","name":"Yesilyurt","latitude":"40.327862","longitude":"36.351440","country":"TR"},{"id":"737611","name":"Yenisehir","latitude":"40.264439","longitude":"29.653061","country":"TR"},{"id":"737660","name":"Yenikoy","latitude":"40.535679","longitude":"29.353640","country":"TR"},{"id":"737709","name":"Yenicekoy","latitude":"40.087780","longitude":"29.421940","country":"TR"},{"id":"737756","name":"Yenicaga","latitude":"40.771149","longitude":"32.033749","country":"TR"},{"id":"737961","name":"Korfez","latitude":"40.776669","longitude":"29.729719","country":"TR"},{"id":"737980","name":"Yaprakli","latitude":"40.757851","longitude":"33.778191","country":"TR"},{"id":"738025","name":"Yalova","latitude":"40.655022","longitude":"29.276930","country":"TR"},{"id":"738055","name":"Yalakdere","latitude":"40.604721","longitude":"29.563890","country":"TR"},{"id":"738064","name":"Yakuplu","latitude":"40.988941","longitude":"28.675819","country":"TR"},{"id":"738085","name":"Yakakent","latitude":"41.632500","longitude":"35.528889","country":"TR"},{"id":"738124","name":"Yaglidere","latitude":"40.545010","longitude":"39.531670","country":"TR"},{"id":"738154","name":"Vize","latitude":"41.572498","longitude":"27.765829","country":"TR"},{"id":"738167","name":"Vezirkopru","latitude":"41.143608","longitude":"35.454720","country":"TR"},{"id":"738228","name":"Vakfikebir","latitude":"41.045830","longitude":"39.276390","country":"TR"},{"id":"738251","name":"Uzun Keupru","latitude":"41.265980","longitude":"26.688499","country":"TR"},{"id":"738276","name":"Uzundere","latitude":"40.530140","longitude":"41.558441","country":"TR"},{"id":"738349","name":"Unieh","latitude":"41.131390","longitude":"37.282501","country":"TR"},{"id":"738372","name":"Umurbey","latitude":"40.414719","longitude":"29.183060","country":"TR"},{"id":"738377","name":"Umraniye","latitude":"41.016430","longitude":"29.124760","country":"TR"},{"id":"738444","name":"Ulubey","latitude":"40.872139","longitude":"37.758759","country":"TR"},{"id":"738457","name":"Ulasli","latitude":"40.705830","longitude":"29.696079","country":"TR"},{"id":"738468","name":"Ugurludag","latitude":"40.446320","longitude":"34.452591","country":"TR"},{"id":"738614","name":"Turkeli","latitude":"41.947639","longitude":"34.338612","country":"TR"},{"id":"738618","name":"Turhal","latitude":"40.387501","longitude":"36.081108","country":"TR"},{"id":"738648","name":"Trabzon","latitude":"41.005001","longitude":"39.726940","country":"TR"},{"id":"738662","name":"Tosya","latitude":"41.015450","longitude":"34.040131","country":"TR"},{"id":"738668","name":"Torul","latitude":"40.558048","longitude":"39.293598","country":"TR"},{"id":"738674","name":"Tortum","latitude":"40.297298","longitude":"41.547710","country":"TR"},{"id":"738715","name":"Tonya","latitude":"40.886250","longitude":"39.292381","country":"TR"},{"id":"738743","name":"Tokat","latitude":"40.313889","longitude":"36.554440","country":"TR"},{"id":"738753","name":"Tirebolu","latitude":"41.006939","longitude":"38.813889","country":"TR"},{"id":"738803","name":"Terme","latitude":"41.209171","longitude":"36.973888","country":"TR"},{"id":"738858","name":"Tepecik","latitude":"41.029308","longitude":"28.549780","country":"TR"},{"id":"738907","name":"Tekkekoy","latitude":"41.211670","longitude":"36.459999","country":"TR"},{"id":"738927","name":"Tekirdag","latitude":"40.978008","longitude":"27.508520","country":"TR"},{"id":"738962","name":"Tavsanli","latitude":"40.818760","longitude":"29.511360","country":"TR"},{"id":"738965","name":"Tavsancil","latitude":"40.770828","longitude":"29.571939","country":"TR"},{"id":"739015","name":"Tasova","latitude":"40.759720","longitude":"36.322498","country":"TR"},{"id":"739061","name":"Taskopru","latitude":"41.509800","longitude":"34.214142","country":"TR"},{"id":"739067","name":"Taskopru","latitude":"40.673611","longitude":"29.391109","country":"TR"},{"id":"739107","name":"Tarakli","latitude":"40.396938","longitude":"30.492781","country":"TR"},{"id":"739161","name":"Tacir","latitude":"40.525558","longitude":"29.739719","country":"TR"},{"id":"739201","name":"Susuz","latitude":"40.778820","longitude":"43.146622","country":"TR"},{"id":"739209","name":"Susehri","latitude":"40.164440","longitude":"38.086670","country":"TR"},{"id":"739215","name":"Surmene","latitude":"40.912579","longitude":"40.116760","country":"TR"},{"id":"739236","name":"Sungurlu","latitude":"40.167500","longitude":"34.373890","country":"TR"},{"id":"739251","name":"Suluova","latitude":"40.831280","longitude":"35.647881","country":"TR"},{"id":"739318","name":"Sulakyurt","latitude":"40.157330","longitude":"33.716000","country":"TR"},{"id":"739425","name":"Sogutlu","latitude":"40.905899","longitude":"30.474480","country":"TR"},{"id":"739549","name":"Sisli","latitude":"41.060459","longitude":"28.987169","country":"TR"},{"id":"739574","name":"Siran","latitude":"40.189442","longitude":"39.126671","country":"TR"},{"id":"739600","name":"Sinop","latitude":"42.026829","longitude":"35.162521","country":"TR"},{"id":"739634","name":"Silivri","latitude":"41.080219","longitude":"28.226049","country":"TR"},{"id":"739636","name":"Sile","latitude":"41.175400","longitude":"29.613331","country":"TR"},{"id":"739742","name":"Seydiler","latitude":"41.620049","longitude":"33.718151","country":"TR"},{"id":"739816","name":"Senkaya","latitude":"40.561939","longitude":"42.346939","country":"TR"},{"id":"739838","name":"Selimpasa","latitude":"41.055840","longitude":"28.378950","country":"TR"},{"id":"739847","name":"Selim","latitude":"40.463261","longitude":"42.783951","country":"TR"},{"id":"739914","name":"Sebinkarahisar","latitude":"40.288330","longitude":"38.423611","country":"TR"},{"id":"739917","name":"Seben","latitude":"40.411339","longitude":"31.573589","country":"TR"},{"id":"739950","name":"Savsat","latitude":"41.240269","longitude":"42.361092","country":"TR"},{"id":"740088","name":"Sarikamis","latitude":"40.338058","longitude":"42.573059","country":"TR"},{"id":"740230","name":"Sapanca","latitude":"40.691410","longitude":"30.267380","country":"TR"},{"id":"740264","name":"Samsun","latitude":"41.286671","longitude":"36.330002","country":"TR"},{"id":"740303","name":"Salpazari","latitude":"40.941109","longitude":"39.195560","country":"TR"},{"id":"740430","name":"Safranbolu","latitude":"41.250832","longitude":"32.694172","country":"TR"},{"id":"740462","name":"Sabanozu","latitude":"40.482491","longitude":"33.283520","country":"TR"},{"id":"740483","name":"Rize","latitude":"41.020828","longitude":"40.521938","country":"TR"},{"id":"740531","name":"Posof","latitude":"41.511108","longitude":"42.729172","country":"TR"},{"id":"740561","name":"Nefsipiraziz","latitude":"40.933331","longitude":"38.133331","country":"TR"},{"id":"740570","name":"Pinarhisar","latitude":"41.624168","longitude":"27.520000","country":"TR"},{"id":"740581","name":"Pinarbasi","latitude":"41.603882","longitude":"33.110989","country":"TR"},{"id":"740605","name":"Persembe","latitude":"41.065559","longitude":"37.771389","country":"TR"},{"id":"740650","name":"Pehlivankoy","latitude":"41.348122","longitude":"26.925220","country":"TR"},{"id":"740659","name":"Pazaryolu","latitude":"40.420830","longitude":"40.771042","country":"TR"},{"id":"740677","name":"Pazar","latitude":"40.276520","longitude":"36.283470","country":"TR"},{"id":"740729","name":"Pamukova","latitude":"40.508099","longitude":"30.167320","country":"TR"},{"id":"740881","name":"Osmaneli","latitude":"40.357220","longitude":"30.014170","country":"TR"},{"id":"740883","name":"Osmancik","latitude":"40.978180","longitude":"34.804699","country":"TR"},{"id":"740940","name":"Ortakoy","latitude":"41.101540","longitude":"28.375879","country":"TR"},{"id":"741002","name":"Orta","latitude":"40.624199","longitude":"33.109280","country":"TR"},{"id":"741045","name":"Orhangazi","latitude":"40.489170","longitude":"29.308889","country":"TR"},{"id":"741100","name":"Ordu","latitude":"40.984718","longitude":"37.878891","country":"TR"},{"id":"741136","name":"Olur","latitude":"40.821640","longitude":"42.128460","country":"TR"},{"id":"741160","name":"Oltu","latitude":"40.549831","longitude":"42.001259","country":"TR"},{"id":"741240","name":"Of","latitude":"40.944580","longitude":"40.267460","country":"TR"},{"id":"741304","name":"Niksar","latitude":"40.591671","longitude":"36.951672","country":"TR"},{"id":"741330","name":"Narman","latitude":"40.346531","longitude":"41.870270","country":"TR"},{"id":"741335","name":"Narlica","latitude":"40.385830","longitude":"29.481110","country":"TR"},{"id":"741347","name":"Nallihan","latitude":"40.185928","longitude":"31.351789","country":"TR"},{"id":"741484","name":"Mudurnu","latitude":"40.473000","longitude":"31.207550","country":"TR"},{"id":"741487","name":"Mudanya","latitude":"40.375278","longitude":"28.882219","country":"TR"},{"id":"741529","name":"Mimarsinan","latitude":"41.003151","longitude":"28.537680","country":"TR"},{"id":"741538","name":"Mihalgazi","latitude":"40.026211","longitude":"30.577070","country":"TR"},{"id":"741570","name":"Mesudiye","latitude":"40.462502","longitude":"37.772499","country":"TR"},{"id":"741609","name":"Merzifon","latitude":"40.873329","longitude":"35.463058","country":"TR"},{"id":"741628","name":"Meric","latitude":"41.191830","longitude":"26.420971","country":"TR"},{"id":"741692","name":"Mecitozu","latitude":"40.520000","longitude":"35.295280","country":"TR"},{"id":"741725","name":"Marmaraereglisi","latitude":"40.970032","longitude":"27.955280","country":"TR"},{"id":"741730","name":"Marmara","latitude":"40.586330","longitude":"27.555410","country":"TR"},{"id":"741737","name":"Manyas","latitude":"40.046391","longitude":"27.969999","country":"TR"},{"id":"741763","name":"Maltepe","latitude":"40.935669","longitude":"29.155069","country":"TR"},{"id":"741771","name":"Malkara","latitude":"40.889999","longitude":"26.901110","country":"TR"},{"id":"741850","name":"Macka","latitude":"40.818611","longitude":"39.613609","country":"TR"},{"id":"741855","name":"Luleburgaz","latitude":"41.403851","longitude":"27.359180","country":"TR"},{"id":"741878","name":"Lapseki","latitude":"40.344170","longitude":"26.685560","country":"TR"},{"id":"741884","name":"Lalapasa","latitude":"41.839512","longitude":"26.735609","country":"TR"},{"id":"741892","name":"Ladik","latitude":"40.910561","longitude":"35.891941","country":"TR"},{"id":"742095","name":"Kurucasile","latitude":"41.837811","longitude":"32.716209","country":"TR"},{"id":"742164","name":"Kursunlu","latitude":"40.841011","longitude":"33.260281","country":"TR"},{"id":"742171","name":"Kursunlu","latitude":"40.033611","longitude":"29.664721","country":"TR"},{"id":"742189","name":"Kure","latitude":"41.805779","longitude":"33.711609","country":"TR"},{"id":"742238","name":"Kumru","latitude":"40.874439","longitude":"37.263889","country":"TR"},{"id":"742266","name":"Kumburgaz","latitude":"41.021069","longitude":"28.477150","country":"TR"},{"id":"742292","name":"Kullar","latitude":"40.725739","longitude":"29.972300","country":"TR"},{"id":"742348","name":"Kucukkumla","latitude":"40.477371","longitude":"29.123060","country":"TR"},{"id":"742499","name":"Koyulhisar","latitude":"40.302502","longitude":"37.831108","country":"TR"},{"id":"742588","name":"Kosekoy","latitude":"40.753391","longitude":"30.030199","country":"TR"},{"id":"742606","name":"Kose","latitude":"40.209999","longitude":"39.651112","country":"TR"},{"id":"742617","name":"Koru","latitude":"40.654350","longitude":"29.162901","country":"TR"},{"id":"742657","name":"Korgun","latitude":"40.734798","longitude":"33.518440","country":"TR"},{"id":"742658","name":"Korgan","latitude":"40.824718","longitude":"37.346668","country":"TR"},{"id":"742686","name":"Koprubasi","latitude":"40.808578","longitude":"40.123760","country":"TR"},{"id":"742902","name":"Kocaali","latitude":"41.053360","longitude":"30.852779","country":"TR"},{"id":"742987","name":"Kizilirmak","latitude":"40.345558","longitude":"33.986389","country":"TR"},{"id":"743051","name":"Kizilcahamam","latitude":"40.469719","longitude":"32.650558","country":"TR"},{"id":"743166","name":"Kirklareli","latitude":"41.735081","longitude":"27.225210","country":"TR"},{"id":"743256","name":"Kirazli","latitude":"40.099720","longitude":"29.042780","country":"TR"},{"id":"743382","name":"Kibriscik","latitude":"40.407780","longitude":"31.851940","country":"TR"},{"id":"743404","name":"Kestel","latitude":"40.198280","longitude":"29.212370","country":"TR"},{"id":"743438","name":"Kesap","latitude":"40.916389","longitude":"38.514439","country":"TR"},{"id":"743439","name":"Kesan","latitude":"40.855831","longitude":"26.630280","country":"TR"},{"id":"743537","name":"Kelkit","latitude":"40.129780","longitude":"39.436069","country":"TR"},{"id":"743615","name":"Kazan","latitude":"40.231670","longitude":"32.683891","country":"TR"},{"id":"743616","name":"Kaytazdere","latitude":"40.682251","longitude":"29.532360","country":"TR"},{"id":"743633","name":"Kaynarca","latitude":"41.030830","longitude":"30.307501","country":"TR"},{"id":"743818","name":"Kavakli","latitude":"41.092579","longitude":"28.331720","country":"TR"},{"id":"743851","name":"Kavak","latitude":"41.078331","longitude":"36.042500","country":"TR"},{"id":"743882","name":"Kastamonu","latitude":"41.378052","longitude":"33.775280","country":"TR"},{"id":"743952","name":"Kars","latitude":"40.601990","longitude":"43.094952","country":"TR"},{"id":"744093","name":"Karasu","latitude":"41.070961","longitude":"30.785431","country":"TR"},{"id":"744110","name":"Karapurcek","latitude":"40.641941","longitude":"30.539440","country":"TR"},{"id":"744168","name":"Karamursel","latitude":"40.691441","longitude":"29.615681","country":"TR"},{"id":"744514","name":"Karacakoy","latitude":"41.402859","longitude":"28.383381","country":"TR"},{"id":"744537","name":"Karacabey","latitude":"40.215248","longitude":"28.403780","country":"TR"},{"id":"744562","name":"Karabuk","latitude":"41.204880","longitude":"32.627682","country":"TR"},{"id":"744716","name":"Kandira","latitude":"41.073601","longitude":"30.174601","country":"TR"},{"id":"744767","name":"Kalkandere","latitude":"40.928040","longitude":"40.441898","country":"TR"},{"id":"744814","name":"Kalecik","latitude":"40.097221","longitude":"33.408329","country":"TR"},{"id":"744873","name":"Kagizman","latitude":"40.156689","longitude":"43.134239","country":"TR"},{"id":"744926","name":"Kadikoy","latitude":"40.620152","longitude":"29.225361","country":"TR"},{"id":"744958","name":"Kabatas","latitude":"40.750000","longitude":"37.450001","country":"TR"},{"id":"745007","name":"Kabaduz","latitude":"40.859718","longitude":"37.889999","country":"TR"},{"id":"745026","name":"Iznik","latitude":"40.428612","longitude":"29.721109","country":"TR"},{"id":"745028","name":"Izmit","latitude":"40.766941","longitude":"29.916941","country":"TR"},{"id":"745030","name":"Iyidere","latitude":"41.011921","longitude":"40.361851","country":"TR"},{"id":"745044","name":"Istanbul","latitude":"41.013840","longitude":"28.949659","country":"TR"},{"id":"745047","name":"Ispir","latitude":"40.482868","longitude":"40.995571","country":"TR"},{"id":"745076","name":"Iskilip","latitude":"40.735279","longitude":"34.473888","country":"TR"},{"id":"745148","name":"Ipsala","latitude":"40.921150","longitude":"26.382730","country":"TR"},{"id":"745164","name":"Inhisar","latitude":"40.049320","longitude":"30.385210","country":"TR"},{"id":"745169","name":"Inegeul","latitude":"40.078060","longitude":"29.513330","country":"TR"},{"id":"745175","name":"Inebolu","latitude":"41.974720","longitude":"33.760830","country":"TR"},{"id":"745260","name":"Gokceada","latitude":"40.201069","longitude":"25.909019","country":"TR"},{"id":"745344","name":"Ilgaz","latitude":"40.925110","longitude":"33.625858","country":"TR"},{"id":"745364","name":"Ikizce","latitude":"41.058331","longitude":"37.080280","country":"TR"},{"id":"745383","name":"Ihsaniye","latitude":"40.690868","longitude":"29.834721","country":"TR"},{"id":"745387","name":"Ihsangazi","latitude":"41.204319","longitude":"33.554550","country":"TR"},{"id":"745527","name":"Horasan","latitude":"40.045830","longitude":"42.172779","country":"TR"},{"id":"745530","name":"Hopa","latitude":"41.405972","longitude":"41.437870","country":"TR"},{"id":"745664","name":"Hendek","latitude":"40.799438","longitude":"30.748060","country":"TR"},{"id":"745665","name":"Nurluca","latitude":"41.022678","longitude":"40.898338","country":"TR"},{"id":"745693","name":"Hayrat","latitude":"40.888439","longitude":"40.369862","country":"TR"},{"id":"745697","name":"Hayrabolu","latitude":"41.213112","longitude":"27.106880","country":"TR"},{"id":"745714","name":"Havza","latitude":"40.970558","longitude":"35.662220","country":"TR"},{"id":"745719","name":"Havsa","latitude":"41.548981","longitude":"26.822069","country":"TR"},{"id":"745884","name":"Hanonu","latitude":"41.627048","longitude":"34.466671","country":"TR"},{"id":"745903","name":"Hanak","latitude":"41.233608","longitude":"42.847221","country":"TR"},{"id":"746232","name":"Gursu","latitude":"40.218761","longitude":"29.194870","country":"TR"},{"id":"746234","name":"Gurpinar","latitude":"40.990280","longitude":"28.615280","country":"TR"},{"id":"746252","name":"Gurgentepe","latitude":"40.788330","longitude":"37.601669","country":"TR"},{"id":"746308","name":"Guneysu","latitude":"40.977619","longitude":"40.613590","country":"TR"},{"id":"746425","name":"Gumushkhane","latitude":"40.460281","longitude":"39.481392","country":"TR"},{"id":"746426","name":"Gumushacikoy","latitude":"40.873058","longitude":"35.214722","country":"TR"},{"id":"746497","name":"Gudul","latitude":"40.210510","longitude":"32.245522","country":"TR"},{"id":"746546","name":"Goynuk","latitude":"40.400280","longitude":"30.788330","country":"TR"},{"id":"746547","name":"Goynucek","latitude":"40.399170","longitude":"35.525002","country":"TR"},{"id":"746565","name":"Gorele","latitude":"41.030830","longitude":"39.003059","country":"TR"},{"id":"746574","name":"Gonen","latitude":"40.104900","longitude":"27.653990","country":"TR"},{"id":"746602","name":"Golpazari","latitude":"40.284721","longitude":"30.317221","country":"TR"},{"id":"746603","name":"Golova","latitude":"40.061939","longitude":"38.606670","country":"TR"},{"id":"746643","name":"Merdinik","latitude":"40.793610","longitude":"42.609169","country":"TR"},{"id":"746666","name":"Geulzuk","latitude":"40.716671","longitude":"29.828609","country":"TR"},{"id":"746712","name":"Murgul","latitude":"41.274441","longitude":"41.566109","country":"TR"},{"id":"746821","name":"Gokcebey","latitude":"41.305828","longitude":"32.142342","country":"TR"},{"id":"746881","name":"Giresun","latitude":"40.916981","longitude":"38.387409","country":"TR"},{"id":"746898","name":"Geyve","latitude":"40.507500","longitude":"30.292500","country":"TR"},{"id":"746913","name":"Gerze","latitude":"41.803612","longitude":"35.201111","country":"TR"},{"id":"746940","name":"Gerede","latitude":"40.800831","longitude":"32.196941","country":"TR"},{"id":"746958","name":"Gemlik","latitude":"40.430939","longitude":"29.159691","country":"TR"},{"id":"746983","name":"Gelibolu","latitude":"40.410278","longitude":"26.670830","country":"TR"},{"id":"747014","name":"Gebze","latitude":"40.802761","longitude":"29.430679","country":"TR"},{"id":"747135","name":"Ferizli","latitude":"40.940819","longitude":"30.485830","country":"TR"},{"id":"747155","name":"Fatsa","latitude":"41.027779","longitude":"37.501389","country":"TR"},{"id":"747191","name":"Eynesil","latitude":"41.064529","longitude":"39.143799","country":"TR"},{"id":"747217","name":"Evren","latitude":"40.244320","longitude":"39.175331","country":"TR"},{"id":"747263","name":"Gozyeri","latitude":"40.865959","longitude":"32.541672","country":"TR"},{"id":"747323","name":"Esenyurt","latitude":"41.033329","longitude":"28.675280","country":"TR"},{"id":"747340","name":"Esenler","latitude":"41.043499","longitude":"28.876190","country":"TR"},{"id":"747449","name":"Erfelek","latitude":"41.879261","longitude":"34.918381","country":"TR"},{"id":"747471","name":"Eregli","latitude":"41.282619","longitude":"31.418060","country":"TR"},{"id":"747482","name":"Erdek","latitude":"40.399601","longitude":"27.793480","country":"TR"},{"id":"747489","name":"Erbaa","latitude":"40.668892","longitude":"36.567501","country":"TR"},{"id":"747503","name":"Enez","latitude":"40.724720","longitude":"26.082500","country":"TR"},{"id":"747618","name":"Eldivan","latitude":"40.529751","longitude":"33.499039","country":"TR"},{"id":"747630","name":"Elbeyli","latitude":"40.486111","longitude":"29.724720","country":"TR"},{"id":"747705","name":"Eflani","latitude":"41.422890","longitude":"32.957611","country":"TR"},{"id":"747712","name":"Edirne","latitude":"41.677189","longitude":"26.555969","country":"TR"},{"id":"747728","name":"Eceabat","latitude":"40.184158","longitude":"26.357401","country":"TR"},{"id":"747751","name":"Duzkoy","latitude":"40.872841","longitude":"39.427158","country":"TR"},{"id":"747764","name":"Duzce","latitude":"40.838890","longitude":"31.163891","country":"TR"},{"id":"747793","name":"Durusu","latitude":"41.305279","longitude":"28.676670","country":"TR"},{"id":"747826","name":"Duragan","latitude":"41.415829","longitude":"35.054440","country":"TR"},{"id":"747899","name":"Dortdivan","latitude":"40.720520","longitude":"32.063141","country":"TR"},{"id":"747912","name":"Dongel","latitude":"40.693600","longitude":"29.941540","country":"TR"},{"id":"747986","name":"Dogansar","latitude":"40.216671","longitude":"37.533329","country":"TR"},{"id":"748008","name":"Dogankent","latitude":"40.807499","longitude":"38.917221","country":"TR"},{"id":"748166","name":"Devrekani","latitude":"41.603031","longitude":"33.839218","country":"TR"},{"id":"748167","name":"Devrek","latitude":"41.219170","longitude":"31.955830","country":"TR"},{"id":"748200","name":"Dernekpazari","latitude":"40.802860","longitude":"40.239578","country":"TR"},{"id":"748240","name":"Dereli","latitude":"40.737801","longitude":"38.449341","country":"TR"},{"id":"748378","name":"Demirtas","latitude":"40.271938","longitude":"29.098330","country":"TR"},{"id":"748688","name":"Damal","latitude":"41.340351","longitude":"42.839359","country":"TR"},{"id":"748761","name":"Daday","latitude":"41.478661","longitude":"33.466671","country":"TR"},{"id":"748870","name":"Cubuk","latitude":"40.238609","longitude":"33.032219","country":"TR"},{"id":"748879","name":"Corum","latitude":"40.548889","longitude":"34.953331","country":"TR"},{"id":"748893","name":"Corlu","latitude":"41.159168","longitude":"27.799999","country":"TR"},{"id":"749075","name":"Cinarcik","latitude":"40.641201","longitude":"29.145981","country":"TR"},{"id":"749163","name":"Ciftlikkoy","latitude":"40.660278","longitude":"29.323610","country":"TR"},{"id":"749263","name":"Cerrah","latitude":"40.071239","longitude":"29.446609","country":"TR"},{"id":"749274","name":"Cerkezkoy","latitude":"41.285000","longitude":"28.000280","country":"TR"},{"id":"749279","name":"Cerkes","latitude":"40.811642","longitude":"32.893581","country":"TR"},{"id":"749392","name":"Cekerek","latitude":"40.073059","longitude":"35.494720","country":"TR"},{"id":"749421","name":"Kurtun","latitude":"40.670921","longitude":"39.143608","country":"TR"},{"id":"749456","name":"Caykara","latitude":"40.754810","longitude":"40.235519","country":"TR"},{"id":"749502","name":"Cayeli","latitude":"41.092281","longitude":"40.729240","country":"TR"},{"id":"749508","name":"Caycuma","latitude":"41.426392","longitude":"32.075562","country":"TR"},{"id":"749644","name":"Catalca","latitude":"41.143242","longitude":"28.461540","country":"TR"},{"id":"749704","name":"Carsamba","latitude":"41.198891","longitude":"36.721939","country":"TR"},{"id":"749740","name":"Canta","latitude":"41.118141","longitude":"28.080339","country":"TR"},{"id":"749748","name":"Khanjarah","latitude":"40.599949","longitude":"33.615299","country":"TR"},{"id":"749780","name":"Canakkale","latitude":"40.145561","longitude":"26.406389","country":"TR"},{"id":"749795","name":"Can","latitude":"40.033279","longitude":"27.052361","country":"TR"},{"id":"749843","name":"Camlidere","latitude":"40.489578","longitude":"32.474991","country":"TR"},{"id":"749916","name":"Camas","latitude":"40.901669","longitude":"37.528839","country":"TR"},{"id":"750043","name":"Cakirli","latitude":"40.518059","longitude":"29.452221","country":"TR"},{"id":"750165","name":"Lacin","latitude":"40.770180","longitude":"34.898380","country":"TR"},{"id":"750228","name":"Buyukcavuslu","latitude":"41.242271","longitude":"28.064619","country":"TR"},{"id":"750269","name":"Bursa","latitude":"40.191669","longitude":"29.061110","country":"TR"},{"id":"750317","name":"Bulancak","latitude":"40.937168","longitude":"38.229069","country":"TR"},{"id":"750392","name":"Bozkurt","latitude":"41.957691","longitude":"34.010860","country":"TR"},{"id":"750446","name":"Boyalik","latitude":"41.263371","longitude":"28.631420","country":"TR"},{"id":"750450","name":"Boyalica","latitude":"40.481941","longitude":"29.560829","country":"TR"},{"id":"750468","name":"Boyabat","latitude":"41.468891","longitude":"34.766670","country":"TR"},{"id":"750496","name":"Borcka","latitude":"41.363152","longitude":"41.676521","country":"TR"},{"id":"750516","name":"Bolu","latitude":"40.735828","longitude":"31.606110","country":"TR"},{"id":"750598","name":"Bilecik","latitude":"40.141918","longitude":"29.979321","country":"TR"},{"id":"750605","name":"Biga","latitude":"40.228062","longitude":"27.242220","country":"TR"},{"id":"750615","name":"Asarcik","latitude":"41.035561","longitude":"36.235561","country":"TR"},{"id":"750637","name":"Beypazari","latitude":"40.167500","longitude":"31.921110","country":"TR"},{"id":"750735","name":"Besikduzu","latitude":"41.051991","longitude":"39.228439","country":"TR"},{"id":"750874","name":"Bayramoren","latitude":"40.943291","longitude":"33.202999","country":"TR"},{"id":"750938","name":"Bayburt","latitude":"40.258888","longitude":"40.227779","country":"TR"},{"id":"751036","name":"Basciftlik","latitude":"40.546940","longitude":"37.169170","country":"TR"},{"id":"751057","name":"Bartin","latitude":"41.635830","longitude":"32.337502","country":"TR"},{"id":"751077","name":"Bandirma","latitude":"40.352219","longitude":"27.976669","country":"TR"},{"id":"751277","name":"Bahcecik","latitude":"40.667290","longitude":"29.914881","country":"TR"},{"id":"751324","name":"Bagcilar","latitude":"41.039028","longitude":"28.856710","country":"TR"},{"id":"751335","name":"Bafra","latitude":"41.567780","longitude":"35.906940","country":"TR"},{"id":"751371","name":"Babaeski","latitude":"41.432499","longitude":"27.093060","country":"TR"},{"id":"751388","name":"Azdavay","latitude":"41.642670","longitude":"33.299999","country":"TR"},{"id":"751427","name":"Ayvacik","latitude":"40.991112","longitude":"36.631390","country":"TR"},{"id":"751475","name":"Aydintepe","latitude":"40.389439","longitude":"40.150600","country":"TR"},{"id":"751491","name":"Aydincik","latitude":"40.127270","longitude":"35.287651","country":"TR"},{"id":"751511","name":"Ayas","latitude":"40.019329","longitude":"32.332211","country":"TR"},{"id":"751516","name":"Ayancik","latitude":"41.944721","longitude":"34.586109","country":"TR"},{"id":"751575","name":"Atkaracalar","latitude":"40.815929","longitude":"33.075562","country":"TR"},{"id":"751817","name":"Artvin","latitude":"41.182220","longitude":"41.819439","country":"TR"},{"id":"751818","name":"Artova","latitude":"40.115780","longitude":"36.300098","country":"TR"},{"id":"751838","name":"Arsin","latitude":"40.949581","longitude":"39.927559","country":"TR"},{"id":"751864","name":"Arpacay","latitude":"40.848701","longitude":"43.329109","country":"TR"},{"id":"751931","name":"Arhavi","latitude":"41.349171","longitude":"41.306938","country":"TR"},{"id":"751949","name":"Ardesen","latitude":"41.191109","longitude":"40.987499","country":"TR"},{"id":"751950","name":"Ardanuc","latitude":"41.127380","longitude":"42.062920","country":"TR"},{"id":"751952","name":"Ardahan","latitude":"41.108711","longitude":"42.702221","country":"TR"},{"id":"751971","name":"Arakli","latitude":"40.938541","longitude":"40.058418","country":"TR"},{"id":"751976","name":"Arac","latitude":"41.242222","longitude":"33.327671","country":"TR"},{"id":"752015","name":"Amasya","latitude":"40.653332","longitude":"35.833061","country":"TR"},{"id":"752016","name":"Amasra","latitude":"41.746330","longitude":"32.386330","country":"TR"},{"id":"752042","name":"Altinova","latitude":"40.694950","longitude":"29.509859","country":"TR"},{"id":"752083","name":"Almus","latitude":"40.375832","longitude":"36.904442","country":"TR"},{"id":"752184","name":"Alapli","latitude":"41.169399","longitude":"31.379169","country":"TR"},{"id":"752188","name":"Alanyurt","latitude":"40.108810","longitude":"29.518709","country":"TR"},{"id":"752278","name":"Alaca","latitude":"40.168331","longitude":"34.842499","country":"TR"},{"id":"752284","name":"Akyurt","latitude":"40.135120","longitude":"33.086140","country":"TR"},{"id":"752288","name":"Akyazi","latitude":"40.685001","longitude":"30.622219","country":"TR"},{"id":"752359","name":"Aksu","latitude":"40.089481","longitude":"38.035229","country":"TR"},{"id":"752437","name":"Akkus","latitude":"40.793060","longitude":"37.016392","country":"TR"},{"id":"752476","name":"Akincilar","latitude":"40.079720","longitude":"38.348061","country":"TR"},{"id":"752584","name":"Akcakoca","latitude":"41.086632","longitude":"31.116230","country":"TR"},{"id":"752627","name":"Akcaabat","latitude":"41.021198","longitude":"39.571461","country":"TR"},{"id":"752850","name":"Adapazari","latitude":"40.780560","longitude":"30.403330","country":"TR"},{"id":"752926","name":"Abana","latitude":"41.978580","longitude":"34.011002","country":"TR"},{"id":"831432","name":"Espiye","latitude":"40.947941","longitude":"38.711479","country":"TR"},{"id":"857229","name":"Celaliye","latitude":"41.051880","longitude":"28.418671","country":"TR"},{"id":"857230","name":"Muratbey","latitude":"41.096298","longitude":"28.492270","country":"TR"},{"id":"862940","name":"Halidere","latitude":"40.716042","longitude":"29.752230","country":"TR"},{"id":"6354984","name":"merter keresteciler","latitude":"41.012951","longitude":"28.885929","country":"TR"},{"id":"6354985","name":"guengoeren merter","latitude":"41.007111","longitude":"28.887951","country":"TR"},{"id":"6559490","name":"Demre","latitude":"36.253700","longitude":"29.977699","country":"TR"},{"id":"6692524","name":"Sarigerme","latitude":"36.715488","longitude":"28.704359","country":"TR"},{"id":"6692526","name":"OEluedeniz","latitude":"36.566738","longitude":"29.144670","country":"TR"},{"id":"6940491","name":"Arikoey","latitude":"41.230438","longitude":"29.004250","country":"TR"},{"id":"6940561","name":"Catalhoeyuek","latitude":"37.668468","longitude":"32.826889","country":"TR"},{"id":"6947637","name":"Atasehir","latitude":"40.983299","longitude":"29.116699","country":"TR"},{"id":"6947639","name":"Basaksehir","latitude":"41.093071","longitude":"28.802031","country":"TR"},{"id":"6947640","name":"Beylikduezue","latitude":"40.981998","longitude":"28.639900","country":"TR"},{"id":"6947641","name":"Bueyuekcekmece","latitude":"41.020721","longitude":"28.585020","country":"TR"},{"id":"6955677","name":"Cankaya","latitude":"39.917900","longitude":"32.862679","country":"TR"},{"id":"7280504","name":"Yaniklar","latitude":"36.708271","longitude":"29.050810","country":"TR"},{"id":"7627067","name":"Bahcelievler","latitude":"41.002312","longitude":"28.859800","country":"TR"},{"id":"7628416","name":"Sultangazi","latitude":"41.106522","longitude":"28.868469","country":"TR"},{"id":"7628419","name":"Sultanbeyli","latitude":"40.960720","longitude":"29.270670","country":"TR"},{"id":"7628420","name":"Sancaktepe","latitude":"41.002441","longitude":"29.231871","country":"TR"},{"id":"7701384","name":"Karabaglar","latitude":"38.373959","longitude":"27.135201","country":"TR"}]