[{"id":"1222396","name":"Kuah","latitude":"6.326490","longitude":"99.843201","country":"MY"},{"id":"1732602","name":"Jerantut","latitude":"3.936000","longitude":"102.362602","country":"MY"},{"id":"1732663","name":"Raub","latitude":"3.789900","longitude":"101.857002","country":"MY"},{"id":"1732687","name":"Batu Pahat","latitude":"1.854800","longitude":"102.932503","country":"MY"},{"id":"1732698","name":"Parit Raja","latitude":"1.868100","longitude":"103.112396","country":"MY"},{"id":"1732706","name":"Pekan Nenas","latitude":"1.510000","longitude":"103.514099","country":"MY"},{"id":"1732711","name":"Pontian Kechil","latitude":"1.486600","longitude":"103.389603","country":"MY"},{"id":"1732721","name":"Kampung Pasir Gudang Baru","latitude":"1.472600","longitude":"103.877998","country":"MY"},{"id":"1732738","name":"Kota Tinggi","latitude":"1.738100","longitude":"103.899902","country":"MY"},{"id":"1732741","name":"Taman Senai","latitude":"1.600600","longitude":"103.641899","country":"MY"},{"id":"1732742","name":"Kulai","latitude":"1.656100","longitude":"103.603203","country":"MY"},{"id":"1732745","name":"Sekudai","latitude":"1.533330","longitude":"103.666672","country":"MY"},{"id":"1732752","name":"Johor Bahru","latitude":"1.465500","longitude":"103.757797","country":"MY"},{"id":"1732811","name":"Kluang","latitude":"2.025100","longitude":"103.332802","country":"MY"},{"id":"1732814","name":"Yong Peng","latitude":"2.013600","longitude":"103.065903","country":"MY"},{"id":"1732826","name":"Mersing","latitude":"2.431200","longitude":"103.840500","country":"MY"},{"id":"1732846","name":"Segamat","latitude":"2.514800","longitude":"102.815804","country":"MY"},{"id":"1732857","name":"Tangkak","latitude":"2.267300","longitude":"102.545303","country":"MY"},{"id":"1732869","name":"Muar","latitude":"2.044200","longitude":"102.568901","country":"MY"},{"id":"1732871","name":"Bakri","latitude":"2.044100","longitude":"102.652702","country":"MY"},{"id":"1732877","name":"Labis","latitude":"2.385000","longitude":"103.021004","country":"MY"},{"id":"1732884","name":"Chaah","latitude":"2.249000","longitude":"103.047997","country":"MY"},{"id":"1732891","name":"Kuala Selangor","latitude":"3.350000","longitude":"101.250000","country":"MY"},{"id":"1732892","name":"Batang Berjuntai","latitude":"3.383330","longitude":"101.416672","country":"MY"},{"id":"1732893","name":"Batu Arang","latitude":"3.316670","longitude":"101.466667","country":"MY"},{"id":"1732903","name":"Shah Alam","latitude":"3.085070","longitude":"101.532806","country":"MY"},{"id":"1732905","name":"Klang","latitude":"3.033330","longitude":"101.449997","country":"MY"},{"id":"1732945","name":"Cukai","latitude":"4.250000","longitude":"103.416672","country":"MY"},{"id":"1733023","name":"Kuala Lipis","latitude":"4.184200","longitude":"102.046799","country":"MY"},{"id":"1733353","name":"Papar","latitude":"5.733330","longitude":"115.933327","country":"MY"},{"id":"1733432","name":"Kota Kinabalu","latitude":"5.974900","longitude":"116.072403","country":"MY"},{"id":"1733438","name":"Donggongon","latitude":"5.907020","longitude":"116.101463","country":"MY"},{"id":"1733440","name":"Putatan","latitude":"5.925800","longitude":"116.060944","country":"MY"},{"id":"1733449","name":"Kinarut","latitude":"5.823100","longitude":"116.046600","country":"MY"},{"id":"1733502","name":"Ranau","latitude":"5.953800","longitude":"116.664101","country":"MY"},{"id":"1733697","name":"Semporna","latitude":"4.481780","longitude":"118.611183","country":"MY"},{"id":"1733782","name":"Victoria","latitude":"5.276670","longitude":"115.241669","country":"MY"},{"id":"1733874","name":"Beaufort","latitude":"5.347300","longitude":"115.745499","country":"MY"},{"id":"1733953","name":"Lahad Datu","latitude":"5.026800","longitude":"118.327003","country":"MY"},{"id":"1734052","name":"Sandakan","latitude":"5.840200","longitude":"118.117897","country":"MY"},{"id":"1734098","name":"Keningau","latitude":"5.337800","longitude":"116.160202","country":"MY"},{"id":"1734199","name":"Tawau","latitude":"4.249800","longitude":"117.887100","country":"MY"},{"id":"1734313","name":"Paka","latitude":"4.637400","longitude":"103.436798","country":"MY"},{"id":"1734316","name":"Kertih","latitude":"4.514100","longitude":"103.448303","country":"MY"},{"id":"1734393","name":"Kulim","latitude":"5.364990","longitude":"100.561768","country":"MY"},{"id":"1734409","name":"Bagan Serai","latitude":"5.010800","longitude":"100.541008","country":"MY"},{"id":"1734439","name":"Bedong","latitude":"5.727440","longitude":"100.508759","country":"MY"},{"id":"1734576","name":"Simpang Empat","latitude":"4.950000","longitude":"100.633331","country":"MY"},{"id":"1734586","name":"Taiping","latitude":"4.850000","longitude":"100.733330","country":"MY"},{"id":"1734599","name":"Kuala Kangsar","latitude":"4.766670","longitude":"100.933327","country":"MY"},{"id":"1734634","name":"Ipoh","latitude":"4.584100","longitude":"101.082901","country":"MY"},{"id":"1734651","name":"Gua Musang","latitude":"4.882300","longitude":"101.964401","country":"MY"},{"id":"1734705","name":"Kuala Terengganu","latitude":"5.330200","longitude":"103.140800","country":"MY"},{"id":"1734715","name":"Marang","latitude":"5.205600","longitude":"103.205902","country":"MY"},{"id":"1734738","name":"Tampin","latitude":"2.470100","longitude":"102.230202","country":"MY"},{"id":"1734745","name":"Alor Gajah","latitude":"2.380400","longitude":"102.208900","country":"MY"},{"id":"1734753","name":"Kampung Ayer Keroh","latitude":"2.265400","longitude":"102.280098","country":"MY"},{"id":"1734757","name":"Sungai Udang","latitude":"2.269000","longitude":"102.142700","country":"MY"},{"id":"1734759","name":"Melaka","latitude":"2.196000","longitude":"102.240501","country":"MY"},{"id":"1734781","name":"Banting","latitude":"2.816670","longitude":"101.500000","country":"MY"},{"id":"1734793","name":"Jenjarum","latitude":"2.883330","longitude":"101.500000","country":"MY"},{"id":"1734798","name":"Semenyih","latitude":"2.951600","longitude":"101.843002","country":"MY"},{"id":"1734802","name":"Beranang","latitude":"2.873300","longitude":"101.869698","country":"MY"},{"id":"1734810","name":"Seremban","latitude":"2.729700","longitude":"101.938103","country":"MY"},{"id":"1734815","name":"Port Dickson","latitude":"2.522800","longitude":"101.795898","country":"MY"},{"id":"1734839","name":"Bahau","latitude":"2.807900","longitude":"102.404900","country":"MY"},{"id":"1734841","name":"Kuala Pilah","latitude":"2.738900","longitude":"102.248703","country":"MY"},{"id":"1734879","name":"Buloh Kasap","latitude":"2.553600","longitude":"102.764000","country":"MY"},{"id":"1734971","name":"Pekan","latitude":"3.483600","longitude":"103.399597","country":"MY"},{"id":"1735018","name":"Mentekab","latitude":"3.485400","longitude":"102.348396","country":"MY"},{"id":"1735022","name":"Temerluh","latitude":"3.450600","longitude":"102.417603","country":"MY"},{"id":"1735076","name":"Butterworth","latitude":"5.399100","longitude":"100.363823","country":"MY"},{"id":"1735077","name":"Perai","latitude":"5.383330","longitude":"100.383331","country":"MY"},{"id":"1735079","name":"Bukit Mertajam","latitude":"5.363010","longitude":"100.466698","country":"MY"},{"id":"1735086","name":"Nibong Tebal","latitude":"5.165860","longitude":"100.477928","country":"MY"},{"id":"1735089","name":"Parit Buntar","latitude":"5.126710","longitude":"100.493156","country":"MY"},{"id":"1735093","name":"Tasek Glugor","latitude":"5.480320","longitude":"100.498489","country":"MY"},{"id":"1735106","name":"George Town","latitude":"5.411230","longitude":"100.335426","country":"MY"},{"id":"1735133","name":"Kampung Bukit Tinggi","latitude":"3.350000","longitude":"101.816673","country":"MY"},{"id":"1735148","name":"Serendah","latitude":"3.364600","longitude":"101.604103","country":"MY"},{"id":"1735150","name":"Rawang","latitude":"3.321300","longitude":"101.576698","country":"MY"},{"id":"1735158","name":"Petaling Jaya","latitude":"3.107260","longitude":"101.606712","country":"MY"},{"id":"1735161","name":"Kuala Lumpur","latitude":"3.141200","longitude":"101.686531","country":"MY"},{"id":"1735195","name":"Sabak Bernam","latitude":"3.769800","longitude":"100.987900","country":"MY"},{"id":"1735199","name":"Sungai Besar","latitude":"3.674600","longitude":"100.986702","country":"MY"},{"id":"1735227","name":"Kuantan","latitude":"3.807700","longitude":"103.325996","country":"MY"},{"id":"1735262","name":"Tanah Rata","latitude":"4.475000","longitude":"101.370399","country":"MY"},{"id":"1735268","name":"Batu Gajah","latitude":"4.469160","longitude":"101.041069","country":"MY"},{"id":"1735274","name":"Kampar","latitude":"4.300000","longitude":"101.150002","country":"MY"},{"id":"1735282","name":"Tapah Road","latitude":"4.166670","longitude":"101.199997","country":"MY"},{"id":"1735287","name":"Bidur","latitude":"4.116670","longitude":"101.283333","country":"MY"},{"id":"1735450","name":"Lumut","latitude":"4.232300","longitude":"100.629799","country":"MY"},{"id":"1735459","name":"Teluk Intan","latitude":"4.025900","longitude":"101.021301","country":"MY"},{"id":"1735485","name":"Gurun","latitude":"5.817170","longitude":"100.473808","country":"MY"},{"id":"1735498","name":"Sungai Petani","latitude":"5.647000","longitude":"100.487717","country":"MY"},{"id":"1735506","name":"Kepala Batas","latitude":"5.517070","longitude":"100.426498","country":"MY"},{"id":"1735553","name":"Tanah Merah","latitude":"5.800000","longitude":"102.150002","country":"MY"},{"id":"1735634","name":"Kuching","latitude":"1.550000","longitude":"110.333328","country":"MY"},{"id":"1735799","name":"Simanggang","latitude":"1.247220","longitude":"111.452782","country":"MY"},{"id":"1735837","name":"Sarikei","latitude":"2.116670","longitude":"111.516670","country":"MY"},{"id":"1735902","name":"Sibu","latitude":"2.300000","longitude":"111.816673","country":"MY"},{"id":"1736278","name":"Kangar","latitude":"6.441400","longitude":"100.198624","country":"MY"},{"id":"1736292","name":"Kuala Perlis","latitude":"6.400000","longitude":"100.133331","country":"MY"},{"id":"1736302","name":"Jitra","latitude":"6.268120","longitude":"100.421669","country":"MY"},{"id":"1736305","name":"Kuala Kedah","latitude":"6.100000","longitude":"100.300003","country":"MY"},{"id":"1736309","name":"Alor Setar","latitude":"6.121040","longitude":"100.360138","country":"MY"},{"id":"1736356","name":"Tumpat","latitude":"6.197760","longitude":"102.170982","country":"MY"},{"id":"1736372","name":"Pasir Mas","latitude":"6.049340","longitude":"102.139870","country":"MY"},{"id":"1736376","name":"Kota Bharu","latitude":"6.133280","longitude":"102.238602","country":"MY"},{"id":"1736405","name":"Jertih","latitude":"5.733600","longitude":"102.489700","country":"MY"},{"id":"1736458","name":"Kudat","latitude":"6.883700","longitude":"116.847702","country":"MY"},{"id":"1736660","name":"Kota Belud","latitude":"6.351000","longitude":"116.430496","country":"MY"},{"id":"1737185","name":"Kapit","latitude":"2.016670","longitude":"112.933327","country":"MY"},{"id":"1737486","name":"Bintulu","latitude":"3.166670","longitude":"113.033333","country":"MY"},{"id":"1737714","name":"Limbang","latitude":"4.750000","longitude":"115.000000","country":"MY"},{"id":"1738050","name":"Miri","latitude":"4.414800","longitude":"114.008904","country":"MY"},{"id":"1738294","name":"Ulu Tiram","latitude":"1.600000","longitude":"103.816673","country":"MY"},{"id":"1741550","name":"Tanjung Tokong","latitude":"5.460610","longitude":"100.307419","country":"MY"},{"id":"1741562","name":"Tanjung Sepat","latitude":"2.657900","longitude":"101.562897","country":"MY"},{"id":"1742667","name":"Sungai Pelek New Village","latitude":"2.650000","longitude":"101.699997","country":"MY"},{"id":"1749659","name":"Pulau Sebang","latitude":"2.455000","longitude":"102.232903","country":"MY"},{"id":"1750500","name":"Permatang Kuching","latitude":"5.463390","longitude":"100.381439","country":"MY"},{"id":"1750582","name":"Peringat","latitude":"6.033330","longitude":"102.283333","country":"MY"},{"id":"1750974","name":"Ladang Seri Kundang","latitude":"3.285600","longitude":"101.518997","country":"MY"},{"id":"1752256","name":"Pantai Remis","latitude":"4.455700","longitude":"100.628799","country":"MY"},{"id":"1759486","name":"Kuang","latitude":"3.259400","longitude":"101.554100","country":"MY"},{"id":"1759513","name":"Kuala Sungai Baru","latitude":"2.359400","longitude":"102.035301","country":"MY"},{"id":"1761242","name":"Klebang Besar","latitude":"2.218600","longitude":"102.199501","country":"MY"},{"id":"1761293","name":"Kelapa Sawit","latitude":"1.669800","longitude":"103.532700","country":"MY"},{"id":"1763412","name":"Kampung Tanjung Karang","latitude":"3.424200","longitude":"101.184898","country":"MY"},{"id":"1764160","name":"Kampung Sungai Ara","latitude":"5.326990","longitude":"100.273483","country":"MY"},{"id":"1764318","name":"Kampung Simpang Renggam","latitude":"1.827800","longitude":"103.300003","country":"MY"},{"id":"1766249","name":"Kampong Pangkal Kalong","latitude":"5.916670","longitude":"102.216667","country":"MY"},{"id":"1767021","name":"Kampong Masjid Tanah","latitude":"2.350000","longitude":"102.116669","country":"MY"},{"id":"1768664","name":"Kampong Kadok","latitude":"6.000000","longitude":"102.250000","country":"MY"},{"id":"1769612","name":"Kampong Dungun","latitude":"3.216670","longitude":"101.316673","country":"MY"},{"id":"1770351","name":"Kampung Bukit Baharu","latitude":"2.215200","longitude":"102.285103","country":"MY"},{"id":"1771023","name":"Kampung Baru Subang","latitude":"3.150000","longitude":"101.533333","country":"MY"},{"id":"1771287","name":"Kampung Baharu Nilai","latitude":"2.803300","longitude":"101.797203","country":"MY"},{"id":"1771304","name":"Kampong Baharu Balakong","latitude":"3.033330","longitude":"101.750000","country":"MY"},{"id":"1771485","name":"Kampung Ayer Molek","latitude":"2.213900","longitude":"102.327797","country":"MY"},{"id":"1772148","name":"Juru","latitude":"5.312010","longitude":"100.442291","country":"MY"},{"id":"1778290","name":"Bukit Rambai","latitude":"2.259400","longitude":"102.183800","country":"MY"},{"id":"1779790","name":"Bentong Town","latitude":"3.516670","longitude":"101.900002","country":"MY"},{"id":"1779926","name":"Bemban","latitude":"2.268400","longitude":"102.374603","country":"MY"},{"id":"1780890","name":"Batu Berendam","latitude":"2.248700","longitude":"102.246002","country":"MY"},{"id":"6697380","name":"Putrajaya","latitude":"2.935270","longitude":"101.691116","country":"MY"},{"id":"7302815","name":"Bandar Labuan","latitude":"5.288830","longitude":"115.269241","country":"MY"}]