[{"id":"3569907","name":"Saint-Pierre","latitude":"14.743830","longitude":"-61.175331","country":"MQ"},{"id":"3569915","name":"Saint-Joseph","latitude":"14.667920","longitude":"-61.045582","country":"MQ"},{"id":"3569926","name":"Sainte-Marie","latitude":"14.783920","longitude":"-60.992741","country":"MQ"},{"id":"3569928","name":"Sainte-Luce","latitude":"14.467330","longitude":"-60.927078","country":"MQ"},{"id":"3569970","name":"Riviere-Pilote","latitude":"14.477460","longitude":"-60.903500","country":"MQ"},{"id":"3570166","name":"Petite Riviere Salee","latitude":"14.750000","longitude":"-60.966671","country":"MQ"},{"id":"3570392","name":"Le Vauclin","latitude":"14.545240","longitude":"-60.838829","country":"MQ"},{"id":"3570396","name":"Les Trois-Ilets","latitude":"14.539000","longitude":"-61.036079","country":"MQ"},{"id":"3570410","name":"Saint-Esprit","latitude":"14.550000","longitude":"-60.933331","country":"MQ"},{"id":"3570412","name":"Le Robert","latitude":"14.677510","longitude":"-60.942280","country":"MQ"},{"id":"3570423","name":"Le Morne-Rouge","latitude":"14.766670","longitude":"-61.133331","country":"MQ"},{"id":"3570426","name":"Le Marin","latitude":"14.472120","longitude":"-60.869732","country":"MQ"},{"id":"3570427","name":"Le Lorrain","latitude":"14.832920","longitude":"-61.056671","country":"MQ"},{"id":"3570428","name":"Le Lamentin","latitude":"14.608000","longitude":"-61.009331","country":"MQ"},{"id":"3570429","name":"Le Francois","latitude":"14.615570","longitude":"-60.903080","country":"MQ"},{"id":"3570446","name":"La Trinite","latitude":"14.737580","longitude":"-60.962860","country":"MQ"},{"id":"3570584","name":"Le Gros-Morne","latitude":"14.700000","longitude":"-61.000000","country":"MQ"},{"id":"3570675","name":"Fort-de-France","latitude":"14.608920","longitude":"-61.073341","country":"MQ"},{"id":"3570785","name":"Ducos","latitude":"14.575290","longitude":"-60.974529","country":"MQ"},{"id":"3571097","name":"Basse-Pointe","latitude":"14.869540","longitude":"-61.115040","country":"MQ"}]