[{"id":"1818209","name":"Tsuen Wan","latitude":"22.366671","longitude":"114.099998","country":"HK"},{"id":"1818211","name":"Yung Shue Wan","latitude":"22.233330","longitude":"114.116669","country":"HK"},{"id":"1818775","name":"Sok Kwu Wan","latitude":"22.200001","longitude":"114.133331","country":"HK"},{"id":"1819609","name":"Kowloon","latitude":"22.316669","longitude":"114.183327","country":"HK"},{"id":"1819729","name":"Hong Kong","latitude":"22.285521","longitude":"114.157692","country":"HK"}]