[{"id":"346030","name":"Zifta","latitude":"30.714199","longitude":"31.244249","country":"EG"},{"id":"347236","name":"Toukh","latitude":"30.353939","longitude":"31.200710","country":"EG"},{"id":"347497","name":"Tanda","latitude":"30.788469","longitude":"31.001921","country":"EG"},{"id":"347542","name":"Tamiyah","latitude":"29.476391","longitude":"30.961189","country":"EG"},{"id":"347591","name":"Talkha","latitude":"31.053900","longitude":"31.377871","country":"EG"},{"id":"347612","name":"Tala","latitude":"30.680250","longitude":"30.942921","country":"EG"},{"id":"347634","name":"Tahta","latitude":"26.769300","longitude":"31.502140","country":"EG"},{"id":"347749","name":"Sumusta as Sultani","latitude":"28.916670","longitude":"30.850000","country":"EG"},{"id":"347796","name":"Suhaj","latitude":"26.556950","longitude":"31.694780","country":"EG"},{"id":"347863","name":"Siwah","latitude":"29.204090","longitude":"25.519520","country":"EG"},{"id":"348112","name":"Sidi Salim","latitude":"31.271049","longitude":"30.786650","country":"EG"},{"id":"349114","name":"Shirbin","latitude":"31.195440","longitude":"31.521271","country":"EG"},{"id":"349156","name":"Shibin al Qanatir","latitude":"30.312691","longitude":"31.320181","country":"EG"},{"id":"349340","name":"Sharm ash Shaykh","latitude":"27.851830","longitude":"34.304989","country":"EG"},{"id":"349715","name":"Samannud","latitude":"30.960329","longitude":"31.243320","country":"EG"},{"id":"349717","name":"Samalut","latitude":"28.312140","longitude":"30.710070","country":"EG"},{"id":"350203","name":"Rosetta","latitude":"31.404440","longitude":"30.416389","country":"EG"},{"id":"350370","name":"Quwaysina","latitude":"30.564819","longitude":"31.157770","country":"EG"},{"id":"350376","name":"Qutur","latitude":"30.972250","longitude":"30.956141","country":"EG"},{"id":"350422","name":"Kousa","latitude":"25.914070","longitude":"32.763618","country":"EG"},{"id":"350550","name":"Qina","latitude":"26.164181","longitude":"32.726711","country":"EG"},{"id":"350661","name":"Qasr al Farafirah","latitude":"27.056801","longitude":"27.969790","country":"EG"},{"id":"350789","name":"Qalyub","latitude":"30.179220","longitude":"31.205601","country":"EG"},{"id":"350893","name":"Nuwaybia","latitude":"29.046810","longitude":"34.663399","country":"EG"},{"id":"351434","name":"Naj Hammadi","latitude":"26.049490","longitude":"32.241421","country":"EG"},{"id":"352344","name":"Minyat an Nasr","latitude":"31.122940","longitude":"31.639900","country":"EG"},{"id":"352354","name":"Minuf","latitude":"30.465790","longitude":"30.931641","country":"EG"},{"id":"352628","name":"Matay","latitude":"28.418989","longitude":"30.779240","country":"EG"},{"id":"352679","name":"Mashtul as Suq","latitude":"30.360559","longitude":"31.377600","country":"EG"},{"id":"352733","name":"Marsa Matruh","latitude":"31.352539","longitude":"27.245279","country":"EG"},{"id":"352736","name":"Marsa Alam","latitude":"25.075729","longitude":"34.891811","country":"EG"},{"id":"352913","name":"Manfalut","latitude":"27.310400","longitude":"30.970039","country":"EG"},{"id":"352951","name":"Mallawi","latitude":"27.731400","longitude":"30.841650","country":"EG"},{"id":"353219","name":"Madinat Sittah Uktubar","latitude":"29.816669","longitude":"31.049999","country":"EG"},{"id":"353802","name":"Kawm Umbu","latitude":"24.476690","longitude":"32.946259","country":"EG"},{"id":"353828","name":"Kawm Hamadah","latitude":"30.760960","longitude":"30.697330","country":"EG"},{"id":"354105","name":"Kafr Saqr","latitude":"30.793360","longitude":"31.625750","country":"EG"},{"id":"354365","name":"Kafr az Zayyat","latitude":"30.824800","longitude":"30.818050","country":"EG"},{"id":"354502","name":"Kafr ash Shaykh","latitude":"31.114300","longitude":"30.940121","country":"EG"},{"id":"354775","name":"Kafr ad Dawwar","latitude":"31.133850","longitude":"30.128429","country":"EG"},{"id":"354981","name":"Juhaynah","latitude":"26.673189","longitude":"31.497601","country":"EG"},{"id":"355026","name":"Jirja","latitude":"26.338261","longitude":"31.891609","country":"EG"},{"id":"355392","name":"Izbat al Burj","latitude":"31.508400","longitude":"31.841061","country":"EG"},{"id":"355420","name":"Itsa","latitude":"29.237600","longitude":"30.789440","country":"EG"},{"id":"355449","name":"Isna","latitude":"25.293360","longitude":"32.554020","country":"EG"},{"id":"355628","name":"Idku","latitude":"31.307819","longitude":"30.299009","country":"EG"},{"id":"355648","name":"Ibshaway","latitude":"29.358040","longitude":"30.681419","country":"EG"},{"id":"355795","name":"Halwan","latitude":"29.841440","longitude":"31.300840","country":"EG"},{"id":"355939","name":"Hihya","latitude":"30.671301","longitude":"31.588011","country":"EG"},{"id":"356000","name":"Hawsh Isa","latitude":"30.912800","longitude":"30.290180","country":"EG"},{"id":"356806","name":"Fuwah","latitude":"31.202909","longitude":"30.550180","country":"EG"},{"id":"356933","name":"Farshut","latitude":"26.054939","longitude":"32.163288","country":"EG"},{"id":"356945","name":"Faraskur","latitude":"31.329769","longitude":"31.715071","country":"EG"},{"id":"356989","name":"Faqus","latitude":"30.730061","longitude":"31.801821","country":"EG"},{"id":"358048","name":"Damietta","latitude":"31.416479","longitude":"31.813320","country":"EG"},{"id":"358095","name":"Diyarb Najm","latitude":"30.754219","longitude":"31.439251","country":"EG"},{"id":"358108","name":"Disuq","latitude":"31.133051","longitude":"30.646490","country":"EG"},{"id":"358115","name":"Dishna","latitude":"26.124670","longitude":"32.475979","country":"EG"},{"id":"358172","name":"Dikirnis","latitude":"31.088711","longitude":"31.594271","country":"EG"},{"id":"358245","name":"Dhahab","latitude":"28.500980","longitude":"34.513378","country":"EG"},{"id":"358269","name":"Dayrut","latitude":"27.556021","longitude":"30.807640","country":"EG"},{"id":"358274","name":"Dayr Mawas","latitude":"27.641760","longitude":"30.846621","country":"EG"},{"id":"358448","name":"Damanhur","latitude":"31.039169","longitude":"30.469139","country":"EG"},{"id":"358600","name":"Bush","latitude":"29.148161","longitude":"31.127331","country":"EG"},{"id":"358619","name":"Port Said","latitude":"31.256540","longitude":"32.284119","country":"EG"},{"id":"358620","name":"Bur Safajah","latitude":"26.729179","longitude":"33.936508","country":"EG"},{"id":"358821","name":"Bilqas Qism Awwal","latitude":"31.214520","longitude":"31.357981","country":"EG"},{"id":"358840","name":"Bilbays","latitude":"30.420389","longitude":"31.562229","country":"EG"},{"id":"358970","name":"Basyun","latitude":"30.939760","longitude":"30.813379","country":"EG"},{"id":"359173","name":"Bani Suwayf","latitude":"29.074409","longitude":"31.097851","country":"EG"},{"id":"359212","name":"Bani Mazar","latitude":"28.503599","longitude":"30.800400","country":"EG"},{"id":"359280","name":"Banha","latitude":"30.459061","longitude":"31.178579","country":"EG"},{"id":"359493","name":"Az Zaqaziq","latitude":"30.587681","longitude":"31.502001","country":"EG"},{"id":"359576","name":"Awsim","latitude":"30.123030","longitude":"31.135710","country":"EG"},{"id":"359678","name":"Tor","latitude":"28.236380","longitude":"33.625401","country":"EG"},{"id":"359710","name":"At Tall al Kabir","latitude":"30.544479","longitude":"31.785250","country":"EG"},{"id":"359783","name":"Asyut","latitude":"27.180960","longitude":"31.183680","country":"EG"},{"id":"359792","name":"Aswan","latitude":"24.093430","longitude":"32.907040","country":"EG"},{"id":"359796","name":"Suez","latitude":"29.973709","longitude":"32.526272","country":"EG"},{"id":"359900","name":"As Saff","latitude":"29.564720","longitude":"31.281111","country":"EG"},{"id":"359953","name":"Ash Shuhada","latitude":"30.596180","longitude":"30.898750","country":"EG"},{"id":"360048","name":"Ashmun","latitude":"30.298571","longitude":"30.976351","country":"EG"},{"id":"360464","name":"Al Wasitah","latitude":"29.337780","longitude":"31.205561","country":"EG"},{"id":"360502","name":"Luxor","latitude":"25.698931","longitude":"32.642101","country":"EG"},{"id":"360526","name":"Al Qusiyah","latitude":"27.440201","longitude":"30.818411","country":"EG"},{"id":"360531","name":"Al Qusayr","latitude":"26.104259","longitude":"34.277931","country":"EG"},{"id":"360542","name":"Al Qurayn","latitude":"30.616180","longitude":"31.735140","country":"EG"},{"id":"360612","name":"Al Qanayat","latitude":"30.618799","longitude":"31.460991","country":"EG"},{"id":"360615","name":"Al Qanatir al Khayriyah","latitude":"30.193270","longitude":"31.137030","country":"EG"},{"id":"360630","name":"Cairo","latitude":"30.062630","longitude":"31.249670","country":"EG"},{"id":"360686","name":"Al Minya","latitude":"28.109880","longitude":"30.750299","country":"EG"},{"id":"360716","name":"Al Matariyah","latitude":"31.182871","longitude":"32.031078","country":"EG"},{"id":"360754","name":"Al Manzilah","latitude":"31.158150","longitude":"31.937000","country":"EG"},{"id":"360761","name":"Al Mansurah","latitude":"31.036369","longitude":"31.380690","country":"EG"},{"id":"360773","name":"Al Manshah","latitude":"26.476860","longitude":"31.803499","country":"EG"},{"id":"360829","name":"Al Mahallah al Kubra","latitude":"30.974501","longitude":"31.164989","country":"EG"},{"id":"360928","name":"Al Khankah","latitude":"30.210350","longitude":"31.368120","country":"EG"},{"id":"360995","name":"Al Jizah","latitude":"30.008080","longitude":"31.210930","country":"EG"},{"id":"361029","name":"Al Jamaliyah","latitude":"31.180861","longitude":"31.865179","country":"EG"},{"id":"361055","name":"Ismailia","latitude":"30.604271","longitude":"32.272251","country":"EG"},{"id":"361058","name":"Alexandria","latitude":"31.215639","longitude":"29.955271","country":"EG"},{"id":"361103","name":"Al Ibrahimiyah","latitude":"30.718769","longitude":"31.562990","country":"EG"},{"id":"361179","name":"Al Hawamidiyah","latitude":"29.900000","longitude":"31.250000","country":"EG"},{"id":"361213","name":"Al Hamul","latitude":"31.311460","longitude":"31.147659","country":"EG"},{"id":"361291","name":"Al Ghardaqah","latitude":"27.257380","longitude":"33.812908","country":"EG"},{"id":"361320","name":"Al Fayyum","latitude":"29.309950","longitude":"30.841801","country":"EG"},{"id":"361329","name":"Al Fashn","latitude":"28.824310","longitude":"30.899481","country":"EG"},{"id":"361394","name":"Al Bawiti","latitude":"28.349190","longitude":"28.865910","country":"EG"},{"id":"361435","name":"Al Balyana","latitude":"26.235680","longitude":"32.003471","country":"EG"},{"id":"361457","name":"Al Bajur","latitude":"30.430260","longitude":"31.036810","country":"EG"},{"id":"361478","name":"Al Badari","latitude":"26.992571","longitude":"31.415541","country":"EG"},{"id":"361495","name":"Al Ayyat","latitude":"29.619720","longitude":"31.257500","country":"EG"},{"id":"361546","name":"Al Arish","latitude":"31.131590","longitude":"33.798439","country":"EG"},{"id":"361612","name":"Al Alamayn","latitude":"30.830070","longitude":"28.955021","country":"EG"},{"id":"361661","name":"Akhmim","latitude":"26.562170","longitude":"31.745029","country":"EG"},{"id":"361702","name":"Aja","latitude":"30.941540","longitude":"31.291510","country":"EG"},{"id":"361827","name":"Ad Dilinjat","latitude":"30.827909","longitude":"30.536329","country":"EG"},{"id":"362004","name":"Abu Tij","latitude":"27.044109","longitude":"31.318970","country":"EG"},{"id":"362041","name":"Abu Sunbul","latitude":"22.345699","longitude":"31.616240","country":"EG"},{"id":"362277","name":"Abu Qurqas","latitude":"27.931200","longitude":"30.838409","country":"EG"},{"id":"362485","name":"Abu Kabir","latitude":"30.725080","longitude":"31.671480","country":"EG"},{"id":"362882","name":"Abu al Matamir","latitude":"30.910179","longitude":"30.174379","country":"EG"},{"id":"362973","name":"Abnub","latitude":"27.269600","longitude":"31.151051","country":"EG"},{"id":"411165","name":"Idfu","latitude":"24.980280","longitude":"32.874722","country":"EG"},{"id":"419435","name":"Az Zarqa","latitude":"31.208290","longitude":"31.635540","country":"EG"},{"id":"6692512","name":"El Gouna","latitude":"27.394171","longitude":"33.678249","country":"EG"},{"id":"6692518","name":"Makadi Bay","latitude":"26.991230","longitude":"33.899521","country":"EG"},{"id":"7521348","name":"Ain Sukhna","latitude":"29.600180","longitude":"32.316711","country":"EG"}]