[{"id":"453754","name":"Valmiera","latitude":"57.541080","longitude":"25.427509","country":"LV"},{"id":"454178","name":"Vilani","latitude":"56.552528","longitude":"26.924490","country":"LV"},{"id":"454216","name":"Viesite","latitude":"56.347511","longitude":"25.555140","country":"LV"},{"id":"454273","name":"Vecumnieki","latitude":"56.606392","longitude":"24.522221","country":"LV"},{"id":"454310","name":"Ventspils","latitude":"57.389439","longitude":"21.560560","country":"LV"},{"id":"454432","name":"Vec-Liepaja","latitude":"56.533329","longitude":"21.016670","country":"LV"},{"id":"454537","name":"Vangazi","latitude":"57.093609","longitude":"24.548611","country":"LV"},{"id":"454572","name":"Valka","latitude":"57.775200","longitude":"26.010130","country":"LV"},{"id":"454714","name":"Ulbroka","latitude":"56.941109","longitude":"24.289721","country":"LV"},{"id":"454768","name":"Tukums","latitude":"56.966942","longitude":"23.155279","country":"LV"},{"id":"454848","name":"Tireli","latitude":"56.839909","longitude":"23.589020","country":"LV"},{"id":"454970","name":"Talsi","latitude":"57.245621","longitude":"22.581369","country":"LV"},{"id":"455260","name":"Stende","latitude":"57.150002","longitude":"22.533331","country":"LV"},{"id":"455406","name":"Smiltene","latitude":"57.424438","longitude":"25.901640","country":"LV"},{"id":"455520","name":"Skrunda","latitude":"56.683331","longitude":"22.016670","country":"LV"},{"id":"455718","name":"Sigulda","latitude":"57.151939","longitude":"24.864719","country":"LV"},{"id":"455812","name":"Saulkrasti","latitude":"57.262241","longitude":"24.414709","country":"LV"},{"id":"455890","name":"Saldus","latitude":"56.663631","longitude":"22.488070","country":"LV"},{"id":"455898","name":"Salaspils","latitude":"56.860142","longitude":"24.365440","country":"LV"},{"id":"455910","name":"Salacgriva","latitude":"57.753609","longitude":"24.358061","country":"LV"},{"id":"456008","name":"Rujiena","latitude":"57.897518","longitude":"25.331551","country":"LV"},{"id":"456172","name":"Riga","latitude":"56.950001","longitude":"24.100000","country":"LV"},{"id":"456202","name":"Rezekne","latitude":"56.500000","longitude":"27.316669","country":"LV"},{"id":"456506","name":"Priekule","latitude":"56.446789","longitude":"21.589680","country":"LV"},{"id":"456530","name":"Preili","latitude":"56.294441","longitude":"26.724590","country":"LV"},{"id":"456635","name":"Plavinas","latitude":"56.617802","longitude":"25.725519","country":"LV"},{"id":"456954","name":"Ozolnieki","latitude":"56.686390","longitude":"23.787781","country":"LV"},{"id":"457052","name":"Olaine","latitude":"56.785278","longitude":"23.938061","country":"LV"},{"id":"457065","name":"Ogre","latitude":"56.816200","longitude":"24.614010","country":"LV"},{"id":"457714","name":"Madona","latitude":"56.853291","longitude":"26.216980","country":"LV"},{"id":"457776","name":"Ludza","latitude":"56.549999","longitude":"27.716669","country":"LV"},{"id":"457799","name":"Lubana","latitude":"56.900002","longitude":"26.716669","country":"LV"},{"id":"457860","name":"Livani","latitude":"56.354309","longitude":"26.175791","country":"LV"},{"id":"457890","name":"Limbazi","latitude":"57.512871","longitude":"24.719410","country":"LV"},{"id":"457954","name":"Liepaja","latitude":"56.516670","longitude":"21.016670","country":"LV"},{"id":"457965","name":"Lielvarde","latitude":"56.720661","longitude":"24.807430","country":"LV"},{"id":"458460","name":"Kuldiga","latitude":"56.973991","longitude":"21.957211","country":"LV"},{"id":"458623","name":"Kraslava","latitude":"55.895142","longitude":"27.167990","country":"LV"},{"id":"458880","name":"Kekava","latitude":"56.826618","longitude":"24.230000","country":"LV"},{"id":"458892","name":"Kegums","latitude":"56.745098","longitude":"24.724390","country":"LV"},{"id":"458972","name":"Karsava","latitude":"56.784050","longitude":"27.688290","country":"LV"},{"id":"459031","name":"Kandava","latitude":"57.040871","longitude":"22.774660","country":"LV"},{"id":"459201","name":"Jurmala","latitude":"56.967999","longitude":"23.770380","country":"LV"},{"id":"459220","name":"Jumprava","latitude":"56.676128","longitude":"24.972099","country":"LV"},{"id":"459279","name":"Jelgava","latitude":"56.650002","longitude":"23.712780","country":"LV"},{"id":"459283","name":"Jekabpils","latitude":"56.499031","longitude":"25.857349","country":"LV"},{"id":"459402","name":"Jaunjelgava","latitude":"56.616669","longitude":"25.083330","country":"LV"},{"id":"459419","name":"Jaunciems","latitude":"57.039101","longitude":"24.174129","country":"LV"},{"id":"459586","name":"Ilukste","latitude":"55.977539","longitude":"26.296551","country":"LV"},{"id":"459598","name":"Ikskile","latitude":"56.833328","longitude":"24.500000","country":"LV"},{"id":"459624","name":"Iecava","latitude":"56.598610","longitude":"24.202221","country":"LV"},{"id":"459668","name":"Gulbene","latitude":"57.177670","longitude":"26.752911","country":"LV"},{"id":"459692","name":"Grobina","latitude":"56.535210","longitude":"21.167820","country":"LV"},{"id":"460312","name":"Dobele","latitude":"56.625000","longitude":"23.278610","country":"LV"},{"id":"460413","name":"Daugavpils","latitude":"55.883331","longitude":"26.533331","country":"LV"},{"id":"460416","name":"Daugavgriva","latitude":"57.043152","longitude":"24.036131","country":"LV"},{"id":"460474","name":"Dagda","latitude":"56.095119","longitude":"27.537230","country":"LV"},{"id":"460570","name":"Cesis","latitude":"57.311878","longitude":"25.274561","country":"LV"},{"id":"460786","name":"Broceni","latitude":"56.700001","longitude":"22.533331","country":"LV"},{"id":"460885","name":"Bolderaja","latitude":"57.031319","longitude":"24.055710","country":"LV"},{"id":"461114","name":"Bauska","latitude":"56.407501","longitude":"24.190559","country":"LV"},{"id":"461163","name":"Balvi","latitude":"57.131302","longitude":"27.265829","country":"LV"},{"id":"461224","name":"Baldone","latitude":"56.742779","longitude":"24.394440","country":"LV"},{"id":"461336","name":"Auce","latitude":"56.459808","longitude":"22.901690","country":"LV"},{"id":"461528","name":"Aluksne","latitude":"57.416672","longitude":"27.049999","country":"LV"},{"id":"461602","name":"Aizpute","latitude":"56.716671","longitude":"21.600000","country":"LV"},{"id":"461615","name":"Aizkraukle","latitude":"56.604771","longitude":"25.255341","country":"LV"},{"id":"864721","name":"Balozi","latitude":"56.876110","longitude":"24.118610","country":"LV"}]