[{"id":"452949","name":"Udomlya","latitude":"57.879440","longitude":"34.992500","country":"RU"},{"id":"461699","name":"Sasovo","latitude":"54.353691","longitude":"41.919861","country":"RU"},{"id":"461704","name":"Novozavidovskiy","latitude":"56.549999","longitude":"36.433334","country":"RU"},{"id":"461705","name":"Krasnolesnyy","latitude":"51.880718","longitude":"39.587719","country":"RU"},{"id":"461720","name":"Kosterevo","latitude":"55.929901","longitude":"39.614380","country":"RU"},{"id":"461756","name":"Zyukayka","latitude":"58.202499","longitude":"54.700279","country":"RU"},{"id":"461910","name":"Zverevo","latitude":"48.021080","longitude":"40.122822","country":"RU"},{"id":"461916","name":"Zvenigovo","latitude":"55.974167","longitude":"48.018055","country":"RU"},{"id":"461920","name":"Zvenigorod","latitude":"55.733334","longitude":"36.847500","country":"RU"},{"id":"461964","name":"Zuyevka","latitude":"58.405029","longitude":"51.133549","country":"RU"},{"id":"462008","name":"Zubtsov","latitude":"56.175339","longitude":"34.589352","country":"RU"},{"id":"462022","name":"Zubovo","latitude":"60.317951","longitude":"36.972752","country":"RU"},{"id":"462050","name":"Zubova Polyana","latitude":"54.077099","longitude":"42.837200","country":"RU"},{"id":"462169","name":"Zolotukhino","latitude":"52.084171","longitude":"36.377220","country":"RU"},{"id":"462203","name":"Zolotkovo","latitude":"55.528099","longitude":"41.105301","country":"RU"},{"id":"462305","name":"Znamenskoye","latitude":"53.278690","longitude":"35.690552","country":"RU"},{"id":"462313","name":"Znamenskoye","latitude":"43.678982","longitude":"45.128670","country":"RU"},{"id":"462357","name":"Znamenka","latitude":"52.416698","longitude":"41.431080","country":"RU"},{"id":"462377","name":"Zmiyevka","latitude":"52.669720","longitude":"36.373890","country":"RU"},{"id":"462383","name":"Zmeyskaya","latitude":"43.336170","longitude":"44.157330","country":"RU"},{"id":"462413","name":"Zlynka","latitude":"52.426701","longitude":"31.737801","country":"RU"},{"id":"462444","name":"Zlatoust","latitude":"55.171108","longitude":"59.650829","country":"RU"},{"id":"462467","name":"Zirgan","latitude":"53.222198","longitude":"55.918499","country":"RU"},{"id":"462522","name":"Zimovniki","latitude":"47.148335","longitude":"42.463333","country":"RU"},{"id":"462626","name":"Zilair","latitude":"52.233200","longitude":"57.439201","country":"RU"},{"id":"462755","name":"Zhukovskiy","latitude":"55.595280","longitude":"38.120277","country":"RU"},{"id":"462792","name":"Zhukovo","latitude":"55.031780","longitude":"36.744019","country":"RU"},{"id":"462815","name":"Zhukovka","latitude":"56.483330","longitude":"37.516670","country":"RU"},{"id":"462822","name":"Zhukovka","latitude":"53.533951","longitude":"33.727982","country":"RU"},{"id":"462914","name":"Zhizdra","latitude":"53.745960","longitude":"34.739510","country":"RU"},{"id":"462964","name":"Zhiryatino","latitude":"53.222801","longitude":"33.730598","country":"RU"},{"id":"462984","name":"Zhirnovsk","latitude":"50.984482","longitude":"44.773472","country":"RU"},{"id":"462988","name":"Zhirnov","latitude":"48.170891","longitude":"41.126080","country":"RU"},{"id":"463050","name":"Zhilevo","latitude":"55.014080","longitude":"38.011059","country":"RU"},{"id":"463053","name":"Zhiletovo","latitude":"54.692162","longitude":"36.022251","country":"RU"},{"id":"463082","name":"Zhigulevsk","latitude":"53.399719","longitude":"49.495281","country":"RU"},{"id":"463144","name":"Zheshart","latitude":"62.073139","longitude":"49.573349","country":"RU"},{"id":"463217","name":"Zherdevka","latitude":"51.848610","longitude":"41.460560","country":"RU"},{"id":"463229","name":"Zhemtala","latitude":"43.284081","longitude":"43.655861","country":"RU"},{"id":"463340","name":"Zheleznovodsk","latitude":"44.139439","longitude":"43.019718","country":"RU"},{"id":"463343","name":"Zheleznogorsk","latitude":"52.331001","longitude":"35.371101","country":"RU"},{"id":"463355","name":"Zheleznodorozhnyy","latitude":"55.750278","longitude":"38.004166","country":"RU"},{"id":"463356","name":"Zheleznodorozhnyy","latitude":"54.363258","longitude":"21.305700","country":"RU"},{"id":"463446","name":"Zhdankovskiy","latitude":"53.753208","longitude":"38.179508","country":"RU"},{"id":"463465","name":"Zhavoronki","latitude":"55.649723","longitude":"37.104168","country":"RU"},{"id":"463516","name":"Zharkovskiy","latitude":"55.848999","longitude":"32.269699","country":"RU"},{"id":"463568","name":"Zhadovka","latitude":"53.574638","longitude":"46.949848","country":"RU"},{"id":"463637","name":"Zernograd","latitude":"46.845181","longitude":"40.308338","country":"RU"},{"id":"463655","name":"Zenzeli","latitude":"45.924068","longitude":"47.047390","country":"RU"},{"id":"463690","name":"Zemlyansk","latitude":"51.904099","longitude":"38.733398","country":"RU"},{"id":"463710","name":"Zemetchino","latitude":"53.497299","longitude":"42.616322","country":"RU"},{"id":"463824","name":"Zelenokumsk","latitude":"44.406940","longitude":"43.880562","country":"RU"},{"id":"463826","name":"Zelenogradskiy","latitude":"56.099998","longitude":"37.916668","country":"RU"},{"id":"463828","name":"Zelenogradsk","latitude":"54.958931","longitude":"20.476681","country":"RU"},{"id":"463829","name":"Zelenograd","latitude":"55.982498","longitude":"37.181389","country":"RU"},{"id":"463830","name":"Zelenogorsk","latitude":"60.199680","longitude":"29.701830","country":"RU"},{"id":"463835","name":"Zelenodolsk","latitude":"55.843761","longitude":"48.517841","country":"RU"},{"id":"463838","name":"Zelenoborskiy","latitude":"66.845001","longitude":"32.362221","country":"RU"},{"id":"463880","name":"Zelenets","latitude":"61.884850","longitude":"50.748920","country":"RU"},{"id":"463885","name":"Zelenchukskaya","latitude":"43.858040","longitude":"41.589401","country":"RU"},{"id":"463966","name":"Zayukovo","latitude":"43.616112","longitude":"43.333889","country":"RU"},{"id":"464018","name":"Zaymishche","latitude":"52.726398","longitude":"32.233398","country":"RU"},{"id":"464094","name":"Zavoronezhskoye","latitude":"52.880100","longitude":"40.552601","country":"RU"},{"id":"464101","name":"Zavolzhye","latitude":"56.642776","longitude":"43.393612","country":"RU"},{"id":"464112","name":"Zavolzhsk","latitude":"57.482300","longitude":"42.137791","country":"RU"},{"id":"464130","name":"Masalovka","latitude":"48.405277","longitude":"40.270557","country":"RU"},{"id":"464159","name":"Zavidovo","latitude":"56.533329","longitude":"36.533329","country":"RU"},{"id":"464179","name":"Zavetnoye","latitude":"47.119438","longitude":"43.890282","country":"RU"},{"id":"464180","name":"Zavetnoye","latitude":"44.749199","longitude":"41.599499","country":"RU"},{"id":"464260","name":"Zaterechnyy","latitude":"44.793060","longitude":"45.209721","country":"RU"},{"id":"464290","name":"Zasosna","latitude":"50.630699","longitude":"38.396500","country":"RU"},{"id":"464343","name":"Zasechnoye","latitude":"53.109165","longitude":"45.076389","country":"RU"},{"id":"464621","name":"Zarechnyy","latitude":"53.730598","longitude":"39.594372","country":"RU"},{"id":"464625","name":"Zarechnyy","latitude":"53.203560","longitude":"45.192268","country":"RU"},{"id":"464687","name":"Zaraysk","latitude":"54.765278","longitude":"38.883610","country":"RU"},{"id":"464708","name":"Zaprudnya","latitude":"56.566669","longitude":"37.433331","country":"RU"},{"id":"464790","name":"Zapolyarnyy","latitude":"69.415413","longitude":"30.813551","country":"RU"},{"id":"464829","name":"Zaplavnoye","latitude":"48.704800","longitude":"45.022900","country":"RU"},{"id":"464891","name":"Zapadnaya Dvina","latitude":"56.259010","longitude":"32.074539","country":"RU"},{"id":"464993","name":"Zaokskiy","latitude":"54.730560","longitude":"37.408890","country":"RU"},{"id":"465019","name":"Zandak","latitude":"43.057220","longitude":"46.456669","country":"RU"},{"id":"465174","name":"Zalukokoazhe","latitude":"43.903889","longitude":"43.215561","country":"RU"},{"id":"465291","name":"Zalegoshch","latitude":"52.900829","longitude":"36.886940","country":"RU"},{"id":"465446","name":"Zakharovo","latitude":"54.366001","longitude":"39.279202","country":"RU"},{"id":"465532","name":"Zakan-Yurt","latitude":"43.259720","longitude":"45.420559","country":"RU"},{"id":"465543","name":"Zainsk","latitude":"55.319500","longitude":"52.069420","country":"RU"},{"id":"465632","name":"Zagoryanskiy","latitude":"55.932499","longitude":"37.958061","country":"RU"},{"id":"465726","name":"Zadonsk","latitude":"52.390400","longitude":"38.926102","country":"RU"},{"id":"465934","name":"Zabolotovka","latitude":"50.273682","longitude":"39.314701","country":"RU"},{"id":"466013","name":"Yuzhnyy-Kospashskiy","latitude":"58.969479","longitude":"57.754780","country":"RU"},{"id":"466060","name":"Yuzhno-Sukhokumsk","latitude":"44.658112","longitude":"45.643600","country":"RU"},{"id":"466084","name":"Yuzha","latitude":"56.583057","longitude":"42.012222","country":"RU"},{"id":"466200","name":"Yuryuzan","latitude":"54.863331","longitude":"58.421940","country":"RU"},{"id":"466215","name":"Yuryev-Polskiy","latitude":"56.500000","longitude":"39.683334","country":"RU"},{"id":"466258","name":"Yuryevets","latitude":"57.320068","longitude":"43.104099","country":"RU"},{"id":"466314","name":"Yurovka","latitude":"45.114700","longitude":"37.418819","country":"RU"},{"id":"466349","name":"Yurla","latitude":"59.325890","longitude":"54.322338","country":"RU"},{"id":"466423","name":"Yurino","latitude":"56.294170","longitude":"46.303921","country":"RU"},{"id":"466538","name":"Yumaguzino","latitude":"52.904121","longitude":"56.393291","country":"RU"},{"id":"466658","name":"Yukhnov","latitude":"54.744438","longitude":"35.229721","country":"RU"},{"id":"466674","name":"Yukamenskoye","latitude":"57.886539","longitude":"52.241570","country":"RU"},{"id":"466699","name":"Yugo-Kamskiy","latitude":"57.705280","longitude":"55.589439","country":"RU"},{"id":"466710","name":"Yuganets","latitude":"56.250801","longitude":"43.230690","country":"RU"},{"id":"466724","name":"Yug","latitude":"57.729301","longitude":"56.172001","country":"RU"},{"id":"466806","name":"Yoshkar-Ola","latitude":"56.638771","longitude":"47.890781","country":"RU"},{"id":"466885","name":"Yeysk","latitude":"46.698891","longitude":"38.279167","country":"RU"},{"id":"466989","name":"Yessentukskaya","latitude":"44.032799","longitude":"42.881302","country":"RU"},{"id":"466990","name":"Yessentuki","latitude":"44.044441","longitude":"42.860561","country":"RU"},{"id":"467084","name":"Yertsevo","latitude":"60.796600","longitude":"40.085999","country":"RU"},{"id":"467120","name":"Yershov","latitude":"51.351299","longitude":"48.276600","country":"RU"},{"id":"467134","name":"Yershichi","latitude":"53.672501","longitude":"32.754169","country":"RU"},{"id":"467238","name":"Yermolino","latitude":"55.194889","longitude":"36.595131","country":"RU"},{"id":"467246","name":"Yermolayevo","latitude":"52.716671","longitude":"55.799999","country":"RU"},{"id":"467252","name":"Yermish","latitude":"54.767780","longitude":"42.271111","country":"RU"},{"id":"467260","name":"Yermekeyevo","latitude":"54.076141","longitude":"53.671249","country":"RU"},{"id":"467464","name":"Yepifan","latitude":"53.825260","longitude":"38.551811","country":"RU"},{"id":"467479","name":"Yenotayevka","latitude":"47.245590","longitude":"47.028141","country":"RU"},{"id":"467525","name":"Yemva","latitude":"62.589989","longitude":"50.859390","country":"RU"},{"id":"467539","name":"Yemetsk","latitude":"63.472099","longitude":"41.794102","country":"RU"},{"id":"467711","name":"Yelovo","latitude":"57.053810","longitude":"54.920700","country":"RU"},{"id":"467753","name":"Yelnya","latitude":"54.578640","longitude":"33.183731","country":"RU"},{"id":"467819","name":"Yelkhovka","latitude":"53.866680","longitude":"50.283192","country":"RU"},{"id":"467850","name":"Yelizavetinskoye","latitude":"45.007221","longitude":"43.349442","country":"RU"},{"id":"467854","name":"Yelizavetinskaya","latitude":"45.044460","longitude":"38.795799","country":"RU"},{"id":"467856","name":"Yelizavetino","latitude":"59.491570","longitude":"29.793760","country":"RU"},{"id":"467978","name":"Yelets","latitude":"52.623661","longitude":"38.501690","country":"RU"},{"id":"468030","name":"Yelatma","latitude":"54.967499","longitude":"41.750832","country":"RU"},{"id":"468042","name":"Yelan-Kolenovskiy","latitude":"51.163200","longitude":"41.151001","country":"RU"},{"id":"468044","name":"Yelan-Koleno","latitude":"51.152302","longitude":"41.230598","country":"RU"},{"id":"468063","name":"Yelan","latitude":"50.949001","longitude":"43.737808","country":"RU"},{"id":"468082","name":"Yelabuga","latitude":"55.761269","longitude":"52.064930","country":"RU"},{"id":"468180","name":"Yekaterinovka","latitude":"52.050831","longitude":"44.345150","country":"RU"},{"id":"468250","name":"Yegoryevsk","latitude":"55.378334","longitude":"39.041111","country":"RU"},{"id":"468307","name":"Yegorlykskaya","latitude":"46.565639","longitude":"40.656212","country":"RU"},{"id":"468390","name":"Yefremov","latitude":"53.148060","longitude":"38.099239","country":"RU"},{"id":"468483","name":"Yazykovo","latitude":"55.219879","longitude":"56.135319","country":"RU"},{"id":"468486","name":"Yazykovo","latitude":"54.292198","longitude":"47.389099","country":"RU"},{"id":"468560","name":"Yayva","latitude":"59.330330","longitude":"57.264080","country":"RU"},{"id":"468587","name":"Yavas","latitude":"54.415901","longitude":"42.849098","country":"RU"},{"id":"468657","name":"Yasnyy","latitude":"51.033298","longitude":"59.874199","country":"RU"},{"id":"468671","name":"Yasnogorsk","latitude":"54.480278","longitude":"37.697498","country":"RU"},{"id":"468747","name":"Yashkul","latitude":"46.171101","longitude":"45.343498","country":"RU"},{"id":"468776","name":"Yashalta","latitude":"46.339500","longitude":"42.276199","country":"RU"},{"id":"468782","name":"Yasenskaya","latitude":"46.359200","longitude":"38.269001","country":"RU"},{"id":"468866","name":"Yartsevo","latitude":"55.066669","longitude":"32.696388","country":"RU"},{"id":"468899","name":"Yaroslavskaya","latitude":"44.610561","longitude":"40.464169","country":"RU"},{"id":"468902","name":"Yaroslavl","latitude":"57.629871","longitude":"39.873676","country":"RU"},{"id":"468983","name":"Yarensk","latitude":"62.167549","longitude":"49.091621","country":"RU"},{"id":"468991","name":"Yarega","latitude":"63.435429","longitude":"53.576500","country":"RU"},{"id":"469005","name":"Yaransk","latitude":"57.303310","longitude":"47.886108","country":"RU"},{"id":"469017","name":"Yar","latitude":"58.248981","longitude":"52.102581","country":"RU"},{"id":"469049","name":"Yantikovo","latitude":"55.821579","longitude":"47.910358","country":"RU"},{"id":"469081","name":"Yanisyarvi","latitude":"61.883331","longitude":"30.950001","country":"RU"},{"id":"469087","name":"Yanino Vtoroye","latitude":"59.935501","longitude":"30.615339","country":"RU"},{"id":"469151","name":"Yandyki","latitude":"45.769131","longitude":"47.125771","country":"RU"},{"id":"469178","name":"Yanaul","latitude":"56.271900","longitude":"54.930859","country":"RU"},{"id":"469186","name":"Novaya Maka","latitude":"41.771729","longitude":"48.361488","country":"RU"},{"id":"469341","name":"Yam","latitude":"55.484444","longitude":"37.749168","country":"RU"},{"id":"469372","name":"Yalkhoy-Mokhk","latitude":"43.105282","longitude":"46.190449","country":"RU"},{"id":"469512","name":"Yaksatovo","latitude":"46.243420","longitude":"48.015141","country":"RU"},{"id":"469533","name":"Yakovlevskoye","latitude":"55.441944","longitude":"37.950558","country":"RU"},{"id":"469577","name":"Yakovlevo","latitude":"50.860329","longitude":"36.447842","country":"RU"},{"id":"469655","name":"Yakhroma","latitude":"56.299999","longitude":"37.483330","country":"RU"},{"id":"469809","name":"Yadrin","latitude":"55.940521","longitude":"46.206219","country":"RU"},{"id":"469844","name":"Yablonovskiy","latitude":"44.989010","longitude":"38.943241","country":"RU"},{"id":"469933","name":"Vyyezdnoye","latitude":"55.381538","longitude":"43.786381","country":"RU"},{"id":"469960","name":"Vytegra","latitude":"61.006359","longitude":"36.448109","country":"RU"},{"id":"469991","name":"Vysotskoye","latitude":"45.025002","longitude":"42.906391","country":"RU"},{"id":"470083","name":"Vysokovsk","latitude":"56.316669","longitude":"36.549999","country":"RU"},{"id":"470212","name":"Vysokaya Gora","latitude":"55.912781","longitude":"49.301670","country":"RU"},{"id":"470252","name":"Vyshniy Volochek","latitude":"57.591251","longitude":"34.564529","country":"RU"},{"id":"470268","name":"Vyshneye Dolgoye","latitude":"52.063019","longitude":"37.405182","country":"RU"},{"id":"470274","name":"Vyshkov","latitude":"52.476398","longitude":"31.687300","country":"RU"},{"id":"470338","name":"Vyselki","latitude":"45.579445","longitude":"39.659721","country":"RU"},{"id":"470368","name":"Vyritsa","latitude":"59.407780","longitude":"30.348061","country":"RU"},{"id":"470390","name":"Vypolzovo","latitude":"57.876671","longitude":"33.698608","country":"RU"},{"id":"470444","name":"Vyksa","latitude":"55.317501","longitude":"42.174438","country":"RU"},{"id":"470473","name":"Vygonichi","latitude":"53.098549","longitude":"34.067280","country":"RU"},{"id":"470530","name":"Vychegodskiy","latitude":"61.247021","longitude":"46.898418","country":"RU"},{"id":"470546","name":"Vyborg","latitude":"60.707630","longitude":"28.752831","country":"RU"},{"id":"470653","name":"Vyazovaya","latitude":"54.904999","longitude":"58.356110","country":"RU"},{"id":"470666","name":"Vyazniki","latitude":"56.250000","longitude":"42.166672","country":"RU"},{"id":"470676","name":"Vyazma","latitude":"55.210388","longitude":"34.295078","country":"RU"},{"id":"470734","name":"Vyatskiye Polyany","latitude":"56.226021","longitude":"51.065571","country":"RU"},{"id":"470762","name":"Vyartsilya","latitude":"62.176449","longitude":"30.692961","country":"RU"},{"id":"470845","name":"Vurnary","latitude":"55.490440","longitude":"46.964790","country":"RU"},{"id":"470905","name":"Vuktyl","latitude":"63.856670","longitude":"57.309441","country":"RU"},{"id":"471101","name":"Vsevolozhsk","latitude":"60.020432","longitude":"30.637159","country":"RU"},{"id":"471160","name":"Voznesenye","latitude":"61.010601","longitude":"35.478130","country":"RU"},{"id":"471172","name":"Voznesenskoye","latitude":"54.889999","longitude":"42.756939","country":"RU"},{"id":"471188","name":"Voznesenskaya","latitude":"44.552700","longitude":"41.031799","country":"RU"},{"id":"471189","name":"Voznesenskaya","latitude":"43.541672","longitude":"44.745831","country":"RU"},{"id":"471245","name":"Vozhega","latitude":"60.472462","longitude":"40.221340","country":"RU"},{"id":"471308","name":"Voyvozh","latitude":"62.891979","longitude":"54.963459","country":"RU"},{"id":"471323","name":"Voyskovitsy","latitude":"59.528671","longitude":"29.963961","country":"RU"},{"id":"471430","name":"Votkinsk","latitude":"57.048649","longitude":"53.987171","country":"RU"},{"id":"471457","name":"Vostryakovo","latitude":"55.400555","longitude":"37.811111","country":"RU"},{"id":"471499","name":"Vostochnyy","latitude":"58.788109","longitude":"52.245129","country":"RU"},{"id":"471501","name":"Vostochnyy","latitude":"55.816666","longitude":"37.866669","country":"RU"},{"id":"471607","name":"Voskresenskoye","latitude":"56.838058","longitude":"45.431671","country":"RU"},{"id":"471633","name":"Voskresenskoye","latitude":"53.123360","longitude":"56.146641","country":"RU"},{"id":"471639","name":"Voskresenskoye","latitude":"51.824780","longitude":"46.935081","country":"RU"},{"id":"471656","name":"Voskresensk","latitude":"55.312500","longitude":"38.663612","country":"RU"},{"id":"471760","name":"Vorsma","latitude":"55.985561","longitude":"43.271671","country":"RU"},{"id":"471799","name":"Vorotynets","latitude":"56.060280","longitude":"45.863300","country":"RU"},{"id":"471820","name":"Voroshnevo","latitude":"51.652779","longitude":"36.017220","country":"RU"},{"id":"471909","name":"Vorontsovka","latitude":"50.613201","longitude":"40.354900","country":"RU"},{"id":"472045","name":"Voronezh","latitude":"51.666389","longitude":"39.169998","country":"RU"},{"id":"472229","name":"Volzhskiy","latitude":"53.433331","longitude":"50.133331","country":"RU"},{"id":"472231","name":"Volzhskiy","latitude":"48.785831","longitude":"44.779732","country":"RU"},{"id":"472234","name":"Volzhsk","latitude":"55.866379","longitude":"48.359402","country":"RU"},{"id":"472271","name":"Volya","latitude":"51.765099","longitude":"39.540401","country":"RU"},{"id":"472278","name":"Volsk","latitude":"52.033329","longitude":"47.383331","country":"RU"},{"id":"472306","name":"Volovo","latitude":"52.026588","longitude":"37.885399","country":"RU"},{"id":"472328","name":"Volot","latitude":"57.927780","longitude":"30.702499","country":"RU"},{"id":"472428","name":"Volokonovka","latitude":"50.482700","longitude":"37.856300","country":"RU"},{"id":"472433","name":"Volokolamsk","latitude":"56.033611","longitude":"35.969440","country":"RU"},{"id":"472459","name":"Vologda","latitude":"59.218700","longitude":"39.888599","country":"RU"},{"id":"472490","name":"Volodarskiy","latitude":"46.401340","longitude":"48.540932","country":"RU"},{"id":"472494","name":"Volodarsk","latitude":"56.226109","longitude":"43.186111","country":"RU"},{"id":"472714","name":"Volkhovskiy","latitude":"58.580002","longitude":"31.316410","country":"RU"},{"id":"472722","name":"Volkhov","latitude":"59.925800","longitude":"32.338188","country":"RU"},{"id":"472750","name":"Volgorechensk","latitude":"57.439308","longitude":"41.155529","country":"RU"},{"id":"472751","name":"Volgo-Kaspiyskiy","latitude":"46.203060","longitude":"47.918690","country":"RU"},{"id":"472757","name":"Volgograd","latitude":"48.719391","longitude":"44.501839","country":"RU"},{"id":"472761","name":"Volgodonsk","latitude":"47.513611","longitude":"42.151390","country":"RU"},{"id":"472777","name":"Volga","latitude":"57.951569","longitude":"38.387852","country":"RU"},{"id":"472878","name":"Vokhtoga","latitude":"58.814720","longitude":"41.046108","country":"RU"},{"id":"472887","name":"Vokhma","latitude":"58.930302","longitude":"46.758591","country":"RU"},{"id":"472942","name":"Vodstroy","latitude":"48.841648","longitude":"44.557930","country":"RU"},{"id":"472961","name":"Yutsa","latitude":"43.956390","longitude":"43.012779","country":"RU"},{"id":"472976","name":"Vodnyy","latitude":"63.504639","longitude":"53.409470","country":"RU"},{"id":"473021","name":"Vnukovo","latitude":"55.615002","longitude":"37.219166","country":"RU"},{"id":"473166","name":"Vladimirskaya","latitude":"44.545502","longitude":"40.793301","country":"RU"},{"id":"473247","name":"Vladimir","latitude":"56.136551","longitude":"40.396580","country":"RU"},{"id":"473249","name":"Vladikavkaz","latitude":"43.036671","longitude":"44.667782","country":"RU"},{"id":"473263","name":"Vizinga","latitude":"61.074928","longitude":"50.103111","country":"RU"},{"id":"473295","name":"Vityazevo","latitude":"44.993057","longitude":"37.271942","country":"RU"},{"id":"473349","name":"Vistino","latitude":"59.780289","longitude":"28.481569","country":"RU"},{"id":"473522","name":"Vinsady","latitude":"44.080830","longitude":"42.965279","country":"RU"},{"id":"473535","name":"Vinogradovo","latitude":"56.933331","longitude":"37.549999","country":"RU"},{"id":"473546","name":"Vinogradnyy","latitude":"45.051666","longitude":"37.318890","country":"RU"},{"id":"473611","name":"Vilya","latitude":"55.245560","longitude":"42.208889","country":"RU"},{"id":"473762","name":"Vidyayevo","latitude":"68.883331","longitude":"33.016670","country":"RU"},{"id":"473778","name":"Vidnoye","latitude":"55.552391","longitude":"37.709660","country":"RU"},{"id":"473788","name":"Vichuga","latitude":"57.212761","longitude":"41.930119","country":"RU"},{"id":"473856","name":"Veydelevka","latitude":"50.152100","longitude":"38.449200","country":"RU"},{"id":"473903","name":"Vetluzhskiy","latitude":"58.390160","longitude":"45.465420","country":"RU"},{"id":"473904","name":"Vetluzhskiy","latitude":"57.173550","longitude":"45.122719","country":"RU"},{"id":"473910","name":"Vetluga","latitude":"57.855740","longitude":"45.781021","country":"RU"},{"id":"473943","name":"Vesyegonsk","latitude":"58.663979","longitude":"37.260399","country":"RU"},{"id":"473994","name":"Veshkayma","latitude":"54.049999","longitude":"47.133331","country":"RU"},{"id":"473998","name":"Veshenskaya","latitude":"49.630329","longitude":"41.733398","country":"RU"},{"id":"474004","name":"Veshchevo","latitude":"60.731071","longitude":"29.183050","country":"RU"},{"id":"474059","name":"Veselyy","latitude":"47.093380","longitude":"40.742199","country":"RU"},{"id":"474324","name":"Verkhovye","latitude":"52.811939","longitude":"37.242500","country":"RU"},{"id":"474354","name":"Verkhovazhye","latitude":"60.747169","longitude":"42.046520","country":"RU"},{"id":"474370","name":"Verkhoshizhemye","latitude":"58.010971","longitude":"49.103840","country":"RU"},{"id":"474462","name":"Verkhnyaya Tura","latitude":"58.359440","longitude":"59.817501","country":"RU"},{"id":"474470","name":"Verkhnyaya Toyma","latitude":"62.234871","longitude":"44.998520","country":"RU"},{"id":"474473","name":"Verkhnyaya Tishanka","latitude":"51.323891","longitude":"40.532780","country":"RU"},{"id":"474603","name":"Verkhnyaya Maksakovka","latitude":"61.635040","longitude":"50.967400","country":"RU"},{"id":"474663","name":"Kishcha","latitude":"42.176769","longitude":"47.581169","country":"RU"},{"id":"474669","name":"Verkhnyaya Khava","latitude":"51.840450","longitude":"39.941341","country":"RU"},{"id":"474743","name":"Verkhnyaya Balkariya","latitude":"43.127850","longitude":"43.457321","country":"RU"},{"id":"474795","name":"Verkhniy Uslon","latitude":"55.770100","longitude":"48.982300","country":"RU"},{"id":"474821","name":"Verkhniy Tagil","latitude":"57.373299","longitude":"59.955601","country":"RU"},{"id":"474902","name":"Lakkha Nevre","latitude":"43.610329","longitude":"45.245419","country":"RU"},{"id":"474916","name":"Verkhniy Mamon","latitude":"50.163502","longitude":"40.383202","country":"RU"},{"id":"474926","name":"Verkhniy Lomov","latitude":"53.467781","longitude":"43.551109","country":"RU"},{"id":"474931","name":"Verkhniy Landekh","latitude":"56.838890","longitude":"42.599442","country":"RU"},{"id":"474940","name":"Verkhniy Kurkuzhin","latitude":"43.695560","longitude":"43.274719","country":"RU"},{"id":"475030","name":"Verkhniye Tatyshly","latitude":"56.291168","longitude":"55.857498","country":"RU"},{"id":"475041","name":"Verkhniye Sergi","latitude":"56.646938","longitude":"59.555561","country":"RU"},{"id":"475100","name":"Verkhniye Kigi","latitude":"55.408329","longitude":"58.604439","country":"RU"},{"id":"475157","name":"Verkhniye Achaluki","latitude":"43.346939","longitude":"44.697498","country":"RU"},{"id":"475196","name":"Verkhniy Baskunchak","latitude":"48.225639","longitude":"46.721699","country":"RU"},{"id":"475206","name":"Verkhniy Avzyan","latitude":"53.528889","longitude":"57.537220","country":"RU"},{"id":"475369","name":"Verkhneye Kazanishche","latitude":"42.735470","longitude":"47.137798","country":"RU"},{"id":"475438","name":"Verkhneyarkeyevo","latitude":"55.450459","longitude":"54.314548","country":"RU"},{"id":"475463","name":"Verkhneuralsk","latitude":"53.876942","longitude":"59.210560","country":"RU"},{"id":"475614","name":"Verkhnedneprovskiy","latitude":"54.981312","longitude":"33.345730","country":"RU"},{"id":"475619","name":"Verkhnechusovskiye Gorodki","latitude":"58.167099","longitude":"57.108601","country":"RU"},{"id":"475699","name":"Vereya","latitude":"55.773731","longitude":"39.097660","country":"RU"},{"id":"475700","name":"Vereya","latitude":"55.614719","longitude":"38.039169","country":"RU"},{"id":"475701","name":"Vereya","latitude":"55.344719","longitude":"36.171940","country":"RU"},{"id":"475777","name":"Vereshchagino","latitude":"58.078941","longitude":"54.655701","country":"RU"},{"id":"475845","name":"Verbilki","latitude":"56.533333","longitude":"37.599998","country":"RU"},{"id":"475868","name":"Ventsy","latitude":"45.376389","longitude":"40.835831","country":"RU"},{"id":"475881","name":"Venev","latitude":"54.355331","longitude":"38.268429","country":"RU"},{"id":"475938","name":"Velsk","latitude":"61.070061","longitude":"42.098301","country":"RU"},{"id":"475955","name":"Velizh","latitude":"55.605640","longitude":"31.196730","country":"RU"},{"id":"476028","name":"Velikovechnoye","latitude":"44.934021","longitude":"39.754990","country":"RU"},{"id":"476046","name":"Velikooktyabrskiy","latitude":"57.433338","longitude":"33.815948","country":"RU"},{"id":"476055","name":"Velikodvorskiy","latitude":"55.249962","longitude":"40.667801","country":"RU"},{"id":"476062","name":"Velikiy Ustyug","latitude":"60.764442","longitude":"46.310555","country":"RU"},{"id":"476077","name":"Velikiye Luki","latitude":"56.340000","longitude":"30.545170","country":"RU"},{"id":"476106","name":"Velikent","latitude":"42.186260","longitude":"48.062840","country":"RU"},{"id":"476297","name":"Vazhiny","latitude":"60.964439","longitude":"34.022221","country":"RU"},{"id":"476343","name":"Vavozh","latitude":"56.775131","longitude":"51.930981","country":"RU"},{"id":"476372","name":"Vatutinki","latitude":"55.498333","longitude":"37.332500","country":"RU"},{"id":"476417","name":"Vasyurinskaya","latitude":"45.118092","longitude":"39.423981","country":"RU"},{"id":"476548","name":"Vasilyevskiy Mokh","latitude":"57.013161","longitude":"35.918968","country":"RU"},{"id":"476982","name":"Varnavino","latitude":"57.403511","longitude":"45.091640","country":"RU"},{"id":"477004","name":"Varlamovo","latitude":"53.189701","longitude":"48.422600","country":"RU"},{"id":"477039","name":"Varenikovskaya","latitude":"45.120850","longitude":"37.641708","country":"RU"},{"id":"477047","name":"Vardane","latitude":"43.731667","longitude":"39.551388","country":"RU"},{"id":"477192","name":"Valuyki","latitude":"50.203499","longitude":"38.106701","country":"RU"},{"id":"477279","name":"Valerik","latitude":"43.179722","longitude":"45.408058","country":"RU"},{"id":"477280","name":"Valerianovsk","latitude":"58.759998","longitude":"59.552219","country":"RU"},{"id":"477301","name":"Valday","latitude":"57.974724","longitude":"33.252499","country":"RU"},{"id":"477337","name":"Vakhtan","latitude":"57.965919","longitude":"46.688862","country":"RU"},{"id":"477340","name":"Vakhrushi","latitude":"58.684719","longitude":"50.026112","country":"RU"},{"id":"477418","name":"Vadinsk","latitude":"53.691570","longitude":"43.057442","country":"RU"},{"id":"477424","name":"Vad","latitude":"55.530090","longitude":"44.211369","country":"RU"},{"id":"477440","name":"Vacha","latitude":"55.800831","longitude":"42.770561","country":"RU"},{"id":"477466","name":"Uzunovo","latitude":"54.538582","longitude":"38.617340","country":"RU"},{"id":"477494","name":"Uzlovaya","latitude":"53.981789","longitude":"38.171181","country":"RU"},{"id":"477579","name":"Uyemskiy","latitude":"64.474297","longitude":"40.852402","country":"RU"},{"id":"477626","name":"Uvarovo","latitude":"51.984859","longitude":"42.261471","country":"RU"},{"id":"477629","name":"Uvarovka","latitude":"55.527779","longitude":"35.606110","country":"RU"},{"id":"477656","name":"Uva","latitude":"56.990810","longitude":"52.185169","country":"RU"},{"id":"477682","name":"Utsmiyurt","latitude":"43.534809","longitude":"46.469521","country":"RU"},{"id":"477744","name":"Utevka","latitude":"52.903500","longitude":"50.949501","country":"RU"},{"id":"477762","name":"Utamysh","latitude":"42.407181","longitude":"47.751091","country":"RU"},{"id":"477774","name":"Usvyaty","latitude":"55.745560","longitude":"30.753330","country":"RU"},{"id":"477789","name":"Usukhchay","latitude":"41.422451","longitude":"47.913181","country":"RU"},{"id":"477795","name":"Ustyuzhna","latitude":"58.839401","longitude":"36.432098","country":"RU"},{"id":"477846","name":"Ustye","latitude":"59.630428","longitude":"39.735958","country":"RU"},{"id":"477940","name":"Ust-Tsilma","latitude":"65.441040","longitude":"52.149780","country":"RU"},{"id":"477958","name":"Ust-Shonosha","latitude":"61.153099","longitude":"41.342999","country":"RU"},{"id":"478036","name":"Ust-Luga","latitude":"59.667549","longitude":"28.287130","country":"RU"},{"id":"478044","name":"Ust-Labinsk","latitude":"45.212502","longitude":"39.686390","country":"RU"},{"id":"478050","name":"Ust-Kulom","latitude":"61.686359","longitude":"53.690201","country":"RU"},{"id":"478064","name":"Ust-Kishert","latitude":"57.365398","longitude":"57.249500","country":"RU"},{"id":"478071","name":"Ust-Katav","latitude":"54.936943","longitude":"58.165558","country":"RU"},{"id":"478079","name":"Ust-Kachka","latitude":"58.005981","longitude":"55.672470","country":"RU"},{"id":"478130","name":"Ust-Dzheguta","latitude":"44.083401","longitude":"41.976299","country":"RU"},{"id":"478132","name":"Ust-Donetskiy","latitude":"47.641899","longitude":"40.871819","country":"RU"},{"id":"478197","name":"Uspenskoye","latitude":"44.831100","longitude":"41.392700","country":"RU"},{"id":"478213","name":"Uspenskaya","latitude":"45.764481","longitude":"41.066959","country":"RU"},{"id":"478269","name":"Usolye","latitude":"59.426750","longitude":"56.680809","country":"RU"},{"id":"478297","name":"Usogorsk","latitude":"63.410641","longitude":"48.687222","country":"RU"},{"id":"478317","name":"Usman","latitude":"52.046619","longitude":"39.728802","country":"RU"},{"id":"478344","name":"Usisha","latitude":"42.251110","longitude":"47.392780","country":"RU"},{"id":"478532","name":"Urzhum","latitude":"57.114120","longitude":"49.999561","country":"RU"},{"id":"478538","name":"Uryv-Pokrovka","latitude":"51.115898","longitude":"39.163940","country":"RU"},{"id":"478544","name":"Uryupinsk","latitude":"50.804699","longitude":"42.013802","country":"RU"},{"id":"478563","name":"Urvan","latitude":"43.492222","longitude":"43.760559","country":"RU"},{"id":"478565","name":"Urussu","latitude":"54.598122","longitude":"53.463131","country":"RU"},{"id":"478581","name":"Urus-Martan","latitude":"43.128609","longitude":"45.543060","country":"RU"},{"id":"478601","name":"Urukh","latitude":"43.293350","longitude":"44.026470","country":"RU"},{"id":"478620","name":"Urshelskiy","latitude":"55.678322","longitude":"40.216919","country":"RU"},{"id":"478640","name":"Urozhaynoye","latitude":"44.788330","longitude":"44.922779","country":"RU"},{"id":"478689","name":"Urmary","latitude":"55.678940","longitude":"47.943958","country":"RU"},{"id":"478699","name":"Urman","latitude":"54.883141","longitude":"56.874168","country":"RU"},{"id":"478704","name":"Urma","latitude":"42.538940","longitude":"47.286388","country":"RU"},{"id":"478711","name":"Urkarakh","latitude":"42.162971","longitude":"47.630680","country":"RU"},{"id":"478757","name":"Uren","latitude":"57.455158","longitude":"45.785221","country":"RU"},{"id":"478769","name":"Urdoma","latitude":"61.753349","longitude":"48.544201","country":"RU"},{"id":"478781","name":"Urazovo","latitude":"50.083599","longitude":"38.039501","country":"RU"},{"id":"478920","name":"Upornaya","latitude":"44.391399","longitude":"41.019600","country":"RU"},{"id":"478963","name":"Untsukul","latitude":"42.711491","longitude":"46.786629","country":"RU"},{"id":"478996","name":"Uni","latitude":"57.753510","longitude":"51.492321","country":"RU"},{"id":"479021","name":"Undory","latitude":"54.608490","longitude":"48.392761","country":"RU"},{"id":"479028","name":"Unecha","latitude":"52.845909","longitude":"32.673939","country":"RU"},{"id":"479055","name":"Umet","latitude":"54.116112","longitude":"42.697498","country":"RU"},{"id":"479071","name":"Umba","latitude":"66.687057","longitude":"34.342918","country":"RU"},{"id":"479123","name":"Ulyanovsk","latitude":"54.333332","longitude":"48.400002","country":"RU"},{"id":"479140","name":"Ulyanovka","latitude":"59.639439","longitude":"30.764721","country":"RU"},{"id":"479198","name":"Ulu-Telyak","latitude":"54.908611","longitude":"56.966946","country":"RU"},{"id":"479201","name":"Ulukulevo","latitude":"54.435501","longitude":"56.322102","country":"RU"},{"id":"479241","name":"Ullubiyaul","latitude":"42.596889","longitude":"47.718239","country":"RU"},{"id":"479242","name":"Ulluaya","latitude":"42.373772","longitude":"47.374512","country":"RU"},{"id":"479411","name":"Ukhta","latitude":"63.567051","longitude":"53.683479","country":"RU"},{"id":"479426","name":"Ukholovo","latitude":"53.792900","longitude":"40.489201","country":"RU"},{"id":"479442","name":"Uinskoye","latitude":"56.881741","longitude":"56.581348","country":"RU"},{"id":"479471","name":"Ugra","latitude":"54.777748","longitude":"34.326740","country":"RU"},{"id":"479512","name":"Uglyanets","latitude":"51.819080","longitude":"39.596062","country":"RU"},{"id":"479523","name":"Uglovka","latitude":"58.239170","longitude":"33.510830","country":"RU"},{"id":"479532","name":"Uglich","latitude":"57.527500","longitude":"38.331669","country":"RU"},{"id":"479535","name":"Ugleuralskiy","latitude":"58.953350","longitude":"57.584629","country":"RU"},{"id":"479537","name":"Uglerodovskiy","latitude":"48.147041","longitude":"40.062069","country":"RU"},{"id":"479539","name":"Uglegorskiy","latitude":"48.242741","longitude":"41.253101","country":"RU"},{"id":"479553","name":"Ufimskiy","latitude":"56.708401","longitude":"58.051701","country":"RU"},{"id":"479561","name":"Ufa","latitude":"54.775002","longitude":"56.037498","country":"RU"},{"id":"479596","name":"Udobnaya","latitude":"44.193199","longitude":"41.552898","country":"RU"},{"id":"479619","name":"Udimskiy","latitude":"61.141708","longitude":"45.914421","country":"RU"},{"id":"479640","name":"Udelnaya","latitude":"55.625359","longitude":"38.002838","country":"RU"},{"id":"479685","name":"Uchkulan","latitude":"43.457062","longitude":"42.096432","country":"RU"},{"id":"479687","name":"Uchkeken","latitude":"43.937778","longitude":"42.511669","country":"RU"},{"id":"479704","name":"Uchaly","latitude":"54.299599","longitude":"59.452099","country":"RU"},{"id":"479850","name":"Tyulyachi","latitude":"55.891251","longitude":"50.239922","country":"RU"},{"id":"479871","name":"Tyulgan","latitude":"52.340488","longitude":"56.166039","country":"RU"},{"id":"479933","name":"Tyrnyauz","latitude":"43.382778","longitude":"42.918331","country":"RU"},{"id":"480060","name":"Tver","latitude":"56.861938","longitude":"35.893059","country":"RU"},{"id":"480085","name":"Tuzha","latitude":"57.606152","longitude":"47.935970","country":"RU"},{"id":"480089","name":"Tuymazy","latitude":"54.606659","longitude":"53.709702","country":"RU"},{"id":"480122","name":"Tutayev","latitude":"57.885288","longitude":"39.540600","country":"RU"},{"id":"480267","name":"Turki","latitude":"51.987030","longitude":"43.273102","country":"RU"},{"id":"480301","name":"Turgenevo","latitude":"54.845539","longitude":"46.329681","country":"RU"},{"id":"480410","name":"Tunoshna","latitude":"57.545891","longitude":"40.125431","country":"RU"},{"id":"480484","name":"Tuma","latitude":"55.147980","longitude":"40.553741","country":"RU"},{"id":"480562","name":"Tula","latitude":"54.204441","longitude":"37.611111","country":"RU"},{"id":"480654","name":"Tugolesskiy Bor","latitude":"55.550510","longitude":"39.824219","country":"RU"},{"id":"480685","name":"Tuchkovo","latitude":"55.601112","longitude":"36.468056","country":"RU"},{"id":"480716","name":"Tuapse","latitude":"44.112499","longitude":"39.074165","country":"RU"},{"id":"480798","name":"Tsurib","latitude":"42.236801","longitude":"46.830730","country":"RU"},{"id":"480851","name":"Tsivilsk","latitude":"55.861111","longitude":"47.466389","country":"RU"},{"id":"480876","name":"Tsimlyansk","latitude":"47.646111","longitude":"42.101940","country":"RU"},{"id":"480884","name":"Tsilna","latitude":"54.595329","longitude":"48.141399","country":"RU"},{"id":"481007","name":"Tsentoroy","latitude":"43.006390","longitude":"46.223061","country":"RU"},{"id":"481036","name":"Tselina","latitude":"46.533810","longitude":"41.032841","country":"RU"},{"id":"481117","name":"Tsagan Aman","latitude":"47.563900","longitude":"46.721802","country":"RU"},{"id":"481181","name":"Trunovskoye","latitude":"45.487782","longitude":"42.135830","country":"RU"},{"id":"481275","name":"Trudobelikovskiy","latitude":"45.268612","longitude":"38.163055","country":"RU"},{"id":"481350","name":"Trubchevsk","latitude":"52.579800","longitude":"33.764400","country":"RU"},{"id":"481439","name":"Trosna","latitude":"52.444599","longitude":"35.779099","country":"RU"},{"id":"481498","name":"Troitskoye","latitude":"55.299999","longitude":"38.533329","country":"RU"},{"id":"481542","name":"Troitskoye","latitude":"46.420601","longitude":"44.259102","country":"RU"},{"id":"481543","name":"Troitskoye","latitude":"43.762199","longitude":"44.684151","country":"RU"},{"id":"481548","name":"Troitsko-Pechorsk","latitude":"62.708359","longitude":"56.196430","country":"RU"},{"id":"481580","name":"Troitskiy","latitude":"51.358799","longitude":"37.525299","country":"RU"},{"id":"481604","name":"Troitskaya","latitude":"45.134930","longitude":"38.125439","country":"RU"},{"id":"481605","name":"Troitskaya","latitude":"43.305561","longitude":"44.978889","country":"RU"},{"id":"481608","name":"Troitsk","latitude":"55.484982","longitude":"37.307362","country":"RU"},{"id":"481900","name":"Tpig","latitude":"41.780071","longitude":"47.588959","country":"RU"},{"id":"481938","name":"Tovarkovskiy","latitude":"53.682171","longitude":"38.209202","country":"RU"},{"id":"481941","name":"Tovarkovo","latitude":"54.676170","longitude":"35.938599","country":"RU"},{"id":"481955","name":"Totskoye","latitude":"52.524780","longitude":"52.762280","country":"RU"},{"id":"481960","name":"Totma","latitude":"59.974724","longitude":"42.764168","country":"RU"},{"id":"481964","name":"Tosno","latitude":"59.540001","longitude":"30.877501","country":"RU"},{"id":"481985","name":"Torzhok","latitude":"57.043598","longitude":"34.962212","country":"RU"},{"id":"482042","name":"Toropets","latitude":"56.497791","longitude":"31.635281","country":"RU"},{"id":"482123","name":"Torbeyevo","latitude":"54.079720","longitude":"43.247318","country":"RU"},{"id":"482219","name":"Tonshayevo","latitude":"57.735981","longitude":"47.012650","country":"RU"},{"id":"482230","name":"Tonkino","latitude":"57.372570","longitude":"46.462940","country":"RU"},{"id":"482260","name":"Tomilino","latitude":"55.655277","longitude":"37.925278","country":"RU"},{"id":"482275","name":"Tomarovka","latitude":"50.683380","longitude":"36.233089","country":"RU"},{"id":"482283","name":"Tolyatti","latitude":"53.530300","longitude":"49.346100","country":"RU"},{"id":"482309","name":"Tolstoy-Yurt","latitude":"43.444439","longitude":"45.772221","country":"RU"},{"id":"482390","name":"Tolmachevo","latitude":"58.859730","longitude":"29.910910","country":"RU"},{"id":"482432","name":"Tolbazy","latitude":"54.024078","longitude":"55.882481","country":"RU"},{"id":"482443","name":"Toksovo","latitude":"60.153229","longitude":"30.516460","country":"RU"},{"id":"482582","name":"Tlyustenkhabl","latitude":"44.980000","longitude":"39.097221","country":"RU"},{"id":"482742","name":"Tishchenskoye","latitude":"45.460560","longitude":"41.673820","country":"RU"},{"id":"482761","name":"Tirlyanskiy","latitude":"54.210899","longitude":"58.580601","country":"RU"},{"id":"482965","name":"Timashevsk","latitude":"45.616943","longitude":"38.945278","country":"RU"},{"id":"482986","name":"Tim","latitude":"51.622219","longitude":"37.124439","country":"RU"},{"id":"483019","name":"Tikhvin","latitude":"59.645111","longitude":"33.529369","country":"RU"},{"id":"483029","name":"Tikhoretsk","latitude":"45.854721","longitude":"40.125278","country":"RU"},{"id":"483137","name":"Teykovo","latitude":"56.857960","longitude":"40.536919","country":"RU"},{"id":"483142","name":"Adygeysk","latitude":"44.880001","longitude":"39.189999","country":"RU"},{"id":"483150","name":"Tetyushi","latitude":"54.938210","longitude":"48.836559","country":"RU"},{"id":"483281","name":"Terskaya","latitude":"43.723759","longitude":"44.724419","country":"RU"},{"id":"483326","name":"Ternevskaya","latitude":"45.854168","longitude":"40.408611","country":"RU"},{"id":"483341","name":"Ternovka","latitude":"51.678028","longitude":"41.637501","country":"RU"},{"id":"483386","name":"Tereze","latitude":"43.936081","longitude":"42.443401","country":"RU"},{"id":"483439","name":"Terekli-Mekteb","latitude":"44.167099","longitude":"45.869751","country":"RU"},{"id":"483495","name":"Terek","latitude":"43.483330","longitude":"44.136108","country":"RU"},{"id":"483541","name":"Terbuny","latitude":"52.138889","longitude":"38.278889","country":"RU"},{"id":"483575","name":"Teploye","latitude":"53.620220","longitude":"37.590260","country":"RU"},{"id":"483613","name":"Teplaya Gora","latitude":"58.524441","longitude":"59.072781","country":"RU"},{"id":"483642","name":"Tengushevo","latitude":"54.768608","longitude":"42.718891","country":"RU"},{"id":"483650","name":"Temyasovo","latitude":"52.993328","longitude":"58.101391","country":"RU"},{"id":"483661","name":"Temryuk","latitude":"45.272221","longitude":"37.381111","country":"RU"},{"id":"483684","name":"Temnikov","latitude":"54.630230","longitude":"43.214828","country":"RU"},{"id":"483689","name":"Temkino","latitude":"55.109169","longitude":"35.013889","country":"RU"},{"id":"483691","name":"Temizhbekskaya","latitude":"45.450779","longitude":"41.038658","country":"RU"},{"id":"483692","name":"Temizhbekskaya","latitude":"45.445560","longitude":"40.845001","country":"RU"},{"id":"483696","name":"Temirgoyevskaya","latitude":"45.114140","longitude":"40.280270","country":"RU"},{"id":"483699","name":"Temiraul","latitude":"43.253220","longitude":"46.825401","country":"RU"},{"id":"483873","name":"Teberda","latitude":"43.445648","longitude":"41.744801","country":"RU"},{"id":"483883","name":"Tbilisskaya","latitude":"45.363331","longitude":"40.189999","country":"RU"},{"id":"483898","name":"Taytsy","latitude":"59.664440","longitude":"30.114719","country":"RU"},{"id":"484017","name":"Tatsinskiy","latitude":"48.196770","longitude":"41.275581","country":"RU"},{"id":"484034","name":"Tatishchevo","latitude":"51.670280","longitude":"45.595280","country":"RU"},{"id":"484122","name":"Tatarskaya Pishlya","latitude":"54.060848","longitude":"44.899780","country":"RU"},{"id":"484127","name":"Tatarskaya Kargala","latitude":"51.949520","longitude":"55.173141","country":"RU"},{"id":"484162","name":"Tatarka","latitude":"44.958900","longitude":"41.951710","country":"RU"},{"id":"484232","name":"Tashla","latitude":"51.771568","longitude":"52.742699","country":"RU"},{"id":"484287","name":"Tarusa","latitude":"54.723331","longitude":"37.176666","country":"RU"},{"id":"484290","name":"Tarumovka","latitude":"44.076061","longitude":"46.536129","country":"RU"},{"id":"484296","name":"Tarskoye","latitude":"42.966991","longitude":"44.771141","country":"RU"},{"id":"484314","name":"Tarnogskiy Gorodok","latitude":"60.499722","longitude":"43.576111","country":"RU"},{"id":"484334","name":"Tarki","latitude":"42.944229","longitude":"47.495270","country":"RU"},{"id":"484340","name":"Tarkhovka","latitude":"60.066872","longitude":"29.974350","country":"RU"},{"id":"484367","name":"Taremskoye","latitude":"55.928890","longitude":"43.044331","country":"RU"},{"id":"484396","name":"Tarasovskiy","latitude":"48.729168","longitude":"40.363609","country":"RU"},{"id":"484644","name":"Tambovka","latitude":"47.315281","longitude":"47.377731","country":"RU"},{"id":"484646","name":"Tambov","latitude":"52.731670","longitude":"41.433891","country":"RU"},{"id":"484670","name":"Taman","latitude":"45.211700","longitude":"36.716091","country":"RU"},{"id":"484674","name":"Tamala","latitude":"52.540970","longitude":"43.251450","country":"RU"},{"id":"484720","name":"Talovyy","latitude":"47.807652","longitude":"40.109428","country":"RU"},{"id":"484747","name":"Talovaya","latitude":"51.114441","longitude":"40.730000","country":"RU"},{"id":"484770","name":"Talitsy","latitude":"56.528889","longitude":"42.334438","country":"RU"},{"id":"484826","name":"Taldom","latitude":"56.733330","longitude":"37.533329","country":"RU"},{"id":"484856","name":"Agidel","latitude":"55.907700","longitude":"53.935501","country":"RU"},{"id":"484907","name":"Taganrog","latitude":"47.236172","longitude":"38.896881","country":"RU"},{"id":"484972","name":"Syzran","latitude":"53.158501","longitude":"48.468102","country":"RU"},{"id":"485064","name":"Syumsi","latitude":"57.111080","longitude":"51.614941","country":"RU"},{"id":"485140","name":"Syrtych","latitude":"41.833881","longitude":"48.229012","country":"RU"},{"id":"485153","name":"Syrskoye","latitude":"52.574360","longitude":"39.496601","country":"RU"},{"id":"485230","name":"Sylva","latitude":"58.034752","longitude":"56.763458","country":"RU"},{"id":"485239","name":"Syktyvkar","latitude":"61.676418","longitude":"50.809940","country":"RU"},{"id":"485273","name":"Sychevo","latitude":"55.957710","longitude":"36.227852","country":"RU"},{"id":"485275","name":"Sychevo","latitude":"55.061958","longitude":"38.713840","country":"RU"},{"id":"485280","name":"Sychevka","latitude":"55.825150","longitude":"34.273621","country":"RU"},{"id":"485304","name":"Syava","latitude":"58.014568","longitude":"46.322159","country":"RU"},{"id":"485313","name":"Syasstroy","latitude":"60.136688","longitude":"32.569061","country":"RU"},{"id":"485351","name":"Syamzha","latitude":"60.015770","longitude":"41.061390","country":"RU"},{"id":"485432","name":"Svobody","latitude":"44.025558","longitude":"43.050282","country":"RU"},{"id":"485449","name":"Svobodnyy","latitude":"52.330391","longitude":"46.371220","country":"RU"},{"id":"485516","name":"Sviyazhsk","latitude":"55.773289","longitude":"48.660511","country":"RU"},{"id":"485639","name":"Svetogorsk","latitude":"61.112129","longitude":"28.863211","country":"RU"},{"id":"485643","name":"Svetlyy Yar","latitude":"48.474800","longitude":"44.780960","country":"RU"},{"id":"485660","name":"Svetlyy","latitude":"54.675011","longitude":"20.134729","country":"RU"},{"id":"485698","name":"Svetlograd","latitude":"45.335281","longitude":"42.854721","country":"RU"},{"id":"485699","name":"Svetlogorsk","latitude":"54.939869","longitude":"20.154791","country":"RU"},{"id":"485763","name":"Sverdlovskiy","latitude":"55.910831","longitude":"38.153610","country":"RU"},{"id":"485785","name":"Sven","latitude":"53.182220","longitude":"34.551109","country":"RU"},{"id":"485799","name":"Svecha","latitude":"58.278488","longitude":"47.516361","country":"RU"},{"id":"485817","name":"Suzemka","latitude":"52.317780","longitude":"34.068890","country":"RU"},{"id":"485824","name":"Suzdal","latitude":"56.428055","longitude":"40.441387","country":"RU"},{"id":"485871","name":"Suvorovskaya","latitude":"44.194168","longitude":"42.653889","country":"RU"},{"id":"485888","name":"Suvorov","latitude":"54.122299","longitude":"36.496571","country":"RU"},{"id":"485964","name":"Suslonger","latitude":"56.315559","longitude":"48.253059","country":"RU"},{"id":"486015","name":"Susanino","latitude":"58.146111","longitude":"41.587223","country":"RU"},{"id":"486043","name":"Surskoye","latitude":"54.482101","longitude":"46.721401","country":"RU"},{"id":"486048","name":"Sursk","latitude":"53.075420","longitude":"45.684608","country":"RU"},{"id":"486071","name":"Surovikino","latitude":"48.607777","longitude":"42.848610","country":"RU"},{"id":"486073","name":"Surovatikha","latitude":"55.765160","longitude":"43.898449","country":"RU"},{"id":"486110","name":"Surkhakhi","latitude":"43.187500","longitude":"44.901939","country":"RU"},{"id":"486137","name":"Surgut","latitude":"53.924980","longitude":"51.203480","country":"RU"},{"id":"486148","name":"Surazh","latitude":"53.017471","longitude":"32.391781","country":"RU"},{"id":"486163","name":"Sura","latitude":"53.887859","longitude":"45.741920","country":"RU"},{"id":"486178","name":"Suponevo","latitude":"53.204922","longitude":"34.295971","country":"RU"},{"id":"486186","name":"Suoyarvi","latitude":"62.083328","longitude":"32.349998","country":"RU"},{"id":"486203","name":"Sunzha","latitude":"43.058620","longitude":"44.822811","country":"RU"},{"id":"486236","name":"Suna","latitude":"57.833790","longitude":"50.058842","country":"RU"},{"id":"486398","name":"Sulak","latitude":"43.273418","longitude":"47.514629","country":"RU"},{"id":"486413","name":"Suksun","latitude":"57.143101","longitude":"57.394901","country":"RU"},{"id":"486626","name":"Sukhodol","latitude":"53.900631","longitude":"51.211700","country":"RU"},{"id":"486645","name":"Sukhobezvodnoye","latitude":"57.049129","longitude":"44.889091","country":"RU"},{"id":"486665","name":"Sukhinichi","latitude":"54.099892","longitude":"35.342541","country":"RU"},{"id":"486725","name":"Sukhaya Buyvola","latitude":"45.153332","longitude":"42.995560","country":"RU"},{"id":"486816","name":"Sudzha","latitude":"51.197601","longitude":"35.272598","country":"RU"},{"id":"486834","name":"Sudogda","latitude":"55.953941","longitude":"40.862911","country":"RU"},{"id":"486848","name":"Sudislavl","latitude":"57.881748","longitude":"41.708290","country":"RU"},{"id":"486874","name":"Suda","latitude":"59.152538","longitude":"37.558201","country":"RU"},{"id":"486894","name":"Subkhankulovo","latitude":"54.557411","longitude":"53.811531","country":"RU"},{"id":"486968","name":"Stupino","latitude":"54.900833","longitude":"38.070831","country":"RU"},{"id":"486983","name":"Stulovo","latitude":"58.722500","longitude":"50.143890","country":"RU"},{"id":"487095","name":"Strunino","latitude":"56.383331","longitude":"38.566666","country":"RU"},{"id":"487110","name":"Strugi-Krasnyye","latitude":"58.267540","longitude":"29.111370","country":"RU"},{"id":"487147","name":"Stroitel","latitude":"50.785431","longitude":"36.483101","country":"RU"},{"id":"487159","name":"Strizhi","latitude":"58.457581","longitude":"49.286671","country":"RU"},{"id":"487227","name":"Strelna","latitude":"59.848331","longitude":"30.026112","country":"RU"},{"id":"487246","name":"Strelka","latitude":"45.206329","longitude":"37.286499","country":"RU"},{"id":"487255","name":"Strelitsa","latitude":"51.608299","longitude":"38.910198","country":"RU"},{"id":"487372","name":"Storozhevaya","latitude":"43.878860","longitude":"41.451431","country":"RU"},{"id":"487441","name":"Stolbovaya","latitude":"55.252777","longitude":"37.485279","country":"RU"},{"id":"487444","name":"Stolbishchi","latitude":"55.646790","longitude":"49.215950","country":"RU"},{"id":"487464","name":"Stodolishche","latitude":"54.185940","longitude":"32.649239","country":"RU"},{"id":"487495","name":"Sterlitamak","latitude":"53.624619","longitude":"55.950150","country":"RU"},{"id":"487498","name":"Sterlibashevo","latitude":"53.437550","longitude":"55.257801","country":"RU"},{"id":"487543","name":"Stepnoye","latitude":"51.400002","longitude":"46.866669","country":"RU"},{"id":"487629","name":"Stepantsevo","latitude":"56.131432","longitude":"41.703201","country":"RU"},{"id":"487837","name":"Stavrovo","latitude":"56.133110","longitude":"40.012951","country":"RU"},{"id":"487846","name":"Stavropol","latitude":"45.042778","longitude":"41.973331","country":"RU"},{"id":"487871","name":"Staryy Urukh","latitude":"43.340408","longitude":"44.018681","country":"RU"},{"id":"487928","name":"Staryy Oskol","latitude":"51.296665","longitude":"37.841667","country":"RU"},{"id":"488128","name":"Staryye Atagi","latitude":"43.120281","longitude":"45.740559","country":"RU"},{"id":"488142","name":"Staryy Cherek","latitude":"43.471390","longitude":"43.846939","country":"RU"},{"id":"488206","name":"Starozhilovo","latitude":"54.225399","longitude":"39.916000","country":"RU"},{"id":"488214","name":"Staroyuryevo","latitude":"53.316109","longitude":"40.708061","country":"RU"},{"id":"488466","name":"Staroye Drozhzhanoye","latitude":"54.726582","longitude":"47.567661","country":"RU"},{"id":"488587","name":"Starovelichkovskaya","latitude":"45.428841","longitude":"38.732609","country":"RU"},{"id":"488593","name":"Staroutkinsk","latitude":"57.230171","longitude":"59.334831","country":"RU"},{"id":"488606","name":"Starotitarovskaya","latitude":"45.213612","longitude":"37.143890","country":"RU"},{"id":"488608","name":"Starotimoshkino","latitude":"53.719082","longitude":"47.531158","country":"RU"},{"id":"488618","name":"Starosubkhangulovo","latitude":"53.103100","longitude":"57.442299","country":"RU"},{"id":"488635","name":"Staroshcherbinovskaya","latitude":"46.631100","longitude":"38.674198","country":"RU"},{"id":"488706","name":"Staropavlovskaya","latitude":"43.848888","longitude":"43.632778","country":"RU"},{"id":"488713","name":"Staronizhestebliyevskaya","latitude":"45.376667","longitude":"38.451668","country":"RU"},{"id":"488730","name":"Staromyshastovskaya","latitude":"45.343288","longitude":"39.076080","country":"RU"},{"id":"488742","name":"Starominskaya","latitude":"46.529999","longitude":"39.049721","country":"RU"},{"id":"488758","name":"Staroleushkovskaya","latitude":"45.990555","longitude":"39.763058","country":"RU"},{"id":"488777","name":"Starokucherganovka","latitude":"46.324760","longitude":"47.955502","country":"RU"},{"id":"488785","name":"Starokorsunskaya","latitude":"45.057270","longitude":"39.316109","country":"RU"},{"id":"488839","name":"Starodzhereliyevskaya","latitude":"45.475990","longitude":"38.296799","country":"RU"},{"id":"488847","name":"Starodubskoye","latitude":"44.563061","longitude":"44.015282","country":"RU"},{"id":"488852","name":"Starodub","latitude":"52.584438","longitude":"32.763329","country":"RU"},{"id":"488859","name":"Staroderevyankovskaya","latitude":"46.127602","longitude":"38.967400","country":"RU"},{"id":"488864","name":"Starocherkasskaya","latitude":"47.240768","longitude":"40.041859","country":"RU"},{"id":"488881","name":"Starobaltachevo","latitude":"56.001320","longitude":"55.921310","country":"RU"},{"id":"488946","name":"Staritsa","latitude":"56.507519","longitude":"34.935440","country":"RU"},{"id":"489021","name":"Staraya Vichuga","latitude":"57.268330","longitude":"41.878731","country":"RU"},{"id":"489043","name":"Staraya Toropa","latitude":"56.280121","longitude":"31.670179","country":"RU"},{"id":"489057","name":"Staraya Sunzha","latitude":"43.337219","longitude":"45.742222","country":"RU"},{"id":"489062","name":"Staraya Stanitsa","latitude":"48.349998","longitude":"40.283333","country":"RU"},{"id":"489063","name":"Staraya Stanitsa","latitude":"45.009800","longitude":"41.151199","country":"RU"},{"id":"489088","name":"Staraya Russa","latitude":"57.994389","longitude":"31.360809","country":"RU"},{"id":"489102","name":"Staraya Poltavka","latitude":"50.477150","longitude":"46.481441","country":"RU"},{"id":"489135","name":"Staraya Mayna","latitude":"54.599998","longitude":"48.950001","country":"RU"},{"id":"489158","name":"Staraya Ladoga","latitude":"59.998718","longitude":"32.294128","country":"RU"},{"id":"489162","name":"Staraya Kupavna","latitude":"55.807991","longitude":"38.180500","country":"RU"},{"id":"489164","name":"Staraya Kulatka","latitude":"52.716671","longitude":"47.616669","country":"RU"},{"id":"489264","name":"Staraya","latitude":"59.928055","longitude":"30.620556","country":"RU"},{"id":"489271","name":"Star","latitude":"53.623619","longitude":"34.151829","country":"RU"},{"id":"489290","name":"Stanovoye","latitude":"52.763840","longitude":"38.358181","country":"RU"},{"id":"489393","name":"Srednyaya Yelyuzan","latitude":"53.024101","longitude":"45.952900","country":"RU"},{"id":"489446","name":"Srednyaya Akhtuba","latitude":"48.708889","longitude":"44.866669","country":"RU"},{"id":"489495","name":"Sredniy Ikorets","latitude":"51.067490","longitude":"39.758381","country":"RU"},{"id":"489655","name":"Spokoynaya","latitude":"44.246799","longitude":"41.401501","country":"RU"},{"id":"489671","name":"Spitsevka","latitude":"45.123058","longitude":"42.512501","country":"RU"},{"id":"489686","name":"Spirovo","latitude":"57.419048","longitude":"34.976582","country":"RU"},{"id":"489701","name":"Spiridonovka","latitude":"53.092480","longitude":"50.646210","country":"RU"},{"id":"489741","name":"Spassk-Ryazanskiy","latitude":"54.407223","longitude":"40.380554","country":"RU"},{"id":"489778","name":"Spasskoye","latitude":"55.860481","longitude":"45.696949","country":"RU"},{"id":"489862","name":"Spas-Klepiki","latitude":"55.134720","longitude":"40.176731","country":"RU"},{"id":"489868","name":"Spas-Demensk","latitude":"54.412220","longitude":"34.022572","country":"RU"},{"id":"489910","name":"Sozimskiy","latitude":"59.741779","longitude":"52.248211","country":"RU"},{"id":"489990","name":"Sovetskoye","latitude":"51.450001","longitude":"46.733330","country":"RU"},{"id":"489994","name":"Sovetskoye","latitude":"47.308681","longitude":"44.521622","country":"RU"},{"id":"489997","name":"Kashkhatau","latitude":"43.318481","longitude":"43.608040","country":"RU"},{"id":"489999","name":"Khebda","latitude":"42.444229","longitude":"46.551720","country":"RU"},{"id":"490039","name":"Sovetskiy","latitude":"60.539452","longitude":"28.677561","country":"RU"},{"id":"490040","name":"Sovetskiy","latitude":"56.758331","longitude":"48.476109","country":"RU"},{"id":"490064","name":"Sovetskaya","latitude":"49.009121","longitude":"42.121780","country":"RU"},{"id":"490065","name":"Sovetskaya","latitude":"44.776939","longitude":"41.172218","country":"RU"},{"id":"490066","name":"Sovetskaya","latitude":"44.026669","longitude":"44.049999","country":"RU"},{"id":"490067","name":"Sovetsk","latitude":"57.584751","longitude":"48.958439","country":"RU"},{"id":"490068","name":"Sovetsk","latitude":"55.083920","longitude":"21.878510","country":"RU"},{"id":"490108","name":"Sotnikovskoye","latitude":"45.003891","longitude":"43.777222","country":"RU"},{"id":"490172","name":"Sosnovyy Bor","latitude":"59.900002","longitude":"29.116671","country":"RU"},{"id":"490211","name":"Sosnovoborsk","latitude":"53.290661","longitude":"46.248489","country":"RU"},{"id":"490213","name":"Sosnovo","latitude":"60.551449","longitude":"30.214411","country":"RU"},{"id":"490276","name":"Sosnovka","latitude":"56.254959","longitude":"51.284191","country":"RU"},{"id":"490300","name":"Sosnovka","latitude":"54.711609","longitude":"43.297741","country":"RU"},{"id":"490323","name":"Sosnovka","latitude":"53.236938","longitude":"41.370560","country":"RU"},{"id":"490391","name":"Sosnogorsk","latitude":"63.602291","longitude":"53.881748","country":"RU"},{"id":"490425","name":"Soskovo","latitude":"52.747520","longitude":"35.382771","country":"RU"},{"id":"490437","name":"Sosenskiy","latitude":"54.058990","longitude":"35.962280","country":"RU"},{"id":"490466","name":"Sortavala","latitude":"61.705318","longitude":"30.691780","country":"RU"},{"id":"490554","name":"Sorochinsk","latitude":"52.433800","longitude":"53.158298","country":"RU"},{"id":"490637","name":"Sonkovo","latitude":"57.778160","longitude":"37.157070","country":"RU"},{"id":"490683","name":"Somovo","latitude":"51.740978","longitude":"39.366550","country":"RU"},{"id":"490737","name":"Solyanka","latitude":"46.388901","longitude":"48.017551","country":"RU"},{"id":"490743","name":"Solvychegodsk","latitude":"61.330460","longitude":"46.915588","country":"RU"},{"id":"490747","name":"Soluno-Dmitriyevskoye","latitude":"44.403057","longitude":"42.727779","country":"RU"},{"id":"490750","name":"Soltsy","latitude":"58.123871","longitude":"30.323771","country":"RU"},{"id":"490846","name":"Solotcha","latitude":"54.791668","longitude":"39.844166","country":"RU"},{"id":"490914","name":"Solomenskoye","latitude":"44.216671","longitude":"44.352779","country":"RU"},{"id":"490976","name":"Solntsevo","latitude":"51.418530","longitude":"36.749901","country":"RU"},{"id":"490996","name":"Solnechnogorsk","latitude":"56.183334","longitude":"36.983334","country":"RU"},{"id":"491019","name":"Sol-Iletsk","latitude":"51.163101","longitude":"54.991760","country":"RU"},{"id":"491023","name":"Solikamsk","latitude":"59.619560","longitude":"56.772888","country":"RU"},{"id":"491025","name":"Soligalich","latitude":"59.077778","longitude":"42.286388","country":"RU"},{"id":"491079","name":"Soldatskaya","latitude":"43.818062","longitude":"43.815830","country":"RU"},{"id":"491085","name":"Soldato-Aleksandrovskoye","latitude":"44.265282","longitude":"43.756111","country":"RU"},{"id":"491145","name":"Sokolskoye","latitude":"57.141220","longitude":"43.158939","country":"RU"},{"id":"491155","name":"Sokolovyy","latitude":"51.568569","longitude":"45.833118","country":"RU"},{"id":"491158","name":"Sokolovskoye","latitude":"45.258331","longitude":"40.679722","country":"RU"},{"id":"491171","name":"Sokolovo-Kundryuchenskiy","latitude":"47.835361","longitude":"39.947109","country":"RU"},{"id":"491281","name":"Sokol","latitude":"59.461670","longitude":"40.120560","country":"RU"},{"id":"491351","name":"Sofrino","latitude":"56.150002","longitude":"37.966667","country":"RU"},{"id":"491422","name":"Sochi","latitude":"43.599998","longitude":"39.730278","country":"RU"},{"id":"491480","name":"Sobinka","latitude":"55.985531","longitude":"40.011108","country":"RU"},{"id":"491538","name":"Snegiri","latitude":"55.888680","longitude":"37.024212","country":"RU"},{"id":"491576","name":"Smyshlyayevka","latitude":"53.239128","longitude":"50.390720","country":"RU"},{"id":"491660","name":"Smolino","latitude":"56.281391","longitude":"43.033890","country":"RU"},{"id":"491685","name":"Smolenskaya","latitude":"44.788670","longitude":"38.801811","country":"RU"},{"id":"491687","name":"Smolensk","latitude":"54.781666","longitude":"32.040001","country":"RU"},{"id":"491882","name":"Slobodskoy","latitude":"58.732220","longitude":"50.177219","country":"RU"},{"id":"492042","name":"Sloboda","latitude":"51.142101","longitude":"40.302101","country":"RU"},{"id":"492094","name":"Slavyansk-na-Kubani","latitude":"45.251945","longitude":"38.118057","country":"RU"},{"id":"492112","name":"Slavsk","latitude":"55.042500","longitude":"21.677040","country":"RU"},{"id":"492162","name":"Slantsy","latitude":"59.118172","longitude":"28.091370","country":"RU"},{"id":"492218","name":"Skuratovskiy","latitude":"54.110828","longitude":"37.601109","country":"RU"},{"id":"492333","name":"Skoropuskovskiy","latitude":"56.366669","longitude":"38.166668","country":"RU"},{"id":"492351","name":"Skorodnoye","latitude":"51.071011","longitude":"37.227558","country":"RU"},{"id":"492376","name":"Skopin","latitude":"53.824860","longitude":"39.550529","country":"RU"},{"id":"492448","name":"Skhodnya","latitude":"55.955833","longitude":"37.297222","country":"RU"},{"id":"492579","name":"Siverskiy","latitude":"59.354439","longitude":"30.078329","country":"RU"},{"id":"492592","name":"Siva","latitude":"58.382038","longitude":"54.380371","country":"RU"},{"id":"492596","name":"Siukh","latitude":"42.599899","longitude":"46.544621","country":"RU"},{"id":"492657","name":"Sista-Palkino","latitude":"59.800419","longitude":"28.910490","country":"RU"},{"id":"492708","name":"Sinyavskoye","latitude":"47.277031","longitude":"39.278881","country":"RU"},{"id":"492712","name":"Sinyavino","latitude":"59.907810","longitude":"31.071100","country":"RU"},{"id":"492853","name":"Sinegorskiy","latitude":"48.013889","longitude":"40.844681","country":"RU"},{"id":"492860","name":"Sindor","latitude":"62.862862","longitude":"51.890511","country":"RU"},{"id":"492944","name":"Sim","latitude":"54.993000","longitude":"57.698200","country":"RU"},{"id":"492970","name":"Silikatnyy","latitude":"53.989571","longitude":"48.327499","country":"RU"},{"id":"493040","name":"Sigayevo","latitude":"56.421631","longitude":"53.775661","country":"RU"},{"id":"493160","name":"Sibay","latitude":"52.718060","longitude":"58.665829","country":"RU"},{"id":"493184","name":"Shvartsevskiy","latitude":"54.096111","longitude":"37.991669","country":"RU"},{"id":"493201","name":"Shuyskoye","latitude":"59.373562","longitude":"41.030472","country":"RU"},{"id":"493228","name":"Shuya","latitude":"61.952511","longitude":"34.232712","country":"RU"},{"id":"493231","name":"Shuya","latitude":"56.848652","longitude":"41.388329","country":"RU"},{"id":"493316","name":"Shushary","latitude":"59.809170","longitude":"30.381670","country":"RU"},{"id":"493405","name":"Shumyachi","latitude":"53.858330","longitude":"32.424171","country":"RU"},{"id":"493452","name":"Shumikhinskiy","latitude":"58.744839","longitude":"57.690498","country":"RU"},{"id":"493463","name":"Shumerlya","latitude":"55.500500","longitude":"46.412880","country":"RU"},{"id":"493566","name":"Shugurovo","latitude":"54.508282","longitude":"52.132648","country":"RU"},{"id":"493600","name":"Shudayag","latitude":"63.526649","longitude":"53.605820","country":"RU"},{"id":"493702","name":"Mikhaylovsk","latitude":"45.128330","longitude":"42.025558","country":"RU"},{"id":"493721","name":"Shovgenovskiy","latitude":"45.010281","longitude":"40.224998","country":"RU"},{"id":"493839","name":"Sholokhovskiy","latitude":"48.280708","longitude":"41.045921","country":"RU"},{"id":"493997","name":"Shkurinskaya","latitude":"46.585800","longitude":"39.359901","country":"RU"},{"id":"494249","name":"Shirochanka","latitude":"46.649681","longitude":"38.397820","country":"RU"},{"id":"494275","name":"Shiringushi","latitude":"53.848499","longitude":"42.767590","country":"RU"},{"id":"494304","name":"Shipitsyno","latitude":"61.280560","longitude":"46.520828","country":"RU"},{"id":"494366","name":"Shimsk","latitude":"58.212009","longitude":"30.712690","country":"RU"},{"id":"494378","name":"Shimorskoye","latitude":"55.324440","longitude":"42.026669","country":"RU"},{"id":"494427","name":"Shilovo","latitude":"54.320400","longitude":"40.874001","country":"RU"},{"id":"494430","name":"Shilovo","latitude":"51.545830","longitude":"39.089169","country":"RU"},{"id":"494514","name":"Shikhazany","latitude":"55.560471","longitude":"47.392971","country":"RU"},{"id":"494519","name":"Shikhany","latitude":"52.116669","longitude":"47.216671","country":"RU"},{"id":"494531","name":"Shigony","latitude":"53.387501","longitude":"48.677700","country":"RU"},{"id":"494846","name":"Shepsi","latitude":"44.036110","longitude":"39.148888","country":"RU"},{"id":"494877","name":"Shentala","latitude":"54.450001","longitude":"51.483330","country":"RU"},{"id":"494884","name":"Shenkursk","latitude":"62.109100","longitude":"42.895950","country":"RU"},{"id":"494900","name":"Shemysheyka","latitude":"52.891960","longitude":"45.392818","country":"RU"},{"id":"494920","name":"Shemursha","latitude":"54.886631","longitude":"47.518929","country":"RU"},{"id":"494925","name":"Shemordan","latitude":"56.185600","longitude":"50.397202","country":"RU"},{"id":"495000","name":"Shelkovskaya","latitude":"43.506939","longitude":"46.339169","country":"RU"},{"id":"495062","name":"Sheksna","latitude":"59.209980","longitude":"38.510658","country":"RU"},{"id":"495102","name":"Shedok","latitude":"44.217899","longitude":"40.848701","country":"RU"},{"id":"495112","name":"Shebekino","latitude":"50.409672","longitude":"36.913601","country":"RU"},{"id":"495206","name":"Shchigry","latitude":"51.875549","longitude":"36.904320","country":"RU"},{"id":"495260","name":"Shcherbinka","latitude":"55.499722","longitude":"37.559719","country":"RU"},{"id":"495344","name":"Shchelkovo","latitude":"55.921665","longitude":"37.991390","country":"RU"},{"id":"495394","name":"Shchekino","latitude":"54.009171","longitude":"37.511940","country":"RU"},{"id":"495412","name":"Shcheglovo","latitude":"60.028389","longitude":"30.752890","country":"RU"},{"id":"495515","name":"Shaturtorf","latitude":"55.567223","longitude":"39.416943","country":"RU"},{"id":"495518","name":"Shatura","latitude":"55.572529","longitude":"39.536819","country":"RU"},{"id":"495532","name":"Shatsk","latitude":"54.025761","longitude":"41.711910","country":"RU"},{"id":"495562","name":"Shatki","latitude":"55.188740","longitude":"44.124859","country":"RU"},{"id":"495575","name":"Shatalovo","latitude":"54.334000","longitude":"32.446499","country":"RU"},{"id":"495619","name":"Sharya","latitude":"58.368610","longitude":"45.514442","country":"RU"},{"id":"495670","name":"Sharlyk","latitude":"52.916672","longitude":"54.750000","country":"RU"},{"id":"495688","name":"Sharkan","latitude":"57.298851","longitude":"53.871220","country":"RU"},{"id":"495767","name":"Sharanga","latitude":"57.177490","longitude":"46.539558","country":"RU"},{"id":"495770","name":"Sharan","latitude":"54.816669","longitude":"54.000000","country":"RU"},{"id":"495891","name":"Shamkhal-Termen","latitude":"43.033890","longitude":"47.310532","country":"RU"},{"id":"495893","name":"Shamkhal","latitude":"43.059582","longitude":"47.337318","country":"RU"},{"id":"495904","name":"Shamary","latitude":"57.343399","longitude":"58.219879","country":"RU"},{"id":"495915","name":"Shalya","latitude":"57.247101","longitude":"58.729801","country":"RU"},{"id":"495918","name":"Shalushka","latitude":"43.532501","longitude":"43.566109","country":"RU"},{"id":"495969","name":"Shalazhi","latitude":"43.097778","longitude":"45.360828","country":"RU"},{"id":"495983","name":"Shalakusha","latitude":"62.224720","longitude":"40.253891","country":"RU"},{"id":"496012","name":"Shakhunya","latitude":"57.675789","longitude":"46.611359","country":"RU"},{"id":"496015","name":"Shakhty","latitude":"47.709110","longitude":"40.214432","country":"RU"},{"id":"496023","name":"Shakhta","latitude":"59.092659","longitude":"57.652981","country":"RU"},{"id":"496035","name":"Shakhovskaya","latitude":"56.028332","longitude":"35.509720","country":"RU"},{"id":"496097","name":"Shafranovo","latitude":"53.966671","longitude":"54.766670","country":"RU"},{"id":"496159","name":"Shablykino","latitude":"52.856609","longitude":"35.196369","country":"RU"},{"id":"496204","name":"Shaami-Yurt","latitude":"43.229439","longitude":"45.393059","country":"RU"},{"id":"496246","name":"Sevsk","latitude":"52.149101","longitude":"34.492599","country":"RU"},{"id":"496267","name":"Severskaya","latitude":"44.854069","longitude":"38.676861","country":"RU"},{"id":"496269","name":"Severo-Zadonsk","latitude":"54.034809","longitude":"38.401718","country":"RU"},{"id":"496275","name":"Severouralsk","latitude":"60.153278","longitude":"59.952049","country":"RU"},{"id":"496278","name":"Severomorsk","latitude":"69.068893","longitude":"33.416222","country":"RU"},{"id":"496285","name":"Severodvinsk","latitude":"64.563499","longitude":"39.830200","country":"RU"},{"id":"496290","name":"Tretiy Severnyy","latitude":"60.208611","longitude":"59.961109","country":"RU"},{"id":"496307","name":"Severnyy-Kospashskiy","latitude":"59.092541","longitude":"57.800800","country":"RU"},{"id":"496346","name":"Severnyy","latitude":"56.733330","longitude":"37.650002","country":"RU"},{"id":"496358","name":"Severnyy","latitude":"50.677040","longitude":"36.553242","country":"RU"},{"id":"496381","name":"Severnoye","latitude":"54.093472","longitude":"52.543930","country":"RU"},{"id":"496385","name":"Severnoye","latitude":"44.831944","longitude":"42.858334","country":"RU"},{"id":"496478","name":"Sestroretsk","latitude":"60.098019","longitude":"29.963779","country":"RU"},{"id":"496503","name":"Seshcha","latitude":"53.736099","longitude":"33.338699","country":"RU"},{"id":"496505","name":"Serzhen-Yurt","latitude":"43.122650","longitude":"45.985828","country":"RU"},{"id":"496519","name":"Sertolovo","latitude":"60.144402","longitude":"30.201651","country":"RU"},{"id":"496527","name":"Serpukhov","latitude":"54.921391","longitude":"37.410831","country":"RU"},{"id":"496561","name":"Sernur","latitude":"56.933331","longitude":"49.153610","country":"RU"},{"id":"496564","name":"Sernovodsk","latitude":"43.311722","longitude":"45.159389","country":"RU"},{"id":"496568","name":"Sernovodsk","latitude":"53.922932","longitude":"51.257038","country":"RU"},{"id":"496610","name":"Sergokala","latitude":"42.454681","longitude":"47.661201","country":"RU"},{"id":"496638","name":"Sergiyev Posad","latitude":"56.299999","longitude":"38.133331","country":"RU"},{"id":"496802","name":"Sergach","latitude":"55.530788","longitude":"45.466110","country":"RU"},{"id":"496859","name":"Seredka","latitude":"58.158379","longitude":"28.185760","country":"RU"},{"id":"496869","name":"Seredeyskiy","latitude":"54.050709","longitude":"35.231831","country":"RU"},{"id":"496879","name":"Serebryanyye Prudy","latitude":"54.469231","longitude":"38.720951","country":"RU"},{"id":"496934","name":"Serdobsk","latitude":"52.458611","longitude":"44.216888","country":"RU"},{"id":"496954","name":"Serafimovskiy","latitude":"54.424080","longitude":"53.796398","country":"RU"},{"id":"496957","name":"Serafimovich","latitude":"49.578602","longitude":"42.736000","country":"RU"},{"id":"497019","name":"Sennoy","latitude":"52.150902","longitude":"46.963089","country":"RU"},{"id":"497094","name":"Sengiley","latitude":"53.962219","longitude":"48.794441","country":"RU"},{"id":"497165","name":"Semkhoz","latitude":"56.283333","longitude":"38.066666","country":"RU"},{"id":"497206","name":"Semiluki","latitude":"51.685261","longitude":"39.027870","country":"RU"},{"id":"497211","name":"Semiletka","latitude":"55.360279","longitude":"54.615280","country":"RU"},{"id":"497218","name":"Semikarakorsk","latitude":"47.519428","longitude":"40.811199","country":"RU"},{"id":"497242","name":"Semibratovo","latitude":"57.304611","longitude":"39.536880","country":"RU"},{"id":"497450","name":"Semenov","latitude":"56.787491","longitude":"44.492970","country":"RU"},{"id":"497534","name":"Selyatino","latitude":"55.515141","longitude":"36.977459","country":"RU"},{"id":"497547","name":"Selty","latitude":"57.313202","longitude":"52.134499","country":"RU"},{"id":"497610","name":"Seltso","latitude":"53.367500","longitude":"34.099998","country":"RU"},{"id":"497661","name":"Selizharovo","latitude":"56.851879","longitude":"33.448689","country":"RU"},{"id":"497826","name":"Selezni","latitude":"52.804150","longitude":"41.239609","country":"RU"},{"id":"497927","name":"Segezha","latitude":"63.741470","longitude":"34.322182","country":"RU"},{"id":"497971","name":"Sedkyrkeshch","latitude":"61.750000","longitude":"50.916672","country":"RU"},{"id":"497984","name":"Sechenovo","latitude":"55.224442","longitude":"45.890560","country":"RU"},{"id":"497995","name":"Sebrovo","latitude":"50.098099","longitude":"43.297600","country":"RU"},{"id":"498001","name":"Sebezh","latitude":"56.295460","longitude":"28.465380","country":"RU"},{"id":"498035","name":"Sazonovo","latitude":"59.091900","longitude":"35.226799","country":"RU"},{"id":"498264","name":"Savino","latitude":"56.592850","longitude":"41.218140","country":"RU"},{"id":"498295","name":"Savinka","latitude":"50.078480","longitude":"47.099361","country":"RU"},{"id":"498366","name":"Savasleyka","latitude":"55.460602","longitude":"42.320702","country":"RU"},{"id":"498418","name":"Satka","latitude":"55.042500","longitude":"59.040001","country":"RU"},{"id":"498421","name":"Satis","latitude":"54.922901","longitude":"43.229771","country":"RU"},{"id":"498430","name":"Satinka","latitude":"52.379230","longitude":"41.681919","country":"RU"},{"id":"498437","name":"Sasykoli","latitude":"47.551529","longitude":"46.996792","country":"RU"},{"id":"498462","name":"Sary-Tyuz","latitude":"43.901390","longitude":"41.899723","country":"RU"},{"id":"498501","name":"Sars","latitude":"56.550171","longitude":"57.136581","country":"RU"},{"id":"498525","name":"Sarov","latitude":"54.935829","longitude":"43.323521","country":"RU"},{"id":"498537","name":"Sarmanovo","latitude":"55.255280","longitude":"52.589069","country":"RU"},{"id":"498538","name":"Sarmakovo","latitude":"43.745560","longitude":"43.200279","country":"RU"},{"id":"498672","name":"Saratovskaya","latitude":"44.710278","longitude":"39.224445","country":"RU"},{"id":"498677","name":"Saratov","latitude":"51.566666","longitude":"46.033333","country":"RU"},{"id":"498687","name":"Sarapul","latitude":"56.476330","longitude":"53.797821","country":"RU"},{"id":"498698","name":"Saransk","latitude":"54.183800","longitude":"45.174900","country":"RU"},{"id":"498703","name":"Sarana","latitude":"56.477280","longitude":"57.725861","country":"RU"},{"id":"498708","name":"Saraktash","latitude":"51.786621","longitude":"51.786621","country":"RU"},{"id":"498711","name":"Sarai","latitude":"53.745770","longitude":"41.021259","country":"RU"},{"id":"498760","name":"Sapozhok","latitude":"53.941940","longitude":"40.680561","country":"RU"},{"id":"498785","name":"Sapernoye","latitude":"60.716728","longitude":"29.950460","country":"RU"},{"id":"498817","name":"Saint Petersburg","latitude":"59.894444","longitude":"30.264168","country":"RU"},{"id":"498856","name":"Sandovo","latitude":"58.460220","longitude":"36.412769","country":"RU"},{"id":"498866","name":"Sandata","latitude":"46.270809","longitude":"41.758339","country":"RU"},{"id":"498877","name":"Sanchursk","latitude":"56.941250","longitude":"47.249870","country":"RU"},{"id":"498904","name":"Samur","latitude":"41.825272","longitude":"48.485970","country":"RU"},{"id":"498956","name":"Samoylovka","latitude":"51.183998","longitude":"43.708099","country":"RU"},{"id":"499025","name":"Samoded","latitude":"63.608299","longitude":"40.511101","country":"RU"},{"id":"499040","name":"Sambek","latitude":"47.743061","longitude":"39.830830","country":"RU"},{"id":"499051","name":"Samashki","latitude":"43.290562","longitude":"45.301392","country":"RU"},{"id":"499055","name":"Samarskoye","latitude":"46.933613","longitude":"39.681389","country":"RU"},{"id":"499099","name":"Samara","latitude":"53.200001","longitude":"50.150002","country":"RU"},{"id":"499133","name":"Saltykovka","latitude":"55.766788","longitude":"37.935329","country":"RU"},{"id":"499161","name":"Salsk","latitude":"46.472500","longitude":"41.542778","country":"RU"},{"id":"499228","name":"Salmi","latitude":"61.369709","longitude":"31.851851","country":"RU"},{"id":"499292","name":"Salavat","latitude":"53.383652","longitude":"55.907730","country":"RU"},{"id":"499342","name":"Sakmara","latitude":"51.984379","longitude":"55.333801","country":"RU"},{"id":"499363","name":"Sakharovo","latitude":"56.899490","longitude":"36.050152","country":"RU"},{"id":"499404","name":"Sagopshi","latitude":"43.481392","longitude":"44.587502","country":"RU"},{"id":"499439","name":"Safonovo","latitude":"69.060432","longitude":"33.295231","country":"RU"},{"id":"499452","name":"Safonovo","latitude":"55.150002","longitude":"33.216671","country":"RU"},{"id":"499528","name":"Sadovoye","latitude":"51.531109","longitude":"40.501942","country":"RU"},{"id":"499535","name":"Sadovoye","latitude":"47.776390","longitude":"44.508888","country":"RU"},{"id":"499649","name":"Sabnova","latitude":"42.076172","longitude":"48.247959","country":"RU"},{"id":"499717","name":"Rzhev","latitude":"56.262409","longitude":"34.328171","country":"RU"},{"id":"499727","name":"Rzhavki","latitude":"56.000000","longitude":"37.250000","country":"RU"},{"id":"499778","name":"Rzhanitsa","latitude":"53.428440","longitude":"33.922970","country":"RU"},{"id":"499782","name":"Rzhaksa","latitude":"52.133839","longitude":"42.026402","country":"RU"},{"id":"499811","name":"Ryzdvyanyy","latitude":"45.265598","longitude":"41.838902","country":"RU"},{"id":"499975","name":"Rybnoye","latitude":"54.725555","longitude":"39.511944","country":"RU"},{"id":"499987","name":"Rybnaya Sloboda","latitude":"55.461288","longitude":"50.140900","country":"RU"},{"id":"500004","name":"Rybinsk","latitude":"58.044601","longitude":"38.842590","country":"RU"},{"id":"500047","name":"Ryazhsk","latitude":"53.703800","longitude":"40.110901","country":"RU"},{"id":"500060","name":"Ryazanskaya","latitude":"44.955280","longitude":"39.588940","country":"RU"},{"id":"500096","name":"Ryazan","latitude":"54.619720","longitude":"39.740002","country":"RU"},{"id":"500184","name":"Ryabovo","latitude":"59.400002","longitude":"31.133329","country":"RU"},{"id":"500299","name":"Ruzayevka","latitude":"54.063869","longitude":"44.950901","country":"RU"},{"id":"500303","name":"Ruza","latitude":"55.698978","longitude":"36.195221","country":"RU"},{"id":"500316","name":"Rutul","latitude":"41.535660","longitude":"47.423908","country":"RU"},{"id":"500350","name":"Russko-Vysotskoye","latitude":"59.699631","longitude":"29.944040","country":"RU"},{"id":"500400","name":"Russkiy Kameshkir","latitude":"52.858891","longitude":"46.089169","country":"RU"},{"id":"500502","name":"Ruskeala","latitude":"61.933331","longitude":"30.583330","country":"RU"},{"id":"500589","name":"Rumyantsevo","latitude":"55.972778","longitude":"36.534168","country":"RU"},{"id":"500667","name":"Rudnya","latitude":"54.946980","longitude":"31.093399","country":"RU"},{"id":"500678","name":"Rudnya","latitude":"50.798981","longitude":"44.558559","country":"RU"},{"id":"500695","name":"Rudnichnyy","latitude":"59.617020","longitude":"52.470329","country":"RU"},{"id":"500843","name":"Rublevo","latitude":"55.785557","longitude":"37.355831","country":"RU"},{"id":"500886","name":"Rtishchevo","latitude":"52.260410","longitude":"43.787449","country":"RU"},{"id":"500996","name":"Rozhdestveno","latitude":"59.318119","longitude":"29.945940","country":"RU"},{"id":"501012","name":"Rozhdestveno","latitude":"55.854439","longitude":"37.049351","country":"RU"},{"id":"501027","name":"Rozhdestveno","latitude":"53.237450","longitude":"50.059711","country":"RU"},{"id":"501091","name":"Rovnoye","latitude":"50.776501","longitude":"46.050861","country":"RU"},{"id":"501175","name":"Rostov-na-Donu","latitude":"47.236389","longitude":"39.713890","country":"RU"},{"id":"501183","name":"Rostov","latitude":"57.191399","longitude":"39.413940","country":"RU"},{"id":"501215","name":"Rossosh","latitude":"51.120899","longitude":"38.511600","country":"RU"},{"id":"501231","name":"Rossosh","latitude":"50.198280","longitude":"39.567261","country":"RU"},{"id":"501265","name":"Roslyakovo","latitude":"69.043030","longitude":"33.199059","country":"RU"},{"id":"501283","name":"Roslavl","latitude":"53.952782","longitude":"32.863892","country":"RU"},{"id":"501287","name":"Roshni-Chu","latitude":"43.089539","longitude":"45.454350","country":"RU"},{"id":"501296","name":"Roshchino","latitude":"60.251911","longitude":"29.608500","country":"RU"},{"id":"501320","name":"Roshal","latitude":"55.668530","longitude":"39.874882","country":"RU"},{"id":"501349","name":"Romodanovo","latitude":"54.427528","longitude":"45.329620","country":"RU"},{"id":"501405","name":"Romanovskaya","latitude":"47.542599","longitude":"42.028500","country":"RU"},{"id":"501440","name":"Romanovka","latitude":"60.044300","longitude":"30.714001","country":"RU"},{"id":"501468","name":"Romanovka","latitude":"51.744270","longitude":"42.752701","country":"RU"},{"id":"501579","name":"Rogovskaya","latitude":"45.731171","longitude":"38.739601","country":"RU"},{"id":"501616","name":"Rogovatoye","latitude":"51.230000","longitude":"38.381802","country":"RU"},{"id":"501625","name":"Rognedino","latitude":"53.801472","longitude":"33.557598","country":"RU"},{"id":"501716","name":"Rodnikovskaya","latitude":"44.764439","longitude":"40.665562","country":"RU"},{"id":"501730","name":"Rodniki","latitude":"57.105129","longitude":"41.730480","country":"RU"},{"id":"501732","name":"Rodniki","latitude":"55.652039","longitude":"38.066849","country":"RU"},{"id":"501774","name":"Rodionovo-Nesvetayskaya","latitude":"47.610329","longitude":"39.712120","country":"RU"},{"id":"501775","name":"Rodionovo-Nesvetaiskoye","latitude":"47.599998","longitude":"39.700001","country":"RU"},{"id":"501978","name":"Revyakino","latitude":"54.366940","longitude":"37.658890","country":"RU"},{"id":"502010","name":"Revda","latitude":"67.937103","longitude":"34.561489","country":"RU"},{"id":"502011","name":"Revda","latitude":"56.800968","longitude":"59.930279","country":"RU"},{"id":"502018","name":"Reutov","latitude":"55.759445","longitude":"37.861668","country":"RU"},{"id":"502069","name":"Reshetnikovo","latitude":"56.450001","longitude":"36.566666","country":"RU"},{"id":"502078","name":"Reshetikha","latitude":"56.218891","longitude":"43.293610","country":"RU"},{"id":"502124","name":"Repnoye","latitude":"51.592098","longitude":"43.186100","country":"RU"},{"id":"502145","name":"Repino","latitude":"60.172169","longitude":"29.869080","country":"RU"},{"id":"502185","name":"Remontnoye","latitude":"46.561401","longitude":"43.650101","country":"RU"},{"id":"502265","name":"Redkino","latitude":"56.647541","longitude":"36.296741","country":"RU"},{"id":"502345","name":"Rechitsy","latitude":"55.597778","longitude":"38.463890","country":"RU"},{"id":"502400","name":"Razumnoye","latitude":"50.534389","longitude":"36.684620","country":"RU"},{"id":"502540","name":"Rayevskiy","latitude":"54.065800","longitude":"54.946800","country":"RU"},{"id":"502542","name":"Rayevskaya","latitude":"44.831944","longitude":"37.555557","country":"RU"},{"id":"502738","name":"Rassvet","latitude":"46.833328","longitude":"40.750000","country":"RU"},{"id":"502793","name":"Rasskazovo","latitude":"52.671391","longitude":"41.903332","country":"RU"},{"id":"502797","name":"Rasshevatskaya","latitude":"45.574799","longitude":"41.034962","country":"RU"},{"id":"502895","name":"Ramon","latitude":"51.915699","longitude":"39.336090","country":"RU"},{"id":"502903","name":"Rameshki","latitude":"57.343899","longitude":"36.045349","country":"RU"},{"id":"503067","name":"Rakitnoye","latitude":"50.838902","longitude":"35.851501","country":"RU"},{"id":"503248","name":"Raditsa-Krylovka","latitude":"53.317120","longitude":"34.357422","country":"RU"},{"id":"503254","name":"Radishchevo","latitude":"52.849998","longitude":"47.883331","country":"RU"},{"id":"503281","name":"Radchenko","latitude":"56.680271","longitude":"36.371780","country":"RU"},{"id":"503374","name":"Pytalovo","latitude":"57.067902","longitude":"27.913839","country":"RU"},{"id":"503401","name":"Pyshchug","latitude":"58.887260","longitude":"45.713409","country":"RU"},{"id":"503428","name":"Pyra","latitude":"56.295269","longitude":"43.352741","country":"RU"},{"id":"503453","name":"Pychas","latitude":"56.503319","longitude":"52.440880","country":"RU"},{"id":"503479","name":"Pyatovskiy","latitude":"54.689079","longitude":"36.056339","country":"RU"},{"id":"503499","name":"Pyatnitskoye","latitude":"50.423302","longitude":"37.827301","country":"RU"},{"id":"503548","name":"Pyatigorskiy","latitude":"43.974171","longitude":"43.258331","country":"RU"},{"id":"503550","name":"Pyatigorsk","latitude":"44.048611","longitude":"43.059444","country":"RU"},{"id":"503581","name":"Pyaozerskiy","latitude":"65.833336","longitude":"31.166668","country":"RU"},{"id":"503682","name":"Putyatino","latitude":"54.159981","longitude":"41.116901","country":"RU"},{"id":"503878","name":"Pustoshka","latitude":"56.335468","longitude":"29.369011","country":"RU"},{"id":"503965","name":"Pushkinskiye Gory","latitude":"57.020851","longitude":"28.910299","country":"RU"},{"id":"503977","name":"Pushkino","latitude":"56.017223","longitude":"37.866669","country":"RU"},{"id":"504000","name":"Pushkino","latitude":"51.233334","longitude":"46.983334","country":"RU"},{"id":"504003","name":"Pushkin","latitude":"59.687328","longitude":"30.340460","country":"RU"},{"id":"504042","name":"Pushchino","latitude":"54.833889","longitude":"37.626389","country":"RU"},{"id":"504187","name":"Puksoozero","latitude":"62.590302","longitude":"40.606602","country":"RU"},{"id":"504269","name":"Pudozh","latitude":"61.809879","longitude":"36.534538","country":"RU"},{"id":"504280","name":"Pudem","latitude":"58.304401","longitude":"52.167542","country":"RU"},{"id":"504294","name":"Puchezh","latitude":"56.978779","longitude":"43.167622","country":"RU"},{"id":"504317","name":"Psyzh","latitude":"44.233059","longitude":"42.018330","country":"RU"},{"id":"504327","name":"Psygansu","latitude":"43.419441","longitude":"43.793610","country":"RU"},{"id":"504341","name":"Pskov","latitude":"57.813599","longitude":"28.349600","country":"RU"},{"id":"504371","name":"Pshekhskaya","latitude":"44.695969","longitude":"39.796650","country":"RU"},{"id":"504376","name":"Pshada","latitude":"44.468887","longitude":"38.398056","country":"RU"},{"id":"504388","name":"Psedakh","latitude":"43.467220","longitude":"44.569172","country":"RU"},{"id":"504391","name":"Psebay","latitude":"44.123402","longitude":"40.810699","country":"RU"},{"id":"504409","name":"Pryazha","latitude":"61.692581","longitude":"33.621590","country":"RU"},{"id":"504416","name":"Pryamitsyno","latitude":"51.656101","longitude":"35.931400","country":"RU"},{"id":"504459","name":"Prudy","latitude":"57.573799","longitude":"46.271759","country":"RU"},{"id":"504576","name":"Protvino","latitude":"54.866390","longitude":"37.217781","country":"RU"},{"id":"504717","name":"Pronsk","latitude":"54.104801","longitude":"39.609200","country":"RU"},{"id":"504798","name":"Proletarskiy","latitude":"55.022190","longitude":"37.390190","country":"RU"},{"id":"504806","name":"Proletarskiy","latitude":"50.791389","longitude":"35.773060","country":"RU"},{"id":"504831","name":"Proletarsk","latitude":"46.703056","longitude":"41.719166","country":"RU"},{"id":"504840","name":"Proletariy","latitude":"58.434231","longitude":"31.704620","country":"RU"},{"id":"504875","name":"Kipen","latitude":"59.676491","longitude":"29.853109","country":"RU"},{"id":"504915","name":"Prokhorovka","latitude":"51.037411","longitude":"36.732521","country":"RU"},{"id":"504935","name":"Prokhladnyy","latitude":"43.757408","longitude":"44.029701","country":"RU"},{"id":"504994","name":"Prochnookopskaya","latitude":"45.066601","longitude":"41.117500","country":"RU"},{"id":"505014","name":"Priyutovo","latitude":"53.900002","longitude":"53.933331","country":"RU"},{"id":"505019","name":"Priyutnoye","latitude":"46.101109","longitude":"43.507221","country":"RU"},{"id":"505057","name":"Privolzhskiy","latitude":"51.400002","longitude":"46.033333","country":"RU"},{"id":"505060","name":"Privolzhsk","latitude":"57.380833","longitude":"41.288612","country":"RU"},{"id":"505112","name":"Privodino","latitude":"61.078056","longitude":"46.504444","country":"RU"},{"id":"505129","name":"Priupskiy","latitude":"53.909599","longitude":"37.736000","country":"RU"},{"id":"505154","name":"Pristen","latitude":"51.235512","longitude":"36.695938","country":"RU"},{"id":"505230","name":"Priozersk","latitude":"61.039280","longitude":"30.129070","country":"RU"},{"id":"505256","name":"Primorka","latitude":"47.283611","longitude":"39.062500","country":"RU"},{"id":"505259","name":"Primorsko-Akhtarsk","latitude":"46.049702","longitude":"38.174702","country":"RU"},{"id":"505269","name":"Primorsk","latitude":"60.365929","longitude":"28.607370","country":"RU"},{"id":"505270","name":"Primorsk","latitude":"54.739052","longitude":"20.005529","country":"RU"},{"id":"505271","name":"Primorsk","latitude":"49.265320","longitude":"45.028889","country":"RU"},{"id":"505279","name":"Primalkinskoye","latitude":"43.746670","longitude":"44.008331","country":"RU"},{"id":"505345","name":"Prikubanskiy","latitude":"45.001499","longitude":"41.179501","country":"RU"},{"id":"505376","name":"Prigorodnyy","latitude":"51.766079","longitude":"55.266479","country":"RU"},{"id":"505386","name":"Prigorodnoye","latitude":"43.253040","longitude":"45.758080","country":"RU"},{"id":"505395","name":"Prigorodka","latitude":"52.044720","longitude":"39.712379","country":"RU"},{"id":"505421","name":"Pridonskoy","latitude":"51.684059","longitude":"39.072701","country":"RU"},{"id":"505538","name":"Pregradnoye","latitude":"45.821831","longitude":"41.746922","country":"RU"},{"id":"505539","name":"Pregradnaya","latitude":"43.950832","longitude":"41.199444","country":"RU"},{"id":"505558","name":"Prechistoye","latitude":"58.420681","longitude":"40.340172","country":"RU"},{"id":"505581","name":"Pravokumskoye","latitude":"44.769440","longitude":"44.647221","country":"RU"},{"id":"505597","name":"Pravdinskiy","latitude":"56.066666","longitude":"37.849998","country":"RU"},{"id":"505599","name":"Pravdinsk","latitude":"54.442890","longitude":"21.017851","country":"RU"},{"id":"505641","name":"Praskoveya","latitude":"44.744438","longitude":"44.203060","country":"RU"},{"id":"505665","name":"Pozhva","latitude":"59.091190","longitude":"56.084671","country":"RU"},{"id":"505795","name":"Poyakonda","latitude":"66.594276","longitude":"32.820881","country":"RU"},{"id":"505806","name":"Povorino","latitude":"51.194500","longitude":"42.245701","country":"RU"},{"id":"505820","name":"Povenets","latitude":"62.848701","longitude":"34.826210","country":"RU"},{"id":"505824","name":"Povarovo","latitude":"56.066666","longitude":"37.049999","country":"RU"},{"id":"506029","name":"Poshekhonye","latitude":"58.499279","longitude":"39.135311","country":"RU"},{"id":"506123","name":"Poselki","latitude":"53.132359","longitude":"46.503071","country":"RU"},{"id":"506188","name":"Port-Katon","latitude":"46.879002","longitude":"38.756001","country":"RU"},{"id":"506232","name":"Porosozero","latitude":"62.719120","longitude":"32.727032","country":"RU"},{"id":"506278","name":"Porkhov","latitude":"57.765018","longitude":"29.556120","country":"RU"},{"id":"506286","name":"Poretskoye","latitude":"55.197418","longitude":"46.329079","country":"RU"},{"id":"506291","name":"Porechye-Rybnoye","latitude":"57.098049","longitude":"39.383541","country":"RU"},{"id":"506320","name":"Poputnaya","latitude":"44.512501","longitude":"41.439201","country":"RU"},{"id":"506596","name":"Ponyri Vtoryye","latitude":"52.279942","longitude":"36.224609","country":"RU"},{"id":"506612","name":"Pontonnyy","latitude":"59.786671","longitude":"30.615280","country":"RU"},{"id":"506680","name":"Ponezhukay","latitude":"44.887611","longitude":"39.385509","country":"RU"},{"id":"506696","name":"Ponazyrevo","latitude":"58.357841","longitude":"46.314209","country":"RU"},{"id":"506762","name":"Polyarnyye Zori","latitude":"67.366112","longitude":"32.498058","country":"RU"},{"id":"506763","name":"Polyarnyy","latitude":"69.198891","longitude":"33.447781","country":"RU"},{"id":"506782","name":"Polyany","latitude":"54.712223","longitude":"39.823055","country":"RU"},{"id":"507079","name":"Polotnyanyy Zavod","latitude":"54.721390","longitude":"35.966110","country":"RU"},{"id":"507318","name":"Polazna","latitude":"58.294579","longitude":"56.405460","country":"RU"},{"id":"507421","name":"Pokrovskoye","latitude":"52.609680","longitude":"36.871239","country":"RU"},{"id":"507427","name":"Pokrovskoye","latitude":"47.415699","longitude":"38.897060","country":"RU"},{"id":"507464","name":"Pokrovskoye","latitude":"43.288719","longitude":"46.665272","country":"RU"},{"id":"507479","name":"Pokrovo-Prigorodnoye","latitude":"52.684052","longitude":"41.417519","country":"RU"},{"id":"507599","name":"Pokrov","latitude":"55.919998","longitude":"39.176945","country":"RU"},{"id":"507612","name":"Pokoynoye","latitude":"44.809719","longitude":"44.251671","country":"RU"},{"id":"507624","name":"Pokhvistnevo","latitude":"53.652370","longitude":"52.127380","country":"RU"},{"id":"507643","name":"Poim","latitude":"53.026390","longitude":"43.187210","country":"RU"},{"id":"507875","name":"Pogar","latitude":"52.553989","longitude":"33.259071","country":"RU"},{"id":"507899","name":"Podyuga","latitude":"61.095001","longitude":"40.864719","country":"RU"},{"id":"507977","name":"Podstepki","latitude":"53.515099","longitude":"49.135502","country":"RU"},{"id":"508034","name":"Podporozhye","latitude":"60.911240","longitude":"34.170639","country":"RU"},{"id":"508068","name":"Podosinovets","latitude":"60.277580","longitude":"47.065868","country":"RU"},{"id":"508101","name":"Podolsk","latitude":"55.424179","longitude":"37.554722","country":"RU"},{"id":"508237","name":"Podlesnoye","latitude":"51.816101","longitude":"47.008999","country":"RU"},