[{"id":"630736","name":"Ypaejae","latitude":"60.799999","longitude":"23.283331","country":"FI"},{"id":"630752","name":"Ylojarvi","latitude":"61.556320","longitude":"23.596060","country":"FI"},{"id":"630768","name":"Ylivieska","latitude":"64.083328","longitude":"24.549999","country":"FI"},{"id":"630779","name":"Ylitornio","latitude":"66.308929","longitude":"23.677340","country":"FI"},{"id":"630805","name":"Ylistaro","latitude":"62.950001","longitude":"22.516670","country":"FI"},{"id":"630918","name":"Ylikiiminki","latitude":"65.083328","longitude":"26.250000","country":"FI"},{"id":"630952","name":"Yli-Ii","latitude":"65.366669","longitude":"25.833330","country":"FI"},{"id":"630956","name":"Yliharma","latitude":"63.150002","longitude":"22.783331","country":"FI"},{"id":"630998","name":"Ylane","latitude":"60.883331","longitude":"22.416670","country":"FI"},{"id":"631191","name":"Vuolijoki","latitude":"64.183327","longitude":"27.016670","country":"FI"},{"id":"631254","name":"Voera","latitude":"63.136070","longitude":"22.252230","country":"FI"},{"id":"631376","name":"Virrat","latitude":"62.247589","longitude":"23.780041","country":"FI"},{"id":"631448","name":"Vimpeli","latitude":"63.150002","longitude":"23.799999","country":"FI"},{"id":"631459","name":"Vilppula","latitude":"62.021210","longitude":"24.504829","country":"FI"},{"id":"631511","name":"Viljakkala","latitude":"61.700001","longitude":"23.266670","country":"FI"},{"id":"631560","name":"Viitasaari","latitude":"63.066669","longitude":"25.866671","country":"FI"},{"id":"631693","name":"Viiala","latitude":"61.210232","longitude":"23.767380","country":"FI"},{"id":"631707","name":"Vihti","latitude":"60.416988","longitude":"24.319651","country":"FI"},{"id":"631758","name":"Vihanti","latitude":"64.483330","longitude":"25.000000","country":"FI"},{"id":"631778","name":"Vierema","latitude":"63.750000","longitude":"27.016670","country":"FI"},{"id":"631825","name":"Veteli","latitude":"63.478390","longitude":"23.782850","country":"FI"},{"id":"631856","name":"Vesilahti","latitude":"61.316669","longitude":"23.616671","country":"FI"},{"id":"631873","name":"Vesanto","latitude":"62.933331","longitude":"26.416670","country":"FI"},{"id":"632062","name":"Vehmaa","latitude":"60.683331","longitude":"21.666670","country":"FI"},{"id":"632361","name":"Varpaisjarvi","latitude":"63.366669","longitude":"27.750000","country":"FI"},{"id":"632370","name":"Varkaus","latitude":"62.315331","longitude":"27.872999","country":"FI"},{"id":"632453","name":"Vantaa","latitude":"60.294140","longitude":"25.040991","country":"FI"},{"id":"632542","name":"Vammala","latitude":"61.333328","longitude":"22.900000","country":"FI"},{"id":"632552","name":"Valtimo","latitude":"63.666672","longitude":"28.799999","country":"FI"},{"id":"632672","name":"Valkeakoski","latitude":"61.264210","longitude":"24.031219","country":"FI"},{"id":"632860","name":"Vahto","latitude":"60.599998","longitude":"22.299999","country":"FI"},{"id":"632923","name":"Vahakyro","latitude":"63.056351","longitude":"22.105841","country":"FI"},{"id":"632978","name":"Vaasa","latitude":"63.096001","longitude":"21.615770","country":"FI"},{"id":"633096","name":"Vaala","latitude":"64.566673","longitude":"26.833330","country":"FI"},{"id":"633221","name":"Uusikaupunki","latitude":"60.800430","longitude":"21.408409","country":"FI"},{"id":"633242","name":"Uurainen","latitude":"62.500000","longitude":"25.450001","country":"FI"},{"id":"633295","name":"Utajarvi","latitude":"64.750000","longitude":"26.383329","country":"FI"},{"id":"633332","name":"Urjala","latitude":"61.083328","longitude":"23.533331","country":"FI"},{"id":"633395","name":"Ulvila","latitude":"61.428440","longitude":"21.871031","country":"FI"},{"id":"633541","name":"Tyrnava","latitude":"64.764687","longitude":"25.652300","country":"FI"},{"id":"633591","name":"Tuusula","latitude":"60.403679","longitude":"25.026381","country":"FI"},{"id":"633593","name":"Tuusniemi","latitude":"62.816669","longitude":"28.500000","country":"FI"},{"id":"633611","name":"Tuupovaara","latitude":"62.483330","longitude":"30.600000","country":"FI"},{"id":"633679","name":"Turku","latitude":"60.451481","longitude":"22.268690","country":"FI"},{"id":"634008","name":"Toysa","latitude":"62.633331","longitude":"23.816669","country":"FI"},{"id":"634093","name":"Tornio","latitude":"65.848106","longitude":"24.146620","country":"FI"},{"id":"634297","name":"Toivakka","latitude":"62.099998","longitude":"26.083330","country":"FI"},{"id":"634317","name":"Akaa","latitude":"61.166672","longitude":"23.866671","country":"FI"},{"id":"634324","name":"Toholampi","latitude":"63.766670","longitude":"24.250000","country":"FI"},{"id":"634331","name":"Tohmajarvi","latitude":"62.183331","longitude":"30.383329","country":"FI"},{"id":"634561","name":"Teuva","latitude":"62.481899","longitude":"21.741560","country":"FI"},{"id":"634592","name":"Tervola","latitude":"66.083328","longitude":"24.799999","country":"FI"},{"id":"634651","name":"Tervakoski","latitude":"60.799999","longitude":"24.616671","country":"FI"},{"id":"634851","name":"Tarvasjoki","latitude":"60.583328","longitude":"22.733330","country":"FI"},{"id":"634963","name":"Tampere","latitude":"61.499111","longitude":"23.787121","country":"FI"},{"id":"634992","name":"Tammela","latitude":"60.810349","longitude":"23.768230","country":"FI"},{"id":"635141","name":"Taivalkoski","latitude":"65.566673","longitude":"28.250000","country":"FI"},{"id":"635150","name":"Taipalsaari","latitude":"61.150002","longitude":"28.049999","country":"FI"},{"id":"635336","name":"Sysma","latitude":"61.500000","longitude":"25.683331","country":"FI"},{"id":"635692","name":"Suonenjoki","latitude":"62.616669","longitude":"27.133329","country":"FI"},{"id":"635696","name":"Suomussalmi","latitude":"64.886848","longitude":"28.907780","country":"FI"},{"id":"635745","name":"Suolahti","latitude":"62.566669","longitude":"25.866671","country":"FI"},{"id":"635844","name":"Sulkava","latitude":"61.786911","longitude":"28.372990","country":"FI"},{"id":"636173","name":"Sotkamo","latitude":"64.133331","longitude":"28.416670","country":"FI"},{"id":"636301","name":"Sonkajarvi","latitude":"63.666672","longitude":"27.516670","country":"FI"},{"id":"636345","name":"Somero","latitude":"60.616669","longitude":"23.533331","country":"FI"},{"id":"636393","name":"Soini","latitude":"62.866669","longitude":"24.216669","country":"FI"},{"id":"636464","name":"Sodankyla","latitude":"67.416672","longitude":"26.600000","country":"FI"},{"id":"636608","name":"Siuntio","latitude":"60.138618","longitude":"24.227150","country":"FI"},{"id":"636802","name":"Simo","latitude":"65.666672","longitude":"25.049999","country":"FI"},{"id":"636803","name":"Simo","latitude":"65.666672","longitude":"24.066669","country":"FI"},{"id":"636947","name":"Siilinjarvi","latitude":"63.083328","longitude":"27.666670","country":"FI"},{"id":"637020","name":"Siikainen","latitude":"61.877029","longitude":"21.819450","country":"FI"},{"id":"637035","name":"Sievi","latitude":"63.900002","longitude":"24.500000","country":"FI"},{"id":"637067","name":"Sibbo","latitude":"60.377522","longitude":"25.269060","country":"FI"},{"id":"637219","name":"Seinaejoki","latitude":"62.799999","longitude":"22.833330","country":"FI"},{"id":"637247","name":"Saeynaetsalo","latitude":"62.133331","longitude":"25.766670","country":"FI"},{"id":"637292","name":"Savonlinna","latitude":"61.869900","longitude":"28.879990","country":"FI"},{"id":"637312","name":"Savitaipale","latitude":"61.200001","longitude":"27.700001","country":"FI"},{"id":"637400","name":"Sauvo","latitude":"60.343060","longitude":"22.696421","country":"FI"},{"id":"637948","name":"Salo","latitude":"60.383331","longitude":"23.133329","country":"FI"},{"id":"638074","name":"Salla","latitude":"66.833328","longitude":"28.666670","country":"FI"},{"id":"638104","name":"Sakyla","latitude":"61.033329","longitude":"22.333330","country":"FI"},{"id":"638210","name":"Sahalahti","latitude":"61.466671","longitude":"24.316669","country":"FI"},{"id":"638321","name":"Saarijarvi","latitude":"62.716671","longitude":"25.266670","country":"FI"},{"id":"638582","name":"Rymattyla","latitude":"60.376579","longitude":"21.941839","country":"FI"},{"id":"638622","name":"Ruukki","latitude":"64.666672","longitude":"25.100000","country":"FI"},{"id":"638670","name":"Rusko","latitude":"60.533329","longitude":"22.216669","country":"FI"},{"id":"638691","name":"Ruovesi","latitude":"61.985748","longitude":"24.057140","country":"FI"},{"id":"638711","name":"Ruotsinpyhtaeae","latitude":"60.526798","longitude":"26.462030","country":"FI"},{"id":"638803","name":"Ruokolahti","latitude":"61.283329","longitude":"28.833330","country":"FI"},{"id":"638936","name":"Rovaniemi","latitude":"66.500000","longitude":"25.716669","country":"FI"},{"id":"639248","name":"Ristiina","latitude":"61.500000","longitude":"27.266670","country":"FI"},{"id":"639406","name":"Riihimaki","latitude":"60.737690","longitude":"24.777260","country":"FI"},{"id":"639522","name":"Replot","latitude":"63.250000","longitude":"21.416670","country":"FI"},{"id":"639534","name":"Renko","latitude":"60.895630","longitude":"24.287849","country":"FI"},{"id":"639576","name":"Reisjarvi","latitude":"63.616669","longitude":"24.900000","country":"FI"},{"id":"639666","name":"Rautjarvi","latitude":"61.433331","longitude":"29.350000","country":"FI"},{"id":"639700","name":"Rautavaara","latitude":"63.483330","longitude":"28.299999","country":"FI"},{"id":"639709","name":"Rautalampi","latitude":"62.633331","longitude":"26.833330","country":"FI"},{"id":"639734","name":"Rauma","latitude":"61.127239","longitude":"21.511271","country":"FI"},{"id":"639888","name":"Ranua","latitude":"65.916672","longitude":"26.533331","country":"FI"},{"id":"639895","name":"Rantsila","latitude":"64.516670","longitude":"25.650000","country":"FI"},{"id":"639906","name":"Rantasalmi","latitude":"62.066669","longitude":"28.299999","country":"FI"},{"id":"640124","name":"Raisio","latitude":"60.485920","longitude":"22.168949","country":"FI"},{"id":"640271","name":"Raakkyla","latitude":"62.316669","longitude":"29.616671","country":"FI"},{"id":"640276","name":"Raahe","latitude":"64.683327","longitude":"24.483330","country":"FI"},{"id":"640384","name":"Pyhtaa","latitude":"60.493488","longitude":"26.543461","country":"FI"},{"id":"640398","name":"Pyhaselka","latitude":"62.433331","longitude":"29.966669","country":"FI"},{"id":"640405","name":"Pyharanta","latitude":"60.950001","longitude":"21.450001","country":"FI"},{"id":"640437","name":"Pyhajoki","latitude":"64.466667","longitude":"24.233330","country":"FI"},{"id":"640440","name":"Pyhajarvi","latitude":"67.071388","longitude":"27.215561","country":"FI"},{"id":"640441","name":"Pyhaejaervi","latitude":"63.666672","longitude":"25.900000","country":"FI"},{"id":"640504","name":"Puumala","latitude":"61.527279","longitude":"28.174950","country":"FI"},{"id":"640658","name":"Puolanka","latitude":"64.866669","longitude":"27.666670","country":"FI"},{"id":"640689","name":"Punkalaidun","latitude":"61.116669","longitude":"23.100000","country":"FI"},{"id":"640693","name":"Punkaharju","latitude":"61.758831","longitude":"29.388430","country":"FI"},{"id":"640749","name":"Pukkila","latitude":"60.650002","longitude":"25.566669","country":"FI"},{"id":"640803","name":"Pudasjarvi","latitude":"65.383331","longitude":"26.916670","country":"FI"},{"id":"640828","name":"Poytya","latitude":"60.766670","longitude":"22.666670","country":"FI"},{"id":"640893","name":"Posio","latitude":"66.108559","longitude":"28.171860","country":"FI"},{"id":"640973","name":"Pornainen","latitude":"60.475811","longitude":"25.374901","country":"FI"},{"id":"640999","name":"Pori","latitude":"61.483330","longitude":"21.783331","country":"FI"},{"id":"641044","name":"Pomarkku","latitude":"61.693481","longitude":"22.008619","country":"FI"},{"id":"641055","name":"Polvijaervi","latitude":"62.849998","longitude":"29.366671","country":"FI"},{"id":"641124","name":"Pohja","latitude":"60.096260","longitude":"23.527571","country":"FI"},{"id":"641489","name":"Pirkkala","latitude":"61.461250","longitude":"23.632280","country":"FI"},{"id":"641651","name":"Piikkio","latitude":"60.424809","longitude":"22.516010","country":"FI"},{"id":"641660","name":"Pihtipudas","latitude":"63.383331","longitude":"25.566669","country":"FI"},{"id":"641861","name":"Pielavesi","latitude":"63.233330","longitude":"26.750000","country":"FI"},{"id":"641869","name":"Pieksamaki","latitude":"62.299999","longitude":"27.133329","country":"FI"},{"id":"641974","name":"Petajavesi","latitude":"62.250000","longitude":"25.200001","country":"FI"},{"id":"642077","name":"Pertunmaa","latitude":"61.500000","longitude":"26.483330","country":"FI"},{"id":"642093","name":"Pertteli","latitude":"60.433331","longitude":"23.266670","country":"FI"},{"id":"642113","name":"Pernio","latitude":"60.200001","longitude":"23.133329","country":"FI"},{"id":"642118","name":"Perna","latitude":"60.448689","longitude":"26.031870","country":"FI"},{"id":"642139","name":"Perho","latitude":"63.216671","longitude":"24.416670","country":"FI"},{"id":"642367","name":"Pello","latitude":"66.783333","longitude":"23.916670","country":"FI"},{"id":"642455","name":"Pedersoere","latitude":"63.650002","longitude":"22.683331","country":"FI"},{"id":"642657","name":"Parkano","latitude":"62.016670","longitude":"23.016670","country":"FI"},{"id":"642666","name":"Parikkala","latitude":"61.549999","longitude":"29.500000","country":"FI"},{"id":"642673","name":"Pargas","latitude":"60.306721","longitude":"22.300970","country":"FI"},{"id":"642750","name":"Paltamo","latitude":"64.416672","longitude":"27.833330","country":"FI"},{"id":"642976","name":"Palkane","latitude":"61.334240","longitude":"24.271971","country":"FI"},{"id":"643153","name":"Paimio","latitude":"60.456711","longitude":"22.686939","country":"FI"},{"id":"643260","name":"Padasjoki","latitude":"61.349998","longitude":"25.283331","country":"FI"},{"id":"643453","name":"Outokumpu","latitude":"62.726849","longitude":"29.015921","country":"FI"},{"id":"643481","name":"Oulunsalo","latitude":"64.934563","longitude":"25.411209","country":"FI"},{"id":"643492","name":"Oulu","latitude":"65.012360","longitude":"25.468161","country":"FI"},{"id":"643497","name":"Oulainen","latitude":"64.266670","longitude":"24.799999","country":"FI"},{"id":"643522","name":"Otaniemi","latitude":"60.183949","longitude":"24.827860","country":"FI"},{"id":"643629","name":"Orivesi","latitude":"61.677662","longitude":"24.357201","country":"FI"},{"id":"643644","name":"Orimattila","latitude":"60.804871","longitude":"25.729639","country":"FI"},{"id":"643681","name":"Oravais","latitude":"63.301350","longitude":"22.378210","country":"FI"},{"id":"644100","name":"Nykarleby","latitude":"63.522770","longitude":"22.530729","country":"FI"},{"id":"644159","name":"Nurmo","latitude":"62.833328","longitude":"22.900000","country":"FI"},{"id":"644171","name":"Nurmijarvi","latitude":"60.464069","longitude":"24.807301","country":"FI"},{"id":"644187","name":"Nurmes","latitude":"63.542049","longitude":"29.139650","country":"FI"},{"id":"644326","name":"Nousiainen","latitude":"60.604160","longitude":"22.079260","country":"FI"},{"id":"644436","name":"Noormarkku","latitude":"61.592739","longitude":"21.868460","country":"FI"},{"id":"644450","name":"Nokia","latitude":"61.466671","longitude":"23.500000","country":"FI"},{"id":"644499","name":"Nivala","latitude":"63.916672","longitude":"24.966669","country":"FI"},{"id":"644632","name":"Nilsia","latitude":"63.200001","longitude":"28.083330","country":"FI"},{"id":"645035","name":"Nastola","latitude":"60.950001","longitude":"25.933331","country":"FI"},{"id":"645148","name":"Nakkila","latitude":"61.366669","longitude":"22.000000","country":"FI"},{"id":"645211","name":"Naantali","latitude":"60.467442","longitude":"22.024281","country":"FI"},{"id":"645233","name":"Myrskylae","latitude":"60.669651","longitude":"25.847500","country":"FI"},{"id":"645243","name":"Mynamaki","latitude":"60.679150","longitude":"21.992741","country":"FI"},{"id":"645385","name":"Muurame","latitude":"62.133331","longitude":"25.666670","country":"FI"},{"id":"645672","name":"Muonio","latitude":"67.949997","longitude":"23.700001","country":"FI"},{"id":"645710","name":"Multia","latitude":"62.416672","longitude":"24.783331","country":"FI"},{"id":"645765","name":"Muhos","latitude":"64.807983","longitude":"25.993139","country":"FI"},{"id":"645800","name":"Mouhijarvi","latitude":"61.500000","longitude":"23.016670","country":"FI"},{"id":"646005","name":"Mikkeli","latitude":"61.688568","longitude":"27.272270","country":"FI"},{"id":"646079","name":"Miehikkala","latitude":"60.666672","longitude":"27.700001","country":"FI"},{"id":"646192","name":"Merikarvia","latitude":"61.858391","longitude":"21.500351","country":"FI"},{"id":"646486","name":"Masku","latitude":"60.570820","longitude":"22.098829","country":"FI"},{"id":"646511","name":"Marttila","latitude":"60.583328","longitude":"22.900000","country":"FI"},{"id":"646699","name":"Mantyharju","latitude":"61.416672","longitude":"26.883329","country":"FI"},{"id":"646705","name":"Maenttae","latitude":"62.030140","longitude":"24.627911","country":"FI"},{"id":"646723","name":"Mantsala","latitude":"60.633331","longitude":"25.316669","country":"FI"},{"id":"646875","name":"Malax","latitude":"62.942249","longitude":"21.573111","country":"FI"},{"id":"647202","name":"Maaninka","latitude":"63.150002","longitude":"27.299999","country":"FI"},{"id":"647260","name":"Luvia","latitude":"61.363750","longitude":"21.625561","country":"FI"},{"id":"647288","name":"Luumaki","latitude":"60.926182","longitude":"27.581350","country":"FI"},{"id":"647383","name":"Luopioinen","latitude":"61.366669","longitude":"24.666670","country":"FI"},{"id":"647571","name":"Lovisa","latitude":"60.456589","longitude":"26.225050","country":"FI"},{"id":"647660","name":"Loppi","latitude":"60.716671","longitude":"24.450001","country":"FI"},{"id":"647741","name":"Lohtaja","latitude":"64.024719","longitude":"23.504820","country":"FI"},{"id":"647751","name":"Lohja","latitude":"60.248589","longitude":"24.065340","country":"FI"},{"id":"647851","name":"Liperi","latitude":"62.533329","longitude":"29.366671","country":"FI"},{"id":"647930","name":"Liminka","latitude":"64.809853","longitude":"25.415449","country":"FI"},{"id":"648056","name":"Lieto","latitude":"60.510319","longitude":"22.461760","country":"FI"},{"id":"648090","name":"Lieksa","latitude":"63.316669","longitude":"30.016670","country":"FI"},{"id":"648227","name":"Leppavirta","latitude":"62.490089","longitude":"27.782619","country":"FI"},{"id":"648366","name":"Lempaala","latitude":"61.316669","longitude":"23.750000","country":"FI"},{"id":"648387","name":"Lemi","latitude":"61.062439","longitude":"27.805710","country":"FI"},{"id":"648554","name":"Lehtimaki","latitude":"62.783329","longitude":"23.916670","country":"FI"},{"id":"648613","name":"Lavia","latitude":"61.599998","longitude":"22.600000","country":"FI"},{"id":"648738","name":"Laukaa","latitude":"62.414070","longitude":"25.951941","country":"FI"},{"id":"648847","name":"Larsmo","latitude":"63.753880","longitude":"22.747280","country":"FI"},{"id":"648855","name":"Lapua","latitude":"62.969269","longitude":"23.008801","country":"FI"},{"id":"648886","name":"Lappi","latitude":"61.099998","longitude":"21.833330","country":"FI"},{"id":"648900","name":"Lappeenranta","latitude":"61.058708","longitude":"28.188709","country":"FI"},{"id":"648919","name":"Lappajarvi","latitude":"63.200001","longitude":"23.633329","country":"FI"},{"id":"648953","name":"Lapinlahti","latitude":"63.366669","longitude":"27.400000","country":"FI"},{"id":"648965","name":"Lapinjarvi","latitude":"60.624432","longitude":"26.197201","country":"FI"},{"id":"649223","name":"Lammi","latitude":"61.083328","longitude":"25.016670","country":"FI"},{"id":"649302","name":"Laitila","latitude":"60.875751","longitude":"21.697651","country":"FI"},{"id":"649348","name":"Laihia","latitude":"62.976089","longitude":"22.011431","country":"FI"},{"id":"649360","name":"Lahti","latitude":"60.982670","longitude":"25.661510","country":"FI"},{"id":"649630","name":"Kirkkonummi","latitude":"60.123810","longitude":"24.438530","country":"FI"},{"id":"649728","name":"Kylmakoski","latitude":"61.153999","longitude":"23.688580","country":"FI"},{"id":"649919","name":"Kuusankoski","latitude":"60.900002","longitude":"26.633329","country":"FI"},{"id":"649924","name":"Kuusamo","latitude":"65.966667","longitude":"29.183331","country":"FI"},{"id":"650014","name":"Kuru","latitude":"61.875580","longitude":"23.719481","country":"FI"},{"id":"650095","name":"Kurikka","latitude":"62.616669","longitude":"22.416670","country":"FI"},{"id":"650166","name":"Kuortane","latitude":"62.799999","longitude":"23.500000","country":"FI"},{"id":"650224","name":"Kuopio","latitude":"62.892380","longitude":"27.677031","country":"FI"},{"id":"650628","name":"Kuivaniemi","latitude":"65.583328","longitude":"25.183331","country":"FI"},{"id":"650703","name":"Kuhmoinen","latitude":"61.566669","longitude":"25.183331","country":"FI"},{"id":"650754","name":"Kronoby","latitude":"63.724560","longitude":"23.021009","country":"FI"},{"id":"650769","name":"Kristinestad","latitude":"62.274288","longitude":"21.375959","country":"FI"},{"id":"650805","name":"Koylio","latitude":"61.119099","longitude":"22.309759","country":"FI"},{"id":"650859","name":"Kouvola","latitude":"60.866669","longitude":"26.700001","country":"FI"},{"id":"650946","name":"Kotka","latitude":"60.466671","longitude":"26.916670","country":"FI"},{"id":"651073","name":"Haemeenkoski","latitude":"61.022221","longitude":"25.154169","country":"FI"},{"id":"651245","name":"Kortesjarvi","latitude":"63.299999","longitude":"23.166670","country":"FI"},{"id":"651294","name":"Korsnas","latitude":"62.783329","longitude":"21.200001","country":"FI"},{"id":"651299","name":"Korsholm","latitude":"63.114182","longitude":"21.682159","country":"FI"},{"id":"651350","name":"Korpilahti","latitude":"62.016670","longitude":"25.549999","country":"FI"},{"id":"651659","name":"Kontiolahti","latitude":"62.760231","longitude":"29.847111","country":"FI"},{"id":"651696","name":"Konnevesi","latitude":"62.616669","longitude":"26.316669","country":"FI"},{"id":"651889","name":"Kolari","latitude":"67.330467","longitude":"23.777849","country":"FI"},{"id":"651943","name":"Karleby","latitude":"63.838470","longitude":"23.130659","country":"FI"},{"id":"651980","name":"Kokemaki","latitude":"61.256470","longitude":"22.356430","country":"FI"},{"id":"652578","name":"Kiukainen","latitude":"61.216671","longitude":"22.083330","country":"FI"},{"id":"652590","name":"Kittila","latitude":"67.666672","longitude":"24.900000","country":"FI"},{"id":"652615","name":"Kitee","latitude":"62.099998","longitude":"30.150000","country":"FI"},{"id":"652629","name":"Kisko","latitude":"60.233330","longitude":"23.483330","country":"FI"},{"id":"652776","name":"Kimito","latitude":"60.160469","longitude":"22.729000","country":"FI"},{"id":"652858","name":"Kiiminki","latitude":"65.131393","longitude":"25.797440","country":"FI"},{"id":"652891","name":"Kiihtelysvaara","latitude":"62.483330","longitude":"30.250000","country":"FI"},{"id":"652896","name":"Kihnioe","latitude":"62.200001","longitude":"23.183331","country":"FI"},{"id":"652977","name":"Keuruu","latitude":"62.266670","longitude":"24.700001","country":"FI"},{"id":"653129","name":"Kesalahti","latitude":"61.900002","longitude":"29.833330","country":"FI"},{"id":"653180","name":"Kerimaki","latitude":"61.916672","longitude":"29.283331","country":"FI"},{"id":"653185","name":"Kerava","latitude":"60.403381","longitude":"25.105000","country":"FI"},{"id":"653252","name":"Kempele","latitude":"64.913139","longitude":"25.503389","country":"FI"},{"id":"653272","name":"Kemijaervi","latitude":"66.666672","longitude":"27.416670","country":"FI"},{"id":"653280","name":"Keminmaa","latitude":"65.801582","longitude":"24.544830","country":"FI"},{"id":"653281","name":"Kemi","latitude":"65.736412","longitude":"24.563709","country":"FI"},{"id":"653387","name":"Keitele","latitude":"63.183331","longitude":"26.366671","country":"FI"},{"id":"653482","name":"Kaustinen","latitude":"63.548779","longitude":"23.688450","country":"FI"},{"id":"653559","name":"Kauniainen","latitude":"60.212090","longitude":"24.727560","country":"FI"},{"id":"653616","name":"Kauhava","latitude":"63.099998","longitude":"23.083330","country":"FI"},{"id":"653627","name":"Kauhajoki","latitude":"62.433331","longitude":"22.183331","country":"FI"},{"id":"653813","name":"Karvia","latitude":"62.133331","longitude":"22.566669","country":"FI"},{"id":"653841","name":"Karttula","latitude":"62.883331","longitude":"26.966669","country":"FI"},{"id":"653852","name":"Karstula","latitude":"62.866669","longitude":"24.783331","country":"FI"},{"id":"653880","name":"Karsamaki","latitude":"63.966671","longitude":"25.766670","country":"FI"},{"id":"653952","name":"Karkola","latitude":"60.616669","longitude":"23.950001","country":"FI"},{"id":"653960","name":"Karkkila","latitude":"60.534180","longitude":"24.209770","country":"FI"},{"id":"654047","name":"Karis","latitude":"60.071781","longitude":"23.661631","country":"FI"},{"id":"654059","name":"Karinainen","latitude":"60.666672","longitude":"22.766670","country":"FI"},{"id":"654137","name":"Karhula","latitude":"60.516670","longitude":"26.950001","country":"FI"},{"id":"654314","name":"Kannus","latitude":"63.900002","longitude":"23.900000","country":"FI"},{"id":"654363","name":"Kankaanpaa","latitude":"61.799999","longitude":"22.416670","country":"FI"},{"id":"654405","name":"Kangasniemi","latitude":"61.993568","longitude":"26.647850","country":"FI"},{"id":"654440","name":"Kangasala","latitude":"61.463829","longitude":"24.076019","country":"FI"},{"id":"654521","name":"Kalvola","latitude":"61.099998","longitude":"24.116671","country":"FI"},{"id":"654533","name":"Kalvia","latitude":"63.860668","longitude":"23.452890","country":"FI"},{"id":"654837","name":"Kalajoki","latitude":"64.250000","longitude":"23.950001","country":"FI"},{"id":"654899","name":"Kajaani","latitude":"64.227280","longitude":"27.728460","country":"FI"},{"id":"655069","name":"Kaavi","latitude":"62.983330","longitude":"28.500000","country":"FI"},{"id":"655130","name":"Kaarina","latitude":"60.407242","longitude":"22.369040","country":"FI"},{"id":"655194","name":"Jyvaeskylae","latitude":"62.233330","longitude":"25.733330","country":"FI"},{"id":"655253","name":"Juva","latitude":"61.900002","longitude":"27.850000","country":"FI"},{"id":"655307","name":"Juupajoki","latitude":"61.799011","longitude":"24.369390","country":"FI"},{"id":"655312","name":"Juuka","latitude":"63.233330","longitude":"29.250000","country":"FI"},{"id":"655363","name":"Jurva","latitude":"62.683331","longitude":"21.983330","country":"FI"},{"id":"655533","name":"Juankoski","latitude":"63.066669","longitude":"28.350000","country":"FI"},{"id":"655563","name":"Joutseno","latitude":"61.117962","longitude":"28.507629","country":"FI"},{"id":"655581","name":"Joutsa","latitude":"61.733330","longitude":"26.116671","country":"FI"},{"id":"655626","name":"Joroinen","latitude":"62.178230","longitude":"27.831650","country":"FI"},{"id":"655692","name":"Jokioinen","latitude":"60.801620","longitude":"23.480040","country":"FI"},{"id":"655808","name":"Joensuu","latitude":"62.601181","longitude":"29.763161","country":"FI"},{"id":"655958","name":"Jarvenpaa","latitude":"60.473690","longitude":"25.089920","country":"FI"},{"id":"656073","name":"Janakkala","latitude":"60.900002","longitude":"24.600000","country":"FI"},{"id":"656076","name":"Jamsankoski","latitude":"61.918999","longitude":"25.170111","country":"FI"},{"id":"656083","name":"Jamsa","latitude":"61.864201","longitude":"25.190020","country":"FI"},{"id":"656090","name":"Jamijarvi","latitude":"61.816669","longitude":"22.700001","country":"FI"},{"id":"656117","name":"Jalasjarvi","latitude":"62.500000","longitude":"22.750000","country":"FI"},{"id":"656130","name":"Jakobstad","latitude":"63.674858","longitude":"22.702560","country":"FI"},{"id":"656220","name":"Ivalo","latitude":"68.659859","longitude":"27.538910","country":"FI"},{"id":"656456","name":"Isokyro","latitude":"63.011719","longitude":"22.333321","country":"FI"},{"id":"656517","name":"Isojoki","latitude":"62.113190","longitude":"21.958839","country":"FI"},{"id":"656652","name":"Inga","latitude":"60.045872","longitude":"24.004589","country":"FI"},{"id":"656657","name":"Inari","latitude":"68.905960","longitude":"27.028811","country":"FI"},{"id":"656688","name":"Imatra","latitude":"61.171848","longitude":"28.752420","country":"FI"},{"id":"656709","name":"Ilomantsi","latitude":"62.671619","longitude":"30.932760","country":"FI"},{"id":"656739","name":"Ilmajoki","latitude":"62.733330","longitude":"22.566669","country":"FI"},{"id":"656789","name":"Ikaalinen","latitude":"61.769508","longitude":"23.065800","country":"FI"},{"id":"656807","name":"Iitti","latitude":"60.894878","longitude":"26.338690","country":"FI"},{"id":"656820","name":"Iisalmi","latitude":"63.559151","longitude":"27.190670","country":"FI"},{"id":"656851","name":"Ii","latitude":"65.317352","longitude":"25.373100","country":"FI"},{"id":"656913","name":"Hyvinkaa","latitude":"60.633331","longitude":"24.866671","country":"FI"},{"id":"656949","name":"Hyrynsalmi","latitude":"64.666672","longitude":"28.533331","country":"FI"},{"id":"657112","name":"Humppila","latitude":"60.933331","longitude":"23.366671","country":"FI"},{"id":"657180","name":"Huittinen","latitude":"61.183331","longitude":"22.700001","country":"FI"},{"id":"657530","name":"Hollola","latitude":"61.049999","longitude":"25.433331","country":"FI"},{"id":"657730","name":"Hirvensalmi","latitude":"61.633331","longitude":"26.799999","country":"FI"},{"id":"657838","name":"Himanka","latitude":"64.066673","longitude":"23.650000","country":"FI"},{"id":"658225","name":"Helsinki","latitude":"60.169521","longitude":"24.935450","country":"FI"},{"id":"658288","name":"Heinola","latitude":"61.216671","longitude":"26.033331","country":"FI"},{"id":"658318","name":"Heinavesi","latitude":"62.433331","longitude":"28.600000","country":"FI"},{"id":"658581","name":"Hausjarvi","latitude":"60.783329","longitude":"24.933331","country":"FI"},{"id":"658617","name":"Haukivuori","latitude":"62.016670","longitude":"27.216669","country":"FI"},{"id":"658629","name":"Haukipudas","latitude":"65.176537","longitude":"25.352329","country":"FI"},{"id":"658670","name":"Hauho","latitude":"61.172550","longitude":"24.563030","country":"FI"},{"id":"658757","name":"Hartola","latitude":"61.583328","longitude":"26.016670","country":"FI"},{"id":"658921","name":"Harjavalta","latitude":"61.316669","longitude":"22.133329","country":"FI"},{"id":"659024","name":"Hankasalmi","latitude":"62.383331","longitude":"26.433331","country":"FI"},{"id":"659101","name":"Hanko","latitude":"59.833328","longitude":"22.950001","country":"FI"},{"id":"659169","name":"Hamina","latitude":"60.569740","longitude":"27.197941","country":"FI"},{"id":"659180","name":"Hameenlinna","latitude":"60.995960","longitude":"24.464340","country":"FI"},{"id":"659184","name":"Hameenkyro","latitude":"61.639130","longitude":"23.195311","country":"FI"},{"id":"659350","name":"Halikko","latitude":"60.400002","longitude":"23.083330","country":"FI"},{"id":"659554","name":"Haapavesi","latitude":"64.133331","longitude":"25.366671","country":"FI"},{"id":"659681","name":"Haapajaervi","latitude":"63.750000","longitude":"25.333330","country":"FI"},{"id":"659935","name":"Forssa","latitude":"60.814621","longitude":"23.621460","country":"FI"},{"id":"660065","name":"Evijarvi","latitude":"63.366669","longitude":"23.483330","country":"FI"},{"id":"660073","name":"Eurajoki","latitude":"61.200001","longitude":"21.733330","country":"FI"},{"id":"660077","name":"Eura","latitude":"61.133331","longitude":"22.133329","country":"FI"},{"id":"660158","name":"Espoo","latitude":"60.205200","longitude":"24.652201","country":"FI"},{"id":"660229","name":"Enontekioe","latitude":"68.385727","longitude":"23.632151","country":"FI"},{"id":"660242","name":"Eno","latitude":"62.799999","longitude":"30.150000","country":"FI"},{"id":"660294","name":"Elimaki","latitude":"60.716671","longitude":"26.466669","country":"FI"},{"id":"660325","name":"Ekenaes","latitude":"59.973591","longitude":"23.433889","country":"FI"},{"id":"660374","name":"Dragsfjard","latitude":"60.066669","longitude":"22.483330","country":"FI"},{"id":"660561","name":"Porvoo","latitude":"60.392330","longitude":"25.665070","country":"FI"},{"id":"660873","name":"Aura","latitude":"60.599998","longitude":"22.566669","country":"FI"},{"id":"660927","name":"Askola","latitude":"60.533329","longitude":"25.600000","country":"FI"},{"id":"660949","name":"Asikkala","latitude":"61.216671","longitude":"25.500000","country":"FI"},{"id":"661164","name":"Anjala","latitude":"60.683331","longitude":"26.833330","country":"FI"},{"id":"661352","name":"Alavus","latitude":"62.583328","longitude":"23.616671","country":"FI"},{"id":"661363","name":"Alavieska","latitude":"64.166672","longitude":"24.299999","country":"FI"},{"id":"661411","name":"Alastaro","latitude":"60.933331","longitude":"22.916670","country":"FI"},{"id":"661576","name":"Alajarvi","latitude":"63.000000","longitude":"23.816669","country":"FI"},{"id":"661601","name":"Alaharma","latitude":"63.233330","longitude":"22.850000","country":"FI"},{"id":"661896","name":"Ahtari","latitude":"62.554031","longitude":"24.061859","country":"FI"},{"id":"662095","name":"Aanekoski","latitude":"62.599998","longitude":"25.733330","country":"FI"},{"id":"846663","name":"Loimaan Kunta","latitude":"60.872829","longitude":"22.985121","country":"FI"},{"id":"846664","name":"Aetsa","latitude":"61.283329","longitude":"22.683331","country":"FI"},{"id":"846668","name":"Pieksamaen Maalaiskunta","latitude":"62.283329","longitude":"27.066669","country":"FI"},{"id":"6295613","name":"Kilo","latitude":"60.217461","longitude":"24.781509","country":"FI"},{"id":"6691859","name":"Teekkarikylae","latitude":"60.189590","longitude":"24.835020","country":"FI"},{"id":"7910855","name":"Toijala","latitude":"61.169109","longitude":"23.865650","country":"FI"},{"id":"7911309","name":"Laensi-Turunmaa","latitude":"60.299721","longitude":"22.300400","country":"FI"}]