[{"id":"933933","name":"Verdun","latitude":"-20.228331","longitude":"57.543892","country":"MU"},{"id":"933945","name":"Vacoas","latitude":"-20.298059","longitude":"57.478329","country":"MU"},{"id":"933959","name":"Triolet","latitude":"-20.054720","longitude":"57.545280","country":"MU"},{"id":"933970","name":"The Vale","latitude":"-20.028330","longitude":"57.587780","country":"MU"},{"id":"933974","name":"Terre Rouge","latitude":"-20.126110","longitude":"57.524441","country":"MU"},{"id":"933982","name":"Tamarin","latitude":"-20.325560","longitude":"57.370560","country":"MU"},{"id":"933988","name":"Surinam","latitude":"-20.509720","longitude":"57.505280","country":"MU"},{"id":"933995","name":"Souillac","latitude":"-20.516670","longitude":"57.516670","country":"MU"},{"id":"934013","name":"Sebastopol","latitude":"-20.288891","longitude":"57.687500","country":"MU"},{"id":"934032","name":"Saint Pierre","latitude":"-20.217501","longitude":"57.520828","country":"MU"},{"id":"934043","name":"Saint Julien","latitude":"-20.226391","longitude":"57.636391","country":"MU"},{"id":"934047","name":"Saint Hubert","latitude":"-20.364170","longitude":"57.638329","country":"MU"},{"id":"934058","name":"Morcellemont Saint Andre","latitude":"-20.073059","longitude":"57.558060","country":"MU"},{"id":"934072","name":"Rose Belle","latitude":"-20.400280","longitude":"57.596668","country":"MU"},{"id":"934076","name":"Roche Terre","latitude":"-20.018610","longitude":"57.644718","country":"MU"},{"id":"934085","name":"Roches Noire","latitude":"-20.111111","longitude":"57.712219","country":"MU"},{"id":"934089","name":"Grande Riviere Noire","latitude":"-20.360279","longitude":"57.366112","country":"MU"},{"id":"934091","name":"Riviere du Rempart","latitude":"-20.103060","longitude":"57.684719","country":"MU"},{"id":"934095","name":"Riviere des Anguilles","latitude":"-20.485279","longitude":"57.550831","country":"MU"},{"id":"934126","name":"Queen Victoria","latitude":"-20.219999","longitude":"57.707500","country":"MU"},{"id":"934127","name":"Quatre Soeurs","latitude":"-20.299170","longitude":"57.770561","country":"MU"},{"id":"934131","name":"Quatre Bornes","latitude":"-20.264441","longitude":"57.471939","country":"MU"},{"id":"934133","name":"Quartier Militaire","latitude":"-20.243891","longitude":"57.589169","country":"MU"},{"id":"934138","name":"Providence","latitude":"-20.244720","longitude":"57.612221","country":"MU"},{"id":"934149","name":"Poste de Flacq","latitude":"-20.163059","longitude":"57.730560","country":"MU"},{"id":"934154","name":"Port Louis","latitude":"-20.161940","longitude":"57.498890","country":"MU"},{"id":"934169","name":"Plaine Magnien","latitude":"-20.428610","longitude":"57.653061","country":"MU"},{"id":"934170","name":"Plaine des Papayes","latitude":"-20.065001","longitude":"57.572498","country":"MU"},{"id":"934184","name":"Petit Raffray","latitude":"-20.013330","longitude":"57.611938","country":"MU"},{"id":"934195","name":"Petite Riviere","latitude":"-20.189440","longitude":"57.445278","country":"MU"},{"id":"934213","name":"Pamplemousses","latitude":"-20.103889","longitude":"57.570278","country":"MU"},{"id":"934219","name":"Pailles","latitude":"-20.192711","longitude":"57.488258","country":"MU"},{"id":"934225","name":"Olivia","latitude":"-20.297501","longitude":"57.725559","country":"MU"},{"id":"934229","name":"Nouvelle France","latitude":"-20.370560","longitude":"57.561111","country":"MU"},{"id":"934232","name":"Notre Dame","latitude":"-20.140560","longitude":"57.553059","country":"MU"},{"id":"934240","name":"New Grove","latitude":"-20.408609","longitude":"57.613609","country":"MU"},{"id":"934255","name":"Piton","latitude":"-20.090281","longitude":"57.630280","country":"MU"},{"id":"934262","name":"Montagne Blanche","latitude":"-20.282780","longitude":"57.654442","country":"MU"},{"id":"934277","name":"Moka","latitude":"-20.218889","longitude":"57.495831","country":"MU"},{"id":"934282","name":"Midlands","latitude":"-20.332500","longitude":"57.558331","country":"MU"},{"id":"934288","name":"Melrose","latitude":"-20.269720","longitude":"57.631939","country":"MU"},{"id":"934322","name":"Mahebourg","latitude":"-20.408060","longitude":"57.700001","country":"MU"},{"id":"934333","name":"Long Mountain","latitude":"-20.143061","longitude":"57.562222","country":"MU"},{"id":"934390","name":"Lalmatie","latitude":"-20.189720","longitude":"57.661110","country":"MU"},{"id":"934400","name":"La Dagotiere","latitude":"-20.244440","longitude":"57.554169","country":"MU"},{"id":"934459","name":"Grand Sable","latitude":"-20.314171","longitude":"57.764439","country":"MU"},{"id":"934475","name":"Grande Riviere Sud Est","latitude":"-20.286110","longitude":"57.775829","country":"MU"},{"id":"934479","name":"Grand Gaube","latitude":"-20.006390","longitude":"57.660831","country":"MU"},{"id":"934482","name":"Grand Baie","latitude":"-20.018160","longitude":"57.580151","country":"MU"},{"id":"934485","name":"Grand Bois","latitude":"-20.418890","longitude":"57.544170","country":"MU"},{"id":"934488","name":"Goodlands","latitude":"-20.035000","longitude":"57.643059","country":"MU"},{"id":"934513","name":"Fond du Sac","latitude":"-20.043060","longitude":"57.578609","country":"MU"},{"id":"934517","name":"Flic en Flac","latitude":"-20.274170","longitude":"57.363060","country":"MU"},{"id":"934533","name":"Esperance Trebuchet","latitude":"-20.069719","longitude":"57.641941","country":"MU"},{"id":"934570","name":"Curepipe","latitude":"-20.314720","longitude":"57.520279","country":"MU"},{"id":"934573","name":"Creve Coeur","latitude":"-20.191111","longitude":"57.557220","country":"MU"},{"id":"934614","name":"Chemin Grenier","latitude":"-20.487221","longitude":"57.465561","country":"MU"},{"id":"934624","name":"Chamouny","latitude":"-20.482220","longitude":"57.466110","country":"MU"},{"id":"934631","name":"Centre de Flacq","latitude":"-20.189720","longitude":"57.714439","country":"MU"},{"id":"934644","name":"Cascavelle","latitude":"-20.286940","longitude":"57.407219","country":"MU"},{"id":"934649","name":"Cap Malheureux","latitude":"-19.984171","longitude":"57.614170","country":"MU"},{"id":"934656","name":"Camp Thorel","latitude":"-20.214720","longitude":"57.616112","country":"MU"},{"id":"934660","name":"Camp Diable","latitude":"-20.462780","longitude":"57.578892","country":"MU"},{"id":"934661","name":"Camp de Masque","latitude":"-20.236940","longitude":"57.663330","country":"MU"},{"id":"934677","name":"Brisee Verdiere","latitude":"-20.163891","longitude":"57.646671","country":"MU"},{"id":"934693","name":"Bon Accueil","latitude":"-20.170830","longitude":"57.656391","country":"MU"},{"id":"934705","name":"Bois des Amourettes","latitude":"-20.363060","longitude":"57.731110","country":"MU"},{"id":"934750","name":"Bel Air","latitude":"-20.254169","longitude":"57.745281","country":"MU"},{"id":"934753","name":"Beau Vallon","latitude":"-20.418890","longitude":"57.695278","country":"MU"},{"id":"934812","name":"Albion","latitude":"-20.211670","longitude":"57.400829","country":"MU"},{"id":"1106584","name":"Laventure","latitude":"-20.145830","longitude":"57.676670","country":"MU"},{"id":"1106596","name":"Cottage","latitude":"-20.059719","longitude":"57.629169","country":"MU"},{"id":"1106614","name":"Grande Pointe aux Piments","latitude":"-20.062780","longitude":"57.513062","country":"MU"},{"id":"1106621","name":"Congomah","latitude":"-20.148890","longitude":"57.590832","country":"MU"},{"id":"1106630","name":"Amaury","latitude":"-20.130831","longitude":"57.659168","country":"MU"},{"id":"1106631","name":"Plaines des Roches","latitude":"-20.111670","longitude":"57.690830","country":"MU"},{"id":"1106638","name":"Mare La Chaux","latitude":"-20.198059","longitude":"57.749439","country":"MU"},{"id":"1106643","name":"Quatre Cocos","latitude":"-20.207781","longitude":"57.762501","country":"MU"},{"id":"1106645","name":"Camp Ithier","latitude":"-20.215830","longitude":"57.745560","country":"MU"},{"id":"1106660","name":"Ecroignard","latitude":"-20.226110","longitude":"57.736111","country":"MU"},{"id":"1106763","name":"Gros Cailloux","latitude":"-20.207220","longitude":"57.430000","country":"MU"},{"id":"1106788","name":"Dubreuil","latitude":"-20.297501","longitude":"57.595001","country":"MU"},{"id":"1106809","name":"Le Hochet","latitude":"-20.135000","longitude":"57.521111","country":"MU"},{"id":"1106811","name":"Calebasses","latitude":"-20.111670","longitude":"57.553890","country":"MU"},{"id":"1106813","name":"Arsenal","latitude":"-20.105560","longitude":"57.535278","country":"MU"}]