[{"id":"251250","name":"Zaros","latitude":"35.131630","longitude":"24.904631","country":"GR"},{"id":"251280","name":"Zakynthos","latitude":"37.791389","longitude":"20.895281","country":"GR"},{"id":"251283","name":"Zacharo","latitude":"37.483330","longitude":"21.650000","country":"GR"},{"id":"251292","name":"Zagora","latitude":"39.450001","longitude":"23.100000","country":"GR"},{"id":"251297","name":"Gytheio","latitude":"36.755001","longitude":"22.564171","country":"GR"},{"id":"251317","name":"Yimnon","latitude":"38.433331","longitude":"23.883329","country":"GR"},{"id":"251332","name":"Yiannouli","latitude":"39.666672","longitude":"22.383329","country":"GR"},{"id":"251525","name":"Xylokastron","latitude":"38.077621","longitude":"22.631660","country":"GR"},{"id":"251606","name":"Vrontados","latitude":"38.408890","longitude":"26.132780","country":"GR"},{"id":"251681","name":"Vrachnaiika","latitude":"38.166672","longitude":"21.666670","country":"GR"},{"id":"251685","name":"Vrakhation","latitude":"37.958950","longitude":"22.805731","country":"GR"},{"id":"251773","name":"Vouliagmeni","latitude":"37.816669","longitude":"23.783331","country":"GR"},{"id":"251780","name":"Voula","latitude":"37.842209","longitude":"23.776510","country":"GR"},{"id":"251823","name":"Vonitsa","latitude":"38.916389","longitude":"20.886391","country":"GR"},{"id":"251833","name":"Volos","latitude":"39.366669","longitude":"22.945829","country":"GR"},{"id":"251896","name":"Vlakhiotis","latitude":"36.866669","longitude":"22.700001","country":"GR"},{"id":"251948","name":"Vyronas","latitude":"37.966671","longitude":"23.750000","country":"GR"},{"id":"251959","name":"Vilia","latitude":"38.166672","longitude":"23.333330","country":"GR"},{"id":"252062","name":"Velo","latitude":"37.966671","longitude":"22.766670","country":"GR"},{"id":"252074","name":"Velestino","latitude":"39.383331","longitude":"22.750000","country":"GR"},{"id":"252101","name":"Vagia","latitude":"38.316669","longitude":"23.183331","country":"GR"},{"id":"252164","name":"Vathi","latitude":"38.400002","longitude":"23.600000","country":"GR"},{"id":"252166","name":"Vathy","latitude":"37.750000","longitude":"26.983330","country":"GR"},{"id":"252190","name":"Vasilikon","latitude":"38.433331","longitude":"23.666670","country":"GR"},{"id":"252239","name":"Vartholomio","latitude":"37.866669","longitude":"21.200001","country":"GR"},{"id":"252270","name":"Vari","latitude":"37.831200","longitude":"23.808090","country":"GR"},{"id":"252291","name":"Varda","latitude":"38.033329","longitude":"21.366671","country":"GR"},{"id":"252523","name":"Tsaritsani","latitude":"39.883331","longitude":"22.233330","country":"GR"},{"id":"252601","name":"Tripoli","latitude":"37.508888","longitude":"22.379440","country":"GR"},{"id":"252664","name":"Trikala","latitude":"39.555279","longitude":"21.767500","country":"GR"},{"id":"252685","name":"Trianta","latitude":"36.410431","longitude":"28.165520","country":"GR"},{"id":"252747","name":"Traganon","latitude":"37.897888","longitude":"21.312450","country":"GR"},{"id":"252833","name":"Tolon","latitude":"37.520210","longitude":"22.858601","country":"GR"},{"id":"252848","name":"Tyrnavos","latitude":"39.737782","longitude":"22.289169","country":"GR"},{"id":"252854","name":"Tinos","latitude":"37.537529","longitude":"25.163429","country":"GR"},{"id":"252862","name":"Tympaki","latitude":"35.072861","longitude":"24.768511","country":"GR"},{"id":"252910","name":"Thivai","latitude":"38.325001","longitude":"23.318890","country":"GR"},{"id":"252920","name":"Fira","latitude":"36.421070","longitude":"25.430870","country":"GR"},{"id":"252946","name":"Thermo","latitude":"38.583328","longitude":"21.666670","country":"GR"},{"id":"253170","name":"Stylida","latitude":"38.916672","longitude":"22.616671","country":"GR"},{"id":"253218","name":"Stefanavikion","latitude":"39.466671","longitude":"22.733330","country":"GR"},{"id":"253302","name":"Stamata","latitude":"38.133331","longitude":"23.883329","country":"GR"},{"id":"253356","name":"Spetses","latitude":"37.261909","longitude":"23.159430","country":"GR"},{"id":"253360","name":"Spercheiada","latitude":"38.900002","longitude":"22.116671","country":"GR"},{"id":"253376","name":"Spata","latitude":"37.961632","longitude":"23.915140","country":"GR"},{"id":"253394","name":"Sparti","latitude":"37.073330","longitude":"22.429720","country":"GR"},{"id":"253419","name":"Sourpi","latitude":"39.099998","longitude":"22.900000","country":"GR"},{"id":"253456","name":"Souda","latitude":"35.484440","longitude":"24.074440","country":"GR"},{"id":"253581","name":"Skopelos","latitude":"39.124722","longitude":"23.724720","country":"GR"},{"id":"253643","name":"Skiathos","latitude":"39.162270","longitude":"23.490891","country":"GR"},{"id":"253666","name":"Skhisma","latitude":"35.266670","longitude":"25.716669","country":"GR"},{"id":"253673","name":"Schimatari","latitude":"38.349998","longitude":"23.583330","country":"GR"},{"id":"253739","name":"Skala","latitude":"36.849998","longitude":"22.666670","country":"GR"},{"id":"253759","name":"Siteia","latitude":"35.200001","longitude":"26.098610","country":"GR"},{"id":"253858","name":"Symi","latitude":"36.612461","longitude":"27.837799","country":"GR"},{"id":"253871","name":"Sykourion","latitude":"39.758331","longitude":"22.578609","country":"GR"},{"id":"254030","name":"Selinia","latitude":"37.933609","longitude":"23.533609","country":"GR"},{"id":"254144","name":"Salamis","latitude":"37.964272","longitude":"23.496490","country":"GR"},{"id":"254315","name":"Rio","latitude":"38.299999","longitude":"21.783331","country":"GR"},{"id":"254352","name":"Rethymno","latitude":"35.364719","longitude":"24.471390","country":"GR"},{"id":"254425","name":"Rafina","latitude":"38.018120","longitude":"24.005989","country":"GR"},{"id":"254505","name":"Psychiko","latitude":"38.016670","longitude":"23.766670","country":"GR"},{"id":"254546","name":"Psachna","latitude":"38.583328","longitude":"23.633329","country":"GR"},{"id":"254698","name":"Preveza","latitude":"38.950001","longitude":"20.750000","country":"GR"},{"id":"254842","name":"Porto Cheli","latitude":"37.324829","longitude":"23.141520","country":"GR"},{"id":"254865","name":"Poros","latitude":"37.499439","longitude":"23.453609","country":"GR"},{"id":"254917","name":"Polichnitos","latitude":"39.081108","longitude":"26.183331","country":"GR"},{"id":"254949","name":"Plomarion","latitude":"38.976669","longitude":"26.368059","country":"GR"},{"id":"255229","name":"Pyrgos","latitude":"37.675129","longitude":"21.441019","country":"GR"},{"id":"255274","name":"Piraeus","latitude":"37.947449","longitude":"23.637079","country":"GR"},{"id":"255293","name":"Pylos","latitude":"36.913441","longitude":"21.696390","country":"GR"},{"id":"255301","name":"Pylion","latitude":"36.847778","longitude":"27.161390","country":"GR"},{"id":"255377","name":"Petroupolis","latitude":"38.041870","longitude":"23.684940","country":"GR"},{"id":"255458","name":"Peta","latitude":"39.166672","longitude":"21.034719","country":"GR"},{"id":"255495","name":"Periyialion","latitude":"37.950001","longitude":"22.833330","country":"GR"},{"id":"255507","name":"Perivolia","latitude":"35.483330","longitude":"23.983330","country":"GR"},{"id":"255524","name":"Peristeri","latitude":"38.016670","longitude":"23.700001","country":"GR"},{"id":"255585","name":"Perama","latitude":"39.695278","longitude":"20.848610","country":"GR"},{"id":"255588","name":"Perama","latitude":"37.967751","longitude":"23.572100","country":"GR"},{"id":"255646","name":"Pedini","latitude":"39.599720","longitude":"20.843330","country":"GR"},{"id":"255683","name":"Patra","latitude":"38.244438","longitude":"21.734440","country":"GR"},{"id":"255721","name":"Paros","latitude":"37.083328","longitude":"25.150000","country":"GR"},{"id":"255736","name":"Parga","latitude":"39.283058","longitude":"20.396391","country":"GR"},{"id":"255760","name":"Paramythia","latitude":"39.471111","longitude":"20.511110","country":"GR"},{"id":"255777","name":"Paralia","latitude":"38.200001","longitude":"21.700001","country":"GR"},{"id":"255945","name":"Panaitolion","latitude":"38.583328","longitude":"21.450001","country":"GR"},{"id":"255971","name":"Pallini","latitude":"37.997021","longitude":"23.877230","country":"GR"},{"id":"256047","name":"Palamas","latitude":"39.466671","longitude":"22.083330","country":"GR"},{"id":"256054","name":"Palairos","latitude":"38.783329","longitude":"20.883329","country":"GR"},{"id":"256075","name":"Palaio Faliro","latitude":"37.920658","longitude":"23.709160","country":"GR"},{"id":"256131","name":"Palaiochora","latitude":"35.233330","longitude":"23.683331","country":"GR"},{"id":"256173","name":"Palaia Fokaia","latitude":"37.719952","longitude":"23.946260","country":"GR"},{"id":"256197","name":"Paiania","latitude":"37.955269","longitude":"23.854429","country":"GR"},{"id":"256223","name":"Ovria","latitude":"38.183331","longitude":"21.716669","country":"GR"},{"id":"256268","name":"Orchomenos","latitude":"38.492901","longitude":"22.979620","country":"GR"},{"id":"256339","name":"Oinofyta","latitude":"38.316669","longitude":"23.633329","country":"GR"},{"id":"256342","name":"Oikismos Papagou","latitude":"37.983330","longitude":"23.816669","country":"GR"},{"id":"256428","name":"Nikaia","latitude":"39.566669","longitude":"22.466669","country":"GR"},{"id":"256429","name":"Nikaia","latitude":"37.966671","longitude":"23.650000","country":"GR"},{"id":"256449","name":"Nerokouros","latitude":"35.483330","longitude":"24.033331","country":"GR"},{"id":"256492","name":"Neon Karlovasion","latitude":"37.790279","longitude":"26.704439","country":"GR"},{"id":"256504","name":"Oichalia","latitude":"39.606670","longitude":"21.980829","country":"GR"},{"id":"256509","name":"Neochorion","latitude":"39.069439","longitude":"21.018890","country":"GR"},{"id":"256520","name":"Neochorion","latitude":"38.416672","longitude":"21.283331","country":"GR"},{"id":"256558","name":"Nemea","latitude":"37.816669","longitude":"22.666670","country":"GR"},{"id":"256575","name":"Nea Smyrni","latitude":"37.950001","longitude":"23.716669","country":"GR"},{"id":"256589","name":"Neapoli","latitude":"35.253891","longitude":"25.609720","country":"GR"},{"id":"256592","name":"Nea Peramos","latitude":"38.007629","longitude":"23.422951","country":"GR"},{"id":"256593","name":"Nea Palatia","latitude":"38.316669","longitude":"23.799999","country":"GR"},{"id":"256596","name":"Nea Manolas","latitude":"38.049999","longitude":"21.383329","country":"GR"},{"id":"256598","name":"Nea Makri","latitude":"38.083328","longitude":"23.983330","country":"GR"},{"id":"256601","name":"Ilion","latitude":"38.033329","longitude":"23.700001","country":"GR"},{"id":"256606","name":"Nea Kios","latitude":"37.591019","longitude":"22.741440","country":"GR"},{"id":"256614","name":"Nea Ionia","latitude":"38.033329","longitude":"23.750000","country":"GR"},{"id":"256621","name":"Nea Filadelfeia","latitude":"38.033329","longitude":"23.733330","country":"GR"},{"id":"256622","name":"Nea Erythraia","latitude":"38.099998","longitude":"23.816669","country":"GR"},{"id":"256626","name":"Nea Artaki","latitude":"38.516670","longitude":"23.633329","country":"GR"},{"id":"256627","name":"Nea Ankhialos","latitude":"39.283329","longitude":"22.816669","country":"GR"},{"id":"256632","name":"Naxos","latitude":"37.105560","longitude":"25.376390","country":"GR"},{"id":"256637","name":"Nafplio","latitude":"37.568279","longitude":"22.805281","country":"GR"},{"id":"256639","name":"Nafpaktos","latitude":"38.391670","longitude":"21.827499","country":"GR"},{"id":"256653","name":"Naousa","latitude":"37.116669","longitude":"25.233330","country":"GR"},{"id":"256662","name":"Mouzaki","latitude":"39.429722","longitude":"21.663610","country":"GR"},{"id":"256696","name":"Mourniai","latitude":"35.476391","longitude":"24.009171","country":"GR"},{"id":"256750","name":"Moskhaton","latitude":"37.950001","longitude":"23.666670","country":"GR"},{"id":"256824","name":"Molos","latitude":"38.816669","longitude":"22.650000","country":"GR"},{"id":"256833","name":"Molaoi","latitude":"36.807571","longitude":"22.851320","country":"GR"},{"id":"256842","name":"Moires","latitude":"35.053188","longitude":"24.874420","country":"GR"},{"id":"256865","name":"Mytilinioi","latitude":"37.728611","longitude":"26.908331","country":"GR"},{"id":"256866","name":"Mytilini","latitude":"39.110001","longitude":"26.554720","country":"GR"},{"id":"256930","name":"Myrina","latitude":"39.879719","longitude":"25.074169","country":"GR"},{"id":"257056","name":"Mykonos","latitude":"37.445290","longitude":"25.328720","country":"GR"},{"id":"257083","name":"Metsovo","latitude":"39.769440","longitude":"21.182220","country":"GR"},{"id":"257152","name":"Messini","latitude":"37.051109","longitude":"22.007780","country":"GR"},{"id":"257186","name":"Mesolongi","latitude":"38.369171","longitude":"21.429171","country":"GR"},{"id":"257302","name":"Melissia","latitude":"38.049999","longitude":"23.833330","country":"GR"},{"id":"257365","name":"Megara","latitude":"38.000000","longitude":"23.345560","country":"GR"},{"id":"257395","name":"Megalopoli","latitude":"37.401112","longitude":"22.142220","country":"GR"},{"id":"257448","name":"Megala Kalyvia","latitude":"39.500000","longitude":"21.787500","country":"GR"},{"id":"257621","name":"Martinon","latitude":"38.566669","longitude":"23.216669","country":"GR"},{"id":"257669","name":"Markopoulo Oropou","latitude":"38.283329","longitude":"23.833330","country":"GR"},{"id":"257671","name":"Markopoulo","latitude":"37.883331","longitude":"23.933331","country":"GR"},{"id":"257717","name":"Marathona","latitude":"38.150002","longitude":"23.966669","country":"GR"},{"id":"257811","name":"Mandra","latitude":"38.066669","longitude":"23.500000","country":"GR"},{"id":"257859","name":"Malia","latitude":"35.283329","longitude":"25.466669","country":"GR"},{"id":"257868","name":"Malesina","latitude":"38.616669","longitude":"23.233330","country":"GR"},{"id":"257923","name":"Makrisia","latitude":"37.616669","longitude":"21.600000","country":"GR"},{"id":"257975","name":"Makrakomi","latitude":"38.933331","longitude":"22.116671","country":"GR"},{"id":"258007","name":"Magoula","latitude":"38.083328","longitude":"23.516670","country":"GR"},{"id":"258066","name":"Loutraki","latitude":"37.978298","longitude":"22.977810","country":"GR"},{"id":"258091","name":"Louros","latitude":"39.162781","longitude":"20.751940","country":"GR"},{"id":"258175","name":"Lixourion","latitude":"38.201939","longitude":"20.431391","country":"GR"},{"id":"258182","name":"Livanatai","latitude":"38.716671","longitude":"23.049999","country":"GR"},{"id":"258306","name":"Limni","latitude":"38.766670","longitude":"23.316669","country":"GR"},{"id":"258315","name":"Limin Khersonisou","latitude":"35.316212","longitude":"25.392790","country":"GR"},{"id":"258332","name":"Lykovrysi","latitude":"38.066669","longitude":"23.783331","country":"GR"},{"id":"258377","name":"Ligourion","latitude":"37.616669","longitude":"23.033331","country":"GR"},{"id":"258427","name":"Lefkimmi","latitude":"39.423328","longitude":"20.068890","country":"GR"},{"id":"258438","name":"Lefkada","latitude":"38.827499","longitude":"20.701941","country":"GR"},{"id":"258463","name":"Livadeia","latitude":"38.435001","longitude":"22.873890","country":"GR"},{"id":"258497","name":"Lepenou","latitude":"38.700001","longitude":"21.283331","country":"GR"},{"id":"258500","name":"Leonidio","latitude":"37.166790","longitude":"22.857731","country":"GR"},{"id":"258521","name":"Lekhaion","latitude":"37.933331","longitude":"22.850000","country":"GR"},{"id":"258522","name":"Lechaina","latitude":"37.933331","longitude":"21.266670","country":"GR"},{"id":"258543","name":"Lavrio","latitude":"37.714451","longitude":"24.056480","country":"GR"},{"id":"258576","name":"Larisa","latitude":"39.637218","longitude":"22.420280","country":"GR"},{"id":"258620","name":"Lamia","latitude":"38.900002","longitude":"22.433331","country":"GR"},{"id":"258672","name":"Lakkion","latitude":"37.133331","longitude":"26.850000","country":"GR"},{"id":"258744","name":"Krouson","latitude":"35.230621","longitude":"24.982910","country":"GR"},{"id":"258793","name":"Kryoneri","latitude":"38.150002","longitude":"23.833330","country":"GR"},{"id":"258842","name":"Krestena","latitude":"37.616669","longitude":"21.633329","country":"GR"},{"id":"258873","name":"Kranidi","latitude":"37.381672","longitude":"23.155279","country":"GR"},{"id":"258882","name":"Kranea Elassonos","latitude":"39.948330","longitude":"21.965830","country":"GR"},{"id":"259245","name":"Kos","latitude":"36.893330","longitude":"27.288891","country":"GR"},{"id":"259251","name":"Koropi","latitude":"37.898861","longitude":"23.871811","country":"GR"},{"id":"259289","name":"Korinthos","latitude":"37.940681","longitude":"22.957340","country":"GR"},{"id":"259452","name":"Kompoti","latitude":"39.102219","longitude":"21.085279","country":"GR"},{"id":"259718","name":"Kissamos","latitude":"35.493889","longitude":"23.656940","country":"GR"},{"id":"259730","name":"Kyriaki","latitude":"38.349998","longitude":"22.783331","country":"GR"},{"id":"259745","name":"Kipseli","latitude":"38.002720","longitude":"23.741070","country":"GR"},{"id":"259782","name":"Kyparissia","latitude":"37.251110","longitude":"21.673611","country":"GR"},{"id":"259796","name":"Kineta","latitude":"37.970940","longitude":"23.218321","country":"GR"},{"id":"259806","name":"Kymi","latitude":"38.633331","longitude":"24.100000","country":"GR"},{"id":"259824","name":"Kifisia","latitude":"38.074379","longitude":"23.811060","country":"GR"},{"id":"259830","name":"Kiato","latitude":"38.016670","longitude":"22.750000","country":"GR"},{"id":"259919","name":"Khora","latitude":"37.049999","longitude":"21.716669","country":"GR"},{"id":"259949","name":"Cholargos","latitude":"38.000000","longitude":"23.799999","country":"GR"},{"id":"259973","name":"Chios","latitude":"38.367779","longitude":"26.135830","country":"GR"},{"id":"260114","name":"Chania","latitude":"35.512218","longitude":"24.015560","country":"GR"},{"id":"260128","name":"Khalkoutsion","latitude":"38.333328","longitude":"23.733330","country":"GR"},{"id":"260133","name":"Chalkida","latitude":"38.463612","longitude":"23.599440","country":"GR"},{"id":"260172","name":"Khalandrion","latitude":"38.030579","longitude":"23.797930","country":"GR"},{"id":"260204","name":"Keratsini","latitude":"37.962502","longitude":"23.619720","country":"GR"},{"id":"260210","name":"Keratea","latitude":"37.807331","longitude":"23.976919","country":"GR"},{"id":"260308","name":"Kefalos","latitude":"36.745281","longitude":"26.958891","country":"GR"},{"id":"260420","name":"Katsikas","latitude":"39.622501","longitude":"20.887501","country":"GR"},{"id":"260468","name":"Katouna","latitude":"38.783329","longitude":"21.116671","country":"GR"},{"id":"260473","name":"Kato Tithorea","latitude":"38.599998","longitude":"22.716669","country":"GR"},{"id":"260644","name":"Kato Achaia","latitude":"38.150002","longitude":"21.549999","country":"GR"},{"id":"260891","name":"Karpenisi","latitude":"38.916672","longitude":"21.783331","country":"GR"},{"id":"260895","name":"Karpathos","latitude":"35.507011","longitude":"27.213221","country":"GR"},{"id":"260935","name":"Karystos","latitude":"38.013329","longitude":"24.416109","country":"GR"},{"id":"260987","name":"Karditsomagoula","latitude":"39.391941","longitude":"21.924170","country":"GR"},{"id":"260989","name":"Karditsa","latitude":"39.365559","longitude":"21.921671","country":"GR"},{"id":"261003","name":"Kardamaina","latitude":"36.781391","longitude":"27.142500","country":"GR"},{"id":"261133","name":"Kapandriti","latitude":"38.216671","longitude":"23.883329","country":"GR"},{"id":"261167","name":"Kanalaki","latitude":"39.233608","longitude":"20.600000","country":"GR"},{"id":"261211","name":"Kamena Vourla","latitude":"38.778439","longitude":"22.785730","country":"GR"},{"id":"261414","name":"Kallithea","latitude":"37.950001","longitude":"23.700001","country":"GR"},{"id":"261445","name":"Kalyvia Thorikou","latitude":"37.840660","longitude":"23.927660","country":"GR"},{"id":"261507","name":"Kalymnos","latitude":"36.950001","longitude":"26.983330","country":"GR"},{"id":"261571","name":"Kalamos","latitude":"38.283329","longitude":"23.866671","country":"GR"},{"id":"261601","name":"Kalampaka","latitude":"39.704441","longitude":"21.626940","country":"GR"},{"id":"261604","name":"Kalamata","latitude":"37.038891","longitude":"22.114170","country":"GR"},{"id":"261614","name":"Alimos","latitude":"37.910332","longitude":"23.723610","country":"GR"},{"id":"261678","name":"Kaisariani","latitude":"37.966671","longitude":"23.799999","country":"GR"},{"id":"261681","name":"Kainouryion","latitude":"38.599998","longitude":"21.500000","country":"GR"},{"id":"261715","name":"Itea","latitude":"38.433331","longitude":"22.416670","country":"GR"},{"id":"261720","name":"Istiaia","latitude":"38.955830","longitude":"23.152781","country":"GR"},{"id":"261743","name":"Irakleio","latitude":"38.066669","longitude":"23.766670","country":"GR"},{"id":"261745","name":"Irakleion","latitude":"35.327869","longitude":"25.143410","country":"GR"},{"id":"261779","name":"Ioannina","latitude":"39.667500","longitude":"20.850830","country":"GR"},{"id":"261814","name":"Ierapetra","latitude":"35.009998","longitude":"25.735279","country":"GR"},{"id":"261921","name":"Gouvai","latitude":"35.310501","longitude":"25.313271","country":"GR"},{"id":"261996","name":"Gonnoi","latitude":"39.866669","longitude":"22.466669","country":"GR"},{"id":"262067","name":"Gazi","latitude":"35.325310","longitude":"25.066940","country":"GR"},{"id":"262098","name":"Gastouni","latitude":"37.849998","longitude":"21.250000","country":"GR"},{"id":"262104","name":"Gargalianoi","latitude":"37.066669","longitude":"21.633329","country":"GR"},{"id":"262135","name":"Galatsi","latitude":"38.016670","longitude":"23.750000","country":"GR"},{"id":"262143","name":"Galatas","latitude":"37.496181","longitude":"23.448860","country":"GR"},{"id":"262144","name":"Galatas","latitude":"35.500000","longitude":"23.966669","country":"GR"},{"id":"262411","name":"Filippiada","latitude":"39.204720","longitude":"20.882219","country":"GR"},{"id":"262418","name":"Filiatra","latitude":"37.150002","longitude":"21.583330","country":"GR"},{"id":"262420","name":"Filiates","latitude":"39.601109","longitude":"20.311939","country":"GR"},{"id":"262426","name":"Fyli","latitude":"38.099998","longitude":"23.666670","country":"GR"},{"id":"262462","name":"Farsala","latitude":"39.294720","longitude":"22.384720","country":"GR"},{"id":"262525","name":"Falanna","latitude":"39.716671","longitude":"22.400000","country":"GR"},{"id":"262603","name":"Ermoupolis","latitude":"37.442268","longitude":"24.942480","country":"GR"},{"id":"262607","name":"Ermioni","latitude":"37.386902","longitude":"23.244230","country":"GR"},{"id":"262609","name":"Erythres","latitude":"38.216671","longitude":"23.316669","country":"GR"},{"id":"262628","name":"Eretria","latitude":"38.400002","longitude":"23.799999","country":"GR"},{"id":"262636","name":"Epitalion","latitude":"37.633331","longitude":"21.500000","country":"GR"},{"id":"262683","name":"Ano Arhanes","latitude":"35.233330","longitude":"25.166670","country":"GR"},{"id":"262696","name":"Emporeio","latitude":"36.358131","longitude":"25.443930","country":"GR"},{"id":"262719","name":"Elliniko","latitude":"37.883331","longitude":"23.733330","country":"GR"},{"id":"262752","name":"Elefsina","latitude":"38.041351","longitude":"23.542950","country":"GR"},{"id":"262757","name":"Eleousa","latitude":"39.706390","longitude":"20.792500","country":"GR"},{"id":"262776","name":"Elateia","latitude":"38.633331","longitude":"22.766670","country":"GR"},{"id":"262784","name":"Elassona","latitude":"39.894718","longitude":"22.188610","country":"GR"},{"id":"262833","name":"Ekali","latitude":"38.116669","longitude":"23.833330","country":"GR"},{"id":"263166","name":"Deskati","latitude":"39.922501","longitude":"21.802780","country":"GR"},{"id":"263219","name":"Delphi","latitude":"38.483330","longitude":"22.500000","country":"GR"},{"id":"263257","name":"Dharatsos","latitude":"35.500000","longitude":"23.983330","country":"GR"},{"id":"263646","name":"Ayios Yeoryios","latitude":"38.400002","longitude":"22.933331","country":"GR"},{"id":"263725","name":"Agios Stefanos","latitude":"38.150002","longitude":"23.850000","country":"GR"},{"id":"263805","name":"Ayios Nikolaos","latitude":"38.416672","longitude":"23.650000","country":"GR"},{"id":"263824","name":"Agios Nikolaos","latitude":"35.191391","longitude":"25.713329","country":"GR"},{"id":"263870","name":"Agios Kirykos","latitude":"37.614719","longitude":"26.294439","country":"GR"},{"id":"264111","name":"Agia Varvara","latitude":"37.983330","longitude":"23.666670","country":"GR"},{"id":"264114","name":"Agia Varvara","latitude":"35.133331","longitude":"25.000000","country":"GR"},{"id":"264146","name":"Agiasos","latitude":"39.084999","longitude":"26.370001","country":"GR"},{"id":"264181","name":"Agia Paraskevi","latitude":"39.248058","longitude":"26.271669","country":"GR"},{"id":"264194","name":"Agia Paraskevi","latitude":"38.016670","longitude":"23.833330","country":"GR"},{"id":"264220","name":"Ayia Marina","latitude":"37.750000","longitude":"23.533331","country":"GR"},{"id":"264221","name":"Agia Marina","latitude":"37.150002","longitude":"26.866671","country":"GR"},{"id":"264283","name":"Agia","latitude":"39.717781","longitude":"22.763611","country":"GR"},{"id":"264371","name":"Athens","latitude":"37.979450","longitude":"23.716221","country":"GR"},{"id":"264374","name":"Athikia","latitude":"37.816669","longitude":"22.933331","country":"GR"},{"id":"264390","name":"Atalanti","latitude":"38.651112","longitude":"22.999170","country":"GR"},{"id":"264396","name":"Astros","latitude":"37.403172","longitude":"22.730301","country":"GR"},{"id":"264416","name":"Astakos","latitude":"38.535561","longitude":"21.081350","country":"GR"},{"id":"264421","name":"Assos","latitude":"37.933331","longitude":"22.833330","country":"GR"},{"id":"264445","name":"Aspropyrgos","latitude":"38.066669","longitude":"23.583330","country":"GR"},{"id":"264559","name":"Arta","latitude":"39.160561","longitude":"20.985279","country":"GR"},{"id":"264642","name":"Arkalochori","latitude":"35.150002","longitude":"25.266670","country":"GR"},{"id":"264662","name":"Aria","latitude":"37.573719","longitude":"22.835390","country":"GR"},{"id":"264668","name":"Argostolion","latitude":"38.181091","longitude":"20.489031","country":"GR"},{"id":"264670","name":"Argos","latitude":"37.633331","longitude":"22.733330","country":"GR"},{"id":"264714","name":"Arachova","latitude":"38.483330","longitude":"22.583330","country":"GR"},{"id":"264806","name":"Anogeia","latitude":"35.290470","longitude":"24.881720","country":"GR"},{"id":"264888","name":"Ano Liosia","latitude":"38.083328","longitude":"23.700001","country":"GR"},{"id":"264929","name":"Anoixi","latitude":"38.133331","longitude":"23.850000","country":"GR"},{"id":"265056","name":"Andravida","latitude":"37.905880","longitude":"21.269360","country":"GR"},{"id":"265078","name":"Antimacheia","latitude":"36.810829","longitude":"27.099720","country":"GR"},{"id":"265100","name":"Anavyssos","latitude":"37.733330","longitude":"23.950001","country":"GR"},{"id":"265107","name":"Anatoli","latitude":"39.638889","longitude":"20.865280","country":"GR"},{"id":"265187","name":"Amfissa","latitude":"38.525002","longitude":"22.373060","country":"GR"},{"id":"265189","name":"Amfilochia","latitude":"38.859440","longitude":"21.166389","country":"GR"},{"id":"265191","name":"Amfikleia","latitude":"38.633331","longitude":"22.583330","country":"GR"},{"id":"265206","name":"Ambelon","latitude":"39.750000","longitude":"22.366671","country":"GR"},{"id":"265240","name":"Ampelakia","latitude":"37.949020","longitude":"23.524450","country":"GR"},{"id":"265243","name":"Marousi","latitude":"38.049999","longitude":"23.799999","country":"GR"},{"id":"265245","name":"Amarynthos","latitude":"38.400002","longitude":"23.883329","country":"GR"},{"id":"265252","name":"Amaliada","latitude":"37.799999","longitude":"21.350000","country":"GR"},{"id":"265292","name":"Almyros","latitude":"39.182220","longitude":"22.759439","country":"GR"},{"id":"265309","name":"Aliveri","latitude":"38.416672","longitude":"24.033331","country":"GR"},{"id":"265342","name":"Aliartos","latitude":"38.366669","longitude":"23.100000","country":"GR"},{"id":"265488","name":"Acharnes","latitude":"38.083328","longitude":"23.733330","country":"GR"},{"id":"265500","name":"Aigio","latitude":"38.248611","longitude":"22.081940","country":"GR"},{"id":"265502","name":"Aigina","latitude":"37.746670","longitude":"23.427500","country":"GR"},{"id":"265507","name":"Aitoliko","latitude":"38.433331","longitude":"21.350000","country":"GR"},{"id":"265533","name":"Aigaleo","latitude":"37.983330","longitude":"23.683331","country":"GR"},{"id":"265546","name":"Aianteion","latitude":"37.922779","longitude":"23.466129","country":"GR"},{"id":"265560","name":"Agrinio","latitude":"38.621391","longitude":"21.407780","country":"GR"},{"id":"265601","name":"Agria","latitude":"39.333328","longitude":"23.016670","country":"GR"},{"id":"400666","name":"Rodos","latitude":"36.440830","longitude":"28.222500","country":"GR"},{"id":"408628","name":"Nea Alikarnassos","latitude":"35.333328","longitude":"25.166670","country":"GR"},{"id":"408684","name":"Kremasti","latitude":"36.411121","longitude":"28.118931","country":"GR"},{"id":"408685","name":"Afantou","latitude":"36.293541","longitude":"28.162251","country":"GR"},{"id":"408686","name":"Archangelos","latitude":"36.214920","longitude":"28.114870","country":"GR"},{"id":"444350","name":"Ziparion","latitude":"36.875000","longitude":"27.204170","country":"GR"},{"id":"733776","name":"Giannitsa","latitude":"40.791939","longitude":"22.407499","country":"GR"},{"id":"733798","name":"Genissea","latitude":"41.066669","longitude":"24.966669","country":"GR"},{"id":"733802","name":"Gefyra","latitude":"40.733330","longitude":"22.692221","country":"GR"},{"id":"733818","name":"Xiropotamos","latitude":"41.200001","longitude":"24.100000","country":"GR"},{"id":"733840","name":"Xanthi","latitude":"41.141392","longitude":"24.883610","country":"GR"},{"id":"733842","name":"Vrontou","latitude":"40.192219","longitude":"22.432779","country":"GR"},{"id":"733905","name":"Veroia","latitude":"40.523331","longitude":"22.203609","country":"GR"},{"id":"733911","name":"Velventos","latitude":"40.251671","longitude":"22.063061","country":"GR"},{"id":"733933","name":"Vathylakkos","latitude":"40.769440","longitude":"22.701670","country":"GR"},{"id":"733941","name":"Vasilika","latitude":"40.479660","longitude":"23.136950","country":"GR"},{"id":"734014","name":"Trilofon","latitude":"40.466770","longitude":"22.967850","country":"GR"},{"id":"734061","name":"Tychero","latitude":"41.033329","longitude":"26.283331","country":"GR"},{"id":"734077","name":"Thessaloniki","latitude":"40.640282","longitude":"22.943890","country":"GR"},{"id":"734080","name":"Thermi","latitude":"40.547119","longitude":"23.019670","country":"GR"},{"id":"734094","name":"Thasos","latitude":"40.778061","longitude":"24.709440","country":"GR"},{"id":"734102","name":"Terpni","latitude":"40.916672","longitude":"23.483330","country":"GR"},{"id":"734120","name":"Svoronos","latitude":"40.264439","longitude":"22.459999","country":"GR"},{"id":"734187","name":"Soufli","latitude":"41.191940","longitude":"26.299440","country":"GR"},{"id":"734198","name":"Sokhos","latitude":"40.816669","longitude":"23.350000","country":"GR"},{"id":"734213","name":"Skoutari","latitude":"41.016670","longitude":"23.516670","country":"GR"},{"id":"734235","name":"Skydra","latitude":"40.767220","longitude":"22.151939","country":"GR"},{"id":"734256","name":"Leptokarya","latitude":"40.058331","longitude":"22.561390","country":"GR"},{"id":"734284","name":"Sindos","latitude":"40.670448","longitude":"22.805450","country":"GR"},{"id":"734299","name":"Sikia","latitude":"40.033329","longitude":"23.933331","country":"GR"},{"id":"734301","name":"Sykies","latitude":"40.649441","longitude":"22.950830","country":"GR"},{"id":"734310","name":"Sidirokastro","latitude":"41.234718","longitude":"23.386669","country":"GR"},{"id":"734315","name":"Siatista","latitude":"40.261940","longitude":"21.544170","country":"GR"},{"id":"734328","name":"Servia","latitude":"40.179722","longitude":"21.994440","country":"GR"},{"id":"734330","name":"Serres","latitude":"41.085560","longitude":"23.549721","country":"GR"},{"id":"734355","name":"Sapes","latitude":"41.028610","longitude":"25.693060","country":"GR"},{"id":"734405","name":"Pefka","latitude":"40.657219","longitude":"22.990280","country":"GR"},{"id":"734426","name":"Ptolemaida","latitude":"40.514721","longitude":"21.678610","country":"GR"},{"id":"734447","name":"Prosotsani","latitude":"41.183331","longitude":"23.966669","country":"GR"},{"id":"734517","name":"Polygyros","latitude":"40.374439","longitude":"23.438330","country":"GR"},{"id":"734538","name":"Polichni","latitude":"40.666710","longitude":"22.948811","country":"GR"},{"id":"734540","name":"Polykastro","latitude":"40.993610","longitude":"22.565830","country":"GR"},{"id":"734564","name":"Plagiarion","latitude":"40.473652","longitude":"22.958031","country":"GR"},{"id":"734575","name":"Platy","latitude":"40.641899","longitude":"22.535339","country":"GR"},{"id":"734622","name":"Pyrgos","latitude":"40.628609","longitude":"22.732780","country":"GR"},{"id":"734643","name":"Pylaia","latitude":"40.600559","longitude":"22.987499","country":"GR"},{"id":"734664","name":"Petroussa","latitude":"41.200001","longitude":"24.016670","country":"GR"},{"id":"734698","name":"Peristasis","latitude":"40.274170","longitude":"22.541109","country":"GR"},{"id":"734712","name":"Peraia","latitude":"40.500278","longitude":"22.924999","country":"GR"},{"id":"734722","name":"Pentalofos","latitude":"40.741669","longitude":"22.851940","country":"GR"},{"id":"734726","name":"Pella","latitude":"40.759998","longitude":"22.519171","country":"GR"},{"id":"734771","name":"Panorama","latitude":"40.587791","longitude":"23.031500","country":"GR"},{"id":"734868","name":"Ormilia","latitude":"40.299999","longitude":"23.549999","country":"GR"},{"id":"734880","name":"Orestiada","latitude":"41.503059","longitude":"26.529720","country":"GR"},{"id":"734883","name":"Oraiokastro","latitude":"40.730831","longitude":"22.917219","country":"GR"},{"id":"734919","name":"Nikisiani","latitude":"40.950001","longitude":"24.150000","country":"GR"},{"id":"734924","name":"Nigrita","latitude":"40.905281","longitude":"23.499439","country":"GR"},{"id":"734935","name":"Neos Skopos","latitude":"41.016670","longitude":"23.616671","country":"GR"},{"id":"734938","name":"Neos Mylotopos","latitude":"40.816391","longitude":"22.346390","country":"GR"},{"id":"734939","name":"Neos Marmaras","latitude":"40.099998","longitude":"23.783331","country":"GR"},{"id":"734943","name":"Neon Soulion","latitude":"41.099998","longitude":"23.650000","country":"GR"},{"id":"734946","name":"Neon Rysion","latitude":"40.496670","longitude":"22.988609","country":"GR"},{"id":"734947","name":"Neon Petritsion","latitude":"41.283329","longitude":"23.299999","country":"GR"},{"id":"734973","name":"Neoi Epivaton","latitude":"40.502960","longitude":"22.907961","country":"GR"},{"id":"734977","name":"Nea Zichni","latitude":"41.033058","longitude":"23.829720","country":"GR"},{"id":"734978","name":"Nea Vissa","latitude":"41.583328","longitude":"26.533331","country":"GR"},{"id":"734979","name":"Nea Triglia","latitude":"40.299999","longitude":"23.200001","country":"GR"},{"id":"734994","name":"Nea Peramos","latitude":"40.838890","longitude":"24.303610","country":"GR"},{"id":"735001","name":"Nea Michaniona","latitude":"40.464890","longitude":"22.861300","country":"GR"},{"id":"735002","name":"Nea Mesimvria","latitude":"40.751389","longitude":"22.762501","country":"GR"},{"id":"735003","name":"Nea Malgara","latitude":"40.609440","longitude":"22.681669","country":"GR"},{"id":"735004","name":"Nea Magnisia","latitude":"40.687500","longitude":"22.846939","country":"GR"},{"id":"735014","name":"Nea Karvali","latitude":"40.961670","longitude":"24.510000","country":"GR"},{"id":"735016","name":"Nea Kallikratia","latitude":"40.316669","longitude":"23.066669","country":"GR"},{"id":"735018","name":"Nea Iraklia","latitude":"41.183331","longitude":"23.266670","country":"GR"},{"id":"735021","name":"Nea Fokaia","latitude":"40.133331","longitude":"23.400000","country":"GR"},{"id":"735023","name":"Nea Efesos","latitude":"40.230000","longitude":"22.496389","country":"GR"},{"id":"735025","name":"Nea Apollonia","latitude":"40.633331","longitude":"23.450001","country":"GR"},{"id":"735030","name":"Naousa","latitude":"40.629440","longitude":"22.068060","country":"GR"},{"id":"735215","name":"Menemeni","latitude":"40.656940","longitude":"22.900000","country":"GR"},{"id":"735231","name":"Melissochorion","latitude":"40.766670","longitude":"22.924999","country":"GR"},{"id":"735235","name":"Meliki","latitude":"40.516670","longitude":"22.395281","country":"GR"},{"id":"735264","name":"Megali Panayia","latitude":"40.450001","longitude":"23.683331","country":"GR"},{"id":"735327","name":"Maniakoi","latitude":"40.500000","longitude":"21.250000","country":"GR"},{"id":"735347","name":"Makrochorion","latitude":"40.551392","longitude":"22.250000","country":"GR"},{"id":"735348","name":"Makrygialos","latitude":"40.416389","longitude":"22.602779","country":"GR"},{"id":"735390","name":"Livadion","latitude":"40.125000","longitude":"22.151670","country":"GR"},{"id":"735399","name":"Litochoro","latitude":"40.100559","longitude":"22.497780","country":"GR"},{"id":"735400","name":"Liti","latitude":"40.745281","longitude":"22.978609","country":"GR"},{"id":"735418","name":"Limenaria","latitude":"40.626068","longitude":"24.578560","country":"GR"},{"id":"735472","name":"Lagyna","latitude":"40.723061","longitude":"23.000000","country":"GR"},{"id":"735481","name":"Lagkadas","latitude":"40.750000","longitude":"23.066669","country":"GR"},{"id":"735521","name":"Krokos","latitude":"40.266670","longitude":"21.816669","country":"GR"},{"id":"735546","name":"Krya Vrysi","latitude":"40.687222","longitude":"22.302219","country":"GR"},{"id":"735563","name":"Kozani","latitude":"40.301109","longitude":"21.786390","country":"GR"},{"id":"735588","name":"Koufalia","latitude":"40.777779","longitude":"22.571939","country":"GR"},{"id":"735615","name":"Korinos","latitude":"40.314999","longitude":"22.585279","country":"GR"},{"id":"735630","name":"Kopanos","latitude":"40.633610","longitude":"22.130280","country":"GR"},{"id":"735636","name":"Konitsa","latitude":"40.048611","longitude":"20.756670","country":"GR"},{"id":"735638","name":"Kontariotissa","latitude":"40.228889","longitude":"22.462219","country":"GR"},{"id":"735640","name":"Komotini","latitude":"41.122780","longitude":"25.396391","country":"GR"},{"id":"735651","name":"Kolchikon","latitude":"40.756618","longitude":"23.133770","country":"GR"},{"id":"735654","name":"Kolindros","latitude":"40.475830","longitude":"22.480829","country":"GR"},{"id":"735661","name":"Kokkinokhoma","latitude":"40.933331","longitude":"24.299999","country":"GR"},{"id":"735731","name":"Kimmeria","latitude":"41.150002","longitude":"24.933331","country":"GR"},{"id":"735732","name":"Kymina","latitude":"40.614719","longitude":"22.691111","country":"GR"},{"id":"735736","name":"Kilkis","latitude":"40.991940","longitude":"22.870831","country":"GR"},{"id":"735747","name":"Chrysoupolis","latitude":"40.985561","longitude":"24.693890","country":"GR"},{"id":"735749","name":"Chryso","latitude":"41.066669","longitude":"23.650000","country":"GR"},{"id":"735764","name":"Chortiatis","latitude":"40.610481","longitude":"23.099630","country":"GR"},{"id":"735769","name":"Khoristi","latitude":"41.133331","longitude":"24.216669","country":"GR"},{"id":"735803","name":"Chalkidon","latitude":"40.733059","longitude":"22.599171","country":"GR"},{"id":"735856","name":"Kavallari","latitude":"40.715389","longitude":"23.045879","country":"GR"},{"id":"735861","name":"Kavala","latitude":"40.939720","longitude":"24.401939","country":"GR"},{"id":"735872","name":"Kato Skholarion","latitude":"40.433331","longitude":"23.033331","country":"GR"},{"id":"735914","name":"Katerini","latitude":"40.271938","longitude":"22.502501","country":"GR"},{"id":"735927","name":"Kastoria","latitude":"40.516670","longitude":"21.266670","country":"GR"},{"id":"735960","name":"Karitsa","latitude":"40.187500","longitude":"22.481939","country":"GR"},{"id":"735961","name":"Karyotissa","latitude":"40.768330","longitude":"22.305281","country":"GR"},{"id":"736029","name":"Kalochorion","latitude":"40.641209","longitude":"22.855801","country":"GR"},{"id":"736039","name":"Kallithea","latitude":"40.276390","longitude":"22.578329","country":"GR"},{"id":"736082","name":"Kalampaki","latitude":"41.049999","longitude":"24.183331","country":"GR"},{"id":"736083","name":"Kalamaria","latitude":"40.582500","longitude":"22.950279","country":"GR"},{"id":"736137","name":"Iasmos","latitude":"41.133331","longitude":"25.183331","country":"GR"},{"id":"736151","name":"Grevena","latitude":"40.084518","longitude":"21.427441","country":"GR"},{"id":"736166","name":"Goumenissa","latitude":"40.943890","longitude":"22.444170","country":"GR"},{"id":"736207","name":"Galatista","latitude":"40.466671","longitude":"23.283331","country":"GR"},{"id":"736208","name":"Galatini","latitude":"40.316669","longitude":"21.549999","country":"GR"},{"id":"736210","name":"Galatades","latitude":"40.754440","longitude":"22.271669","country":"GR"},{"id":"736229","name":"Florina","latitude":"40.781971","longitude":"21.409809","country":"GR"},{"id":"736245","name":"Filiro","latitude":"40.691509","longitude":"23.004601","country":"GR"},{"id":"736261","name":"Feres","latitude":"40.895561","longitude":"26.170000","country":"GR"},{"id":"736288","name":"Evropos","latitude":"40.894440","longitude":"22.544720","country":"GR"},{"id":"736296","name":"Efkarpia","latitude":"40.687778","longitude":"22.953609","country":"GR"},{"id":"736316","name":"Episkopi","latitude":"40.688332","longitude":"22.135559","country":"GR"},{"id":"736319","name":"Epanomi","latitude":"40.426380","longitude":"22.928619","country":"GR"},{"id":"736330","name":"Eleftheroupolis","latitude":"40.913891","longitude":"24.251390","country":"GR"},{"id":"736354","name":"Ekhinos","latitude":"41.283329","longitude":"24.966669","country":"GR"},{"id":"736357","name":"Edessa","latitude":"40.800560","longitude":"22.047220","country":"GR"},{"id":"736364","name":"Drama","latitude":"41.154442","longitude":"24.139441","country":"GR"},{"id":"736386","name":"Drymos","latitude":"40.781391","longitude":"22.954720","country":"GR"},{"id":"736447","name":"Didymoteicho","latitude":"41.348061","longitude":"26.496111","country":"GR"},{"id":"736450","name":"Nea Ionia","latitude":"40.688889","longitude":"22.856939","country":"GR"},{"id":"736598","name":"Ayios Nikolaos","latitude":"40.250000","longitude":"23.700001","country":"GR"},{"id":"736618","name":"Ayios Athanasios","latitude":"41.066669","longitude":"24.250000","country":"GR"},{"id":"736621","name":"Agios Athanasios","latitude":"40.717220","longitude":"22.728060","country":"GR"},{"id":"736638","name":"Agia Trias","latitude":"40.499439","longitude":"22.876110","country":"GR"},{"id":"736661","name":"Axioupoli","latitude":"40.983608","longitude":"22.535000","country":"GR"},{"id":"736687","name":"Asvestochori","latitude":"40.641251","longitude":"23.025280","country":"GR"},{"id":"736692","name":"Assiros","latitude":"40.816669","longitude":"23.033331","country":"GR"},{"id":"736694","name":"Asprovalta","latitude":"40.716671","longitude":"23.700001","country":"GR"},{"id":"736733","name":"Arnaia","latitude":"40.486519","longitude":"23.595369","country":"GR"},{"id":"736753","name":"Aridaia","latitude":"40.973061","longitude":"22.056391","country":"GR"},{"id":"736754","name":"Argos Orestiko","latitude":"40.466671","longitude":"21.266670","country":"GR"},{"id":"736859","name":"Anatolikon","latitude":"40.663059","longitude":"22.711390","country":"GR"},{"id":"736921","name":"Alistrati","latitude":"41.066669","longitude":"23.950001","country":"GR"},{"id":"736928","name":"Alexandroupoli","latitude":"40.847500","longitude":"25.874439","country":"GR"},{"id":"736929","name":"Alexandreia","latitude":"40.626671","longitude":"22.444170","country":"GR"},{"id":"736964","name":"Aiginio","latitude":"40.501389","longitude":"22.540001","country":"GR"},{"id":"736971","name":"Aiani","latitude":"40.166672","longitude":"21.816669","country":"GR"},{"id":"737002","name":"Adendron","latitude":"40.671669","longitude":"22.604441","country":"GR"},{"id":"865238","name":"Eirinoupoli","latitude":"40.678059","longitude":"22.192780","country":"GR"},{"id":"865290","name":"Agios Pavlos","latitude":"40.640560","longitude":"22.959440","country":"GR"},{"id":"865291","name":"Triandria","latitude":"40.622780","longitude":"22.971109","country":"GR"},{"id":"2463594","name":"Potamos","latitude":"39.625000","longitude":"19.875561","country":"GR"},{"id":"2463679","name":"Kerkyra","latitude":"39.619999","longitude":"19.919720","country":"GR"},{"id":"2463705","name":"Kanalion","latitude":"39.605560","longitude":"19.892500","country":"GR"},{"id":"6324534","name":"Vrilissia","latitude":"38.033810","longitude":"23.829620","country":"GR"},{"id":"6354951","name":"Faliraki","latitude":"36.339809","longitude":"28.199421","country":"GR"},{"id":"6544035","name":"Young Inn","latitude":"37.122822","longitude":"25.239031","country":"GR"},{"id":"6639653","name":"Alimos","latitude":"37.916672","longitude":"23.716669","country":"GR"},{"id":"6692234","name":"Potos (Thassos)","latitude":"40.609909","longitude":"24.613489","country":"GR"},{"id":"6692641","name":"Agios Georgis","latitude":"39.723629","longitude":"19.699690","country":"GR"},{"id":"6693122","name":"Mesolongi","latitude":"38.370190","longitude":"21.429520","country":"GR"},{"id":"7522530","name":"Marousi","latitude":"38.054039","longitude":"23.806000","country":"GR"},{"id":"7667930","name":"Ymittos","latitude":"37.953419","longitude":"23.748970","country":"GR"},{"id":"7668056","name":"Makry Gialos","latitude":"35.037022","longitude":"25.972191","country":"GR"},{"id":"8131587","name":"Ymittos Athens","latitude":"37.953419","longitude":"23.748970","country":"GR"}]