[{"id":"713929","name":"Zahony","latitude":"48.409061","longitude":"22.176140","country":"HU"},{"id":"713932","name":"Zagyvarekas","latitude":"47.266670","longitude":"20.133329","country":"HU"},{"id":"714073","name":"Veszto","latitude":"46.916672","longitude":"21.266670","country":"HU"},{"id":"714081","name":"Verpelet","latitude":"47.849998","longitude":"20.233330","country":"HU"},{"id":"714188","name":"Vasarosnameny","latitude":"48.133331","longitude":"22.316669","country":"HU"},{"id":"714265","name":"Vamospercs","latitude":"47.533329","longitude":"21.900000","country":"HU"},{"id":"714296","name":"Vaja","latitude":"48.005741","longitude":"22.167610","country":"HU"},{"id":"714421","name":"Ujszasz","latitude":"47.299999","longitude":"20.083330","country":"HU"},{"id":"714449","name":"Ujkigyos","latitude":"46.583328","longitude":"21.033331","country":"HU"},{"id":"714464","name":"Ujfeherto","latitude":"47.799999","longitude":"21.683331","country":"HU"},{"id":"714488","name":"Tyukod","latitude":"47.853779","longitude":"22.563299","country":"HU"},{"id":"714490","name":"Tuzser","latitude":"48.344070","longitude":"22.117620","country":"HU"},{"id":"714504","name":"Turkeve","latitude":"47.099998","longitude":"20.750000","country":"HU"},{"id":"714518","name":"Tunyogmatolcs","latitude":"47.966671","longitude":"22.466669","country":"HU"},{"id":"714548","name":"Totkomlos","latitude":"46.416672","longitude":"20.733330","country":"HU"},{"id":"714570","name":"Toszeg","latitude":"47.099998","longitude":"20.150000","country":"HU"},{"id":"714581","name":"Torokszentmiklos","latitude":"47.183331","longitude":"20.416670","country":"HU"},{"id":"714593","name":"Tornyospalca","latitude":"48.266670","longitude":"22.183331","country":"HU"},{"id":"714623","name":"Tomorkeny","latitude":"46.617161","longitude":"20.043570","country":"HU"},{"id":"714659","name":"Tokaj","latitude":"48.116669","longitude":"21.416670","country":"HU"},{"id":"714692","name":"Tiszavasvari","latitude":"47.966671","longitude":"21.350000","country":"HU"},{"id":"714697","name":"Tiszaujvaros","latitude":"47.933331","longitude":"21.083330","country":"HU"},{"id":"714714","name":"Tiszaszentimre","latitude":"47.483330","longitude":"20.733330","country":"HU"},{"id":"714724","name":"Tiszapuspoki","latitude":"47.216671","longitude":"20.316669","country":"HU"},{"id":"714734","name":"Tiszanana","latitude":"47.566669","longitude":"20.533331","country":"HU"},{"id":"714736","name":"Tiszanagyfalu","latitude":"48.099998","longitude":"21.483330","country":"HU"},{"id":"714739","name":"Tiszaluc","latitude":"48.033329","longitude":"21.083330","country":"HU"},{"id":"714742","name":"Tiszalok","latitude":"48.016670","longitude":"21.383329","country":"HU"},{"id":"714751","name":"Tiszakeszi","latitude":"47.783329","longitude":"21.000000","country":"HU"},{"id":"714754","name":"Tiszakecske","latitude":"46.932621","longitude":"20.103491","country":"HU"},{"id":"714756","name":"Tiszakarad","latitude":"48.200001","longitude":"21.716669","country":"HU"},{"id":"714772","name":"Tiszafured","latitude":"47.616669","longitude":"20.766670","country":"HU"},{"id":"714774","name":"Tiszafoldvar","latitude":"46.983330","longitude":"20.250000","country":"HU"},{"id":"714776","name":"Tiszaeszlar","latitude":"48.049999","longitude":"21.466669","country":"HU"},{"id":"714779","name":"Tiszadob","latitude":"48.016670","longitude":"21.166670","country":"HU"},{"id":"714782","name":"Tiszadada","latitude":"48.033329","longitude":"21.250000","country":"HU"},{"id":"714785","name":"Tiszacsege","latitude":"47.700001","longitude":"21.000000","country":"HU"},{"id":"714787","name":"Tiszabura","latitude":"47.450001","longitude":"20.466669","country":"HU"},{"id":"714789","name":"Tiszabo","latitude":"47.299999","longitude":"20.483330","country":"HU"},{"id":"714791","name":"Tiszabezded","latitude":"48.366669","longitude":"22.150000","country":"HU"},{"id":"714793","name":"Tiszabercel","latitude":"48.150002","longitude":"21.650000","country":"HU"},{"id":"714914","name":"Teglas","latitude":"47.716671","longitude":"21.683331","country":"HU"},{"id":"714973","name":"Tarcal","latitude":"48.133331","longitude":"21.350000","country":"HU"},{"id":"715001","name":"Tallya","latitude":"48.233330","longitude":"21.233330","country":"HU"},{"id":"715005","name":"Taktaszada","latitude":"48.116669","longitude":"21.183331","country":"HU"},{"id":"715009","name":"Taktaharkany","latitude":"48.083328","longitude":"21.133329","country":"HU"},{"id":"715126","name":"Szolnok","latitude":"47.183331","longitude":"20.200001","country":"HU"},{"id":"715199","name":"Szirmabesenyo","latitude":"48.150002","longitude":"20.799999","country":"HU"},{"id":"715259","name":"Szikszo","latitude":"48.200001","longitude":"20.933331","country":"HU"},{"id":"715272","name":"Szihalom","latitude":"47.766670","longitude":"20.483330","country":"HU"},{"id":"715302","name":"Szerencs","latitude":"48.166672","longitude":"21.200001","country":"HU"},{"id":"715332","name":"Szentistvan","latitude":"47.766670","longitude":"20.666670","country":"HU"},{"id":"715338","name":"Szentes","latitude":"46.650002","longitude":"20.266670","country":"HU"},{"id":"715355","name":"Szendro","latitude":"48.400002","longitude":"20.733330","country":"HU"},{"id":"715393","name":"Szekkutas","latitude":"46.500000","longitude":"20.533331","country":"HU"},{"id":"715415","name":"Szegvar","latitude":"46.587399","longitude":"20.224079","country":"HU"},{"id":"715422","name":"Szeghalom","latitude":"47.033329","longitude":"21.166670","country":"HU"},{"id":"715429","name":"Szeged","latitude":"46.252998","longitude":"20.148239","country":"HU"},{"id":"715449","name":"Szatymaz","latitude":"46.343060","longitude":"20.040199","country":"HU"},{"id":"715466","name":"Szarvas","latitude":"46.866669","longitude":"20.549999","country":"HU"},{"id":"715518","name":"Szamosszeg","latitude":"48.045609","longitude":"22.365820","country":"HU"},{"id":"715558","name":"Szakoly","latitude":"47.766670","longitude":"21.916670","country":"HU"},{"id":"715570","name":"Szajol","latitude":"47.183331","longitude":"20.299999","country":"HU"},{"id":"715614","name":"Szabadkigyos","latitude":"46.616669","longitude":"21.100000","country":"HU"},{"id":"715763","name":"Sirok","latitude":"47.933331","longitude":"20.200001","country":"HU"},{"id":"715839","name":"Satoraljaujhely","latitude":"48.400002","longitude":"21.666670","country":"HU"},{"id":"715862","name":"Sarretudvari","latitude":"47.233330","longitude":"21.200001","country":"HU"},{"id":"715867","name":"Sarospatak","latitude":"48.316669","longitude":"21.583330","country":"HU"},{"id":"715888","name":"Sarkad","latitude":"46.750000","longitude":"21.383329","country":"HU"},{"id":"715904","name":"Sarand","latitude":"47.400002","longitude":"21.633329","country":"HU"},{"id":"715924","name":"Sandorfalva","latitude":"46.360870","longitude":"20.098890","country":"HU"},{"id":"715930","name":"Saly","latitude":"47.950001","longitude":"20.666670","country":"HU"},{"id":"715939","name":"Sajovamos","latitude":"48.183331","longitude":"20.850000","country":"HU"},{"id":"715941","name":"Sajoszoged","latitude":"47.950001","longitude":"21.000000","country":"HU"},{"id":"715945","name":"Sajoszentpeter","latitude":"48.216671","longitude":"20.716669","country":"HU"},{"id":"715958","name":"Sajolad","latitude":"48.049999","longitude":"20.900000","country":"HU"},{"id":"715962","name":"Sajokaza","latitude":"48.283329","longitude":"20.583330","country":"HU"},{"id":"715970","name":"Sajobabony","latitude":"48.166672","longitude":"20.733330","country":"HU"},{"id":"715989","name":"Rudabanya","latitude":"48.383331","longitude":"20.633329","country":"HU"},{"id":"716028","name":"Roszke","latitude":"46.187962","longitude":"20.033720","country":"HU"},{"id":"716081","name":"Ricse","latitude":"48.325642","longitude":"21.970690","country":"HU"},{"id":"716151","name":"Recsk","latitude":"47.933331","longitude":"20.116671","country":"HU"},{"id":"716186","name":"Rakocziujfalu","latitude":"47.066669","longitude":"20.266670","country":"HU"},{"id":"716197","name":"Rakoczifalva","latitude":"47.083328","longitude":"20.233330","country":"HU"},{"id":"716204","name":"Rakamaz","latitude":"48.133331","longitude":"21.466669","country":"HU"},{"id":"716247","name":"Putnok","latitude":"48.299999","longitude":"20.433331","country":"HU"},{"id":"716301","name":"Puspokladany","latitude":"47.316669","longitude":"21.116671","country":"HU"},{"id":"716317","name":"Prugy","latitude":"48.083328","longitude":"21.250000","country":"HU"},{"id":"716339","name":"Poroszlo","latitude":"47.650002","longitude":"20.666670","country":"HU"},{"id":"716343","name":"Porcsalma","latitude":"47.883331","longitude":"22.566669","country":"HU"},{"id":"716356","name":"Polgar","latitude":"47.866669","longitude":"21.116671","country":"HU"},{"id":"716372","name":"Pocsaj","latitude":"47.283329","longitude":"21.816669","country":"HU"},{"id":"716437","name":"Petnehaza","latitude":"48.060841","longitude":"22.074850","country":"HU"},{"id":"716439","name":"Petervasara","latitude":"48.016670","longitude":"20.100000","country":"HU"},{"id":"716526","name":"Patroha","latitude":"48.166672","longitude":"22.000000","country":"HU"},{"id":"716559","name":"Parad","latitude":"47.923241","longitude":"20.029720","country":"HU"},{"id":"716671","name":"Ozd","latitude":"48.216671","longitude":"20.299999","country":"HU"},{"id":"716706","name":"Ostoros","latitude":"47.866669","longitude":"20.433331","country":"HU"},{"id":"716736","name":"Oroshaza","latitude":"46.566669","longitude":"20.666670","country":"HU"},{"id":"716791","name":"Opusztaszer","latitude":"46.485920","longitude":"20.087219","country":"HU"},{"id":"716793","name":"Opalyi","latitude":"47.997711","longitude":"22.326170","country":"HU"},{"id":"716796","name":"Onod","latitude":"48.000000","longitude":"20.916670","country":"HU"},{"id":"716799","name":"Onga","latitude":"48.116669","longitude":"20.916670","country":"HU"},{"id":"716844","name":"Okoritofulpos","latitude":"47.918621","longitude":"22.508101","country":"HU"},{"id":"716853","name":"Okany","latitude":"46.900002","longitude":"21.350000","country":"HU"},{"id":"716860","name":"Ofeherto","latitude":"47.933331","longitude":"22.049999","country":"HU"},{"id":"716864","name":"Ocsod","latitude":"46.900002","longitude":"20.400000","country":"HU"},{"id":"716889","name":"Nyirvasvari","latitude":"47.816669","longitude":"22.186831","country":"HU"},{"id":"716893","name":"Nyirtelek","latitude":"48.016670","longitude":"21.633329","country":"HU"},{"id":"716894","name":"Nyirtass","latitude":"48.116669","longitude":"22.033331","country":"HU"},{"id":"716899","name":"Nyirpazony","latitude":"47.983330","longitude":"21.799999","country":"HU"},{"id":"716903","name":"Nyirmihalydi","latitude":"47.739761","longitude":"21.964451","country":"HU"},{"id":"716905","name":"Nyirmeggyes","latitude":"47.916672","longitude":"22.266670","country":"HU"},{"id":"716906","name":"Nyirmartonfalva","latitude":"47.583328","longitude":"21.900000","country":"HU"},{"id":"716908","name":"Nyirmada","latitude":"48.066669","longitude":"22.200001","country":"HU"},{"id":"716909","name":"Nyirlugos","latitude":"47.693150","longitude":"22.044760","country":"HU"},{"id":"716913","name":"Nyirkarasz","latitude":"48.101669","longitude":"22.097940","country":"HU"},{"id":"716924","name":"Nyirgyulaj","latitude":"47.886219","longitude":"22.097811","country":"HU"},{"id":"716935","name":"Nyiregyhaza","latitude":"47.955391","longitude":"21.716709","country":"HU"},{"id":"716941","name":"Nyircsaholy","latitude":"47.903831","longitude":"22.336300","country":"HU"},{"id":"716943","name":"Nyirbogdany","latitude":"48.057232","longitude":"21.882420","country":"HU"},{"id":"716945","name":"Nyirbogat","latitude":"47.803398","longitude":"22.065611","country":"HU"},{"id":"716946","name":"Nyirbeltek","latitude":"47.700001","longitude":"22.133329","country":"HU"},{"id":"716948","name":"Nyirbator","latitude":"47.833328","longitude":"22.133329","country":"HU"},{"id":"716951","name":"Nyiradony","latitude":"47.697460","longitude":"21.918779","country":"HU"},{"id":"716952","name":"Nyiracsad","latitude":"47.603298","longitude":"21.972080","country":"HU"},{"id":"716954","name":"Nyirabrany","latitude":"47.553108","longitude":"22.024010","country":"HU"},{"id":"716968","name":"Nyekladhaza","latitude":"47.983330","longitude":"20.833330","country":"HU"},{"id":"717042","name":"Napkor","latitude":"47.937969","longitude":"21.867630","country":"HU"},{"id":"717130","name":"Nagyszenas","latitude":"46.683331","longitude":"20.666670","country":"HU"},{"id":"717172","name":"Nagyrabe","latitude":"47.200001","longitude":"21.333330","country":"HU"},{"id":"717281","name":"Nagykallo","latitude":"47.874908","longitude":"21.840820","country":"HU"},{"id":"717345","name":"Nagyhalasz","latitude":"48.133331","longitude":"21.766670","country":"HU"},{"id":"717397","name":"Nagyecsed","latitude":"47.865471","longitude":"22.391600","country":"HU"},{"id":"717400","name":"Nagydobos","latitude":"48.057590","longitude":"22.304239","country":"HU"},{"id":"717406","name":"Nagycserkesz","latitude":"47.966671","longitude":"21.533331","country":"HU"},{"id":"717449","name":"Nadudvar","latitude":"47.416672","longitude":"21.166670","country":"HU"},{"id":"717497","name":"Mucsony","latitude":"48.266670","longitude":"20.683331","country":"HU"},{"id":"717521","name":"Monostorpalyi","latitude":"47.400002","longitude":"21.783331","country":"HU"},{"id":"717582","name":"Miskolc","latitude":"48.099998","longitude":"20.783331","country":"HU"},{"id":"717591","name":"Mindszent","latitude":"46.523621","longitude":"20.190380","country":"HU"},{"id":"717616","name":"Mikepercs","latitude":"47.450001","longitude":"21.633329","country":"HU"},{"id":"717632","name":"Mezozombor","latitude":"48.150002","longitude":"21.266670","country":"HU"},{"id":"717635","name":"Mezotur","latitude":"47.000000","longitude":"20.633329","country":"HU"},{"id":"717652","name":"Mezokovesd","latitude":"47.816669","longitude":"20.583330","country":"HU"},{"id":"717656","name":"Mezokovacshaza","latitude":"46.400002","longitude":"20.916670","country":"HU"},{"id":"717658","name":"Mezokeresztes","latitude":"47.833328","longitude":"20.700001","country":"HU"},{"id":"717662","name":"Mezohegyes","latitude":"46.316669","longitude":"20.816669","country":"HU"},{"id":"717667","name":"Mezocsat","latitude":"47.816669","longitude":"20.916670","country":"HU"},{"id":"717669","name":"Mezobereny","latitude":"46.816669","longitude":"21.033331","country":"HU"},{"id":"717693","name":"Merk","latitude":"47.788239","longitude":"22.380381","country":"HU"},{"id":"717721","name":"Mehkerek","latitude":"46.783329","longitude":"21.450001","country":"HU"},{"id":"717726","name":"Megyaszo","latitude":"48.183331","longitude":"21.049999","country":"HU"},{"id":"717741","name":"Medgyesegyhaza","latitude":"46.500000","longitude":"21.033331","country":"HU"},{"id":"717758","name":"Matraderecske","latitude":"47.950001","longitude":"20.083330","country":"HU"},{"id":"717771","name":"Mateszalka","latitude":"47.955280","longitude":"22.323481","country":"HU"},{"id":"717805","name":"Maroslele","latitude":"46.266670","longitude":"20.350000","country":"HU"},{"id":"717825","name":"Mariapocs","latitude":"47.883018","longitude":"22.025021","country":"HU"},{"id":"717853","name":"Mandok","latitude":"48.321491","longitude":"22.191071","country":"HU"},{"id":"717861","name":"Malyi","latitude":"48.016670","longitude":"20.833330","country":"HU"},{"id":"717902","name":"Mako","latitude":"46.216671","longitude":"20.483330","country":"HU"},{"id":"717904","name":"Maklar","latitude":"47.799999","longitude":"20.416670","country":"HU"},{"id":"717943","name":"Magyarbanhegyes","latitude":"46.450001","longitude":"20.966669","country":"HU"},{"id":"717980","name":"Mad","latitude":"48.200001","longitude":"21.283331","country":"HU"},{"id":"718060","name":"Lokoshaza","latitude":"46.433331","longitude":"21.233330","country":"HU"},{"id":"718108","name":"Levelek","latitude":"47.962818","longitude":"21.985371","country":"HU"},{"id":"718113","name":"Letavertes","latitude":"47.383331","longitude":"21.900000","country":"HU"},{"id":"718312","name":"Kunszentmarton","latitude":"46.839161","longitude":"20.288790","country":"HU"},{"id":"718315","name":"Kunmadaras","latitude":"47.433331","longitude":"20.799999","country":"HU"},{"id":"718321","name":"Kunhegyes","latitude":"47.366669","longitude":"20.633329","country":"HU"},{"id":"718334","name":"Kunagota","latitude":"46.433331","longitude":"21.049999","country":"HU"},{"id":"718480","name":"Kotaj","latitude":"48.049999","longitude":"21.716669","country":"HU"},{"id":"718516","name":"Korostarcsa","latitude":"46.883331","longitude":"21.033331","country":"HU"},{"id":"718528","name":"Korosladany","latitude":"46.966671","longitude":"21.083330","country":"HU"},{"id":"718602","name":"Konyar","latitude":"47.316669","longitude":"21.666670","country":"HU"},{"id":"718615","name":"Kondoros","latitude":"46.766670","longitude":"20.799999","country":"HU"},{"id":"718618","name":"Kompolt","latitude":"47.733330","longitude":"20.250000","country":"HU"},{"id":"718637","name":"Komadi","latitude":"47.000000","longitude":"21.500000","country":"HU"},{"id":"718699","name":"Kocsord","latitude":"47.939121","longitude":"22.383329","country":"HU"},{"id":"718723","name":"Kiszombor","latitude":"46.183331","longitude":"20.433331","country":"HU"},{"id":"718739","name":"Kisvarda","latitude":"48.216671","longitude":"22.083330","country":"HU"},{"id":"718744","name":"Kisujszallas","latitude":"47.216671","longitude":"20.766670","country":"HU"},{"id":"718897","name":"Kisleta","latitude":"47.842442","longitude":"22.003929","country":"HU"},{"id":"718911","name":"Kiskore","latitude":"47.500000","longitude":"20.500000","country":"HU"},{"id":"719093","name":"Kevermes","latitude":"46.416672","longitude":"21.183331","country":"HU"},{"id":"719126","name":"Ketegyhaza","latitude":"46.533329","longitude":"21.183331","country":"HU"},{"id":"719211","name":"Kerecsend","latitude":"47.799999","longitude":"20.350000","country":"HU"},{"id":"719232","name":"Kengyel","latitude":"47.083328","longitude":"20.333330","country":"HU"},{"id":"719252","name":"Kenderes","latitude":"47.250000","longitude":"20.683331","country":"HU"},{"id":"719260","name":"Kemecse","latitude":"48.075321","longitude":"21.806250","country":"HU"},{"id":"719280","name":"Kek","latitude":"48.116669","longitude":"21.883329","country":"HU"},{"id":"719311","name":"Kazincbarcika","latitude":"48.250000","longitude":"20.633329","country":"HU"},{"id":"719346","name":"Kaszaper","latitude":"46.466671","longitude":"20.833330","country":"HU"},{"id":"719396","name":"Karcsa","latitude":"48.311298","longitude":"21.805370","country":"HU"},{"id":"719404","name":"Karcag","latitude":"47.316669","longitude":"20.933331","country":"HU"},{"id":"719419","name":"Karacsond","latitude":"47.729622","longitude":"20.030760","country":"HU"},{"id":"719466","name":"Kantorjanosi","latitude":"47.933331","longitude":"22.150000","country":"HU"},{"id":"719489","name":"Kalmanhaza","latitude":"47.883331","longitude":"21.583330","country":"HU"},{"id":"719493","name":"Kallosemjen","latitude":"47.860809","longitude":"21.939280","country":"HU"},{"id":"719511","name":"Kal","latitude":"47.733330","longitude":"20.266670","country":"HU"},{"id":"719555","name":"Kaba","latitude":"47.349998","longitude":"21.283331","country":"HU"},{"id":"719635","name":"Jaszszentandras","latitude":"47.583328","longitude":"20.183331","country":"HU"},{"id":"719640","name":"Jaszladany","latitude":"47.366669","longitude":"20.166670","country":"HU"},{"id":"719643","name":"Jaszkiser","latitude":"47.450001","longitude":"20.216669","country":"HU"},{"id":"719644","name":"Jaszkarajeno","latitude":"47.049999","longitude":"20.066669","country":"HU"},{"id":"719645","name":"Jaszjakohalma","latitude":"47.520378","longitude":"19.990860","country":"HU"},{"id":"719649","name":"Jaszdozsa","latitude":"47.566101","longitude":"20.015341","country":"HU"},{"id":"719655","name":"Jaszapati","latitude":"47.516670","longitude":"20.150000","country":"HU"},{"id":"719656","name":"Jaszalsoszentgyorgy","latitude":"47.366669","longitude":"20.100000","country":"HU"},{"id":"719668","name":"Jardanhaza","latitude":"48.150002","longitude":"20.250000","country":"HU"},{"id":"719678","name":"Janoshida","latitude":"47.383331","longitude":"20.066669","country":"HU"},{"id":"719806","name":"Ibrany","latitude":"48.133331","longitude":"21.716669","country":"HU"},{"id":"719843","name":"Hosszupalyi","latitude":"47.393028","longitude":"21.732800","country":"HU"},{"id":"719965","name":"Hodmezovasarhely","latitude":"46.416672","longitude":"20.333330","country":"HU"},{"id":"719967","name":"Hodasz","latitude":"47.918339","longitude":"22.201530","country":"HU"},{"id":"720006","name":"Heves","latitude":"47.599998","longitude":"20.283331","country":"HU"},{"id":"720026","name":"Hernadnemeti","latitude":"48.066669","longitude":"20.983330","country":"HU"},{"id":"720061","name":"Hejobaba","latitude":"47.900002","longitude":"20.950001","country":"HU"},{"id":"720149","name":"Harsany","latitude":"47.966671","longitude":"20.750000","country":"HU"},{"id":"720274","name":"Hajduszovat","latitude":"47.383331","longitude":"21.483330","country":"HU"},{"id":"720276","name":"Hajduszoboszlo","latitude":"47.450001","longitude":"21.400000","country":"HU"},{"id":"720280","name":"Hajdusamson","latitude":"47.599998","longitude":"21.766670","country":"HU"},{"id":"720284","name":"Hajdunanas","latitude":"47.849998","longitude":"21.433331","country":"HU"},{"id":"720287","name":"Hajduhadhaz","latitude":"47.683331","longitude":"21.666670","country":"HU"},{"id":"720290","name":"Hajdudorog","latitude":"47.816669","longitude":"21.500000","country":"HU"},{"id":"720292","name":"Hajduboszormeny","latitude":"47.666672","longitude":"21.516670","country":"HU"},{"id":"720295","name":"Hajdubagos","latitude":"47.392948","longitude":"21.665510","country":"HU"},{"id":"720330","name":"Gyulahaza","latitude":"48.133331","longitude":"22.116671","country":"HU"},{"id":"720334","name":"Gyula","latitude":"46.650002","longitude":"21.283331","country":"HU"},{"id":"720364","name":"Gyomaendrod","latitude":"46.933331","longitude":"20.833330","country":"HU"},{"id":"720480","name":"Gorbehaza","latitude":"47.833328","longitude":"21.233330","country":"HU"},{"id":"720494","name":"Gonc","latitude":"48.466671","longitude":"21.283331","country":"HU"},{"id":"720533","name":"Gesztely","latitude":"48.099998","longitude":"20.966669","country":"HU"},{"id":"720574","name":"Gegeny","latitude":"48.150002","longitude":"21.950001","country":"HU"},{"id":"720643","name":"Gadoros","latitude":"46.666672","longitude":"20.600000","country":"HU"},{"id":"720679","name":"Fuzesgyarmat","latitude":"47.099998","longitude":"21.216669","country":"HU"},{"id":"720687","name":"Fuzesabony","latitude":"47.750000","longitude":"20.416670","country":"HU"},{"id":"720776","name":"Foldes","latitude":"47.299999","longitude":"21.366671","country":"HU"},{"id":"720780","name":"Foldeak","latitude":"46.316669","longitude":"20.500000","country":"HU"},{"id":"720846","name":"Fenyeslitke","latitude":"48.271332","longitude":"22.100090","country":"HU"},{"id":"720857","name":"Felsozsolca","latitude":"48.099998","longitude":"20.866671","country":"HU"},{"id":"720862","name":"Felsotarkany","latitude":"47.966671","longitude":"20.416670","country":"HU"},{"id":"720988","name":"Fehergyarmat","latitude":"47.983330","longitude":"22.516670","country":"HU"},{"id":"720992","name":"Fegyvernek","latitude":"47.266670","longitude":"20.533331","country":"HU"},{"id":"721022","name":"Farkaslyuk","latitude":"48.183331","longitude":"20.316669","country":"HU"},{"id":"721068","name":"Fabiansebestyen","latitude":"46.683331","longitude":"20.466669","country":"HU"},{"id":"721119","name":"Erdotelek","latitude":"47.683331","longitude":"20.316669","country":"HU"},{"id":"721158","name":"Encsencs","latitude":"47.733330","longitude":"22.116671","country":"HU"},{"id":"721159","name":"Encs","latitude":"48.333328","longitude":"21.133329","country":"HU"},{"id":"721161","name":"Emod","latitude":"47.933331","longitude":"20.816669","country":"HU"},{"id":"721189","name":"Elek","latitude":"46.533329","longitude":"21.250000","country":"HU"},{"id":"721208","name":"Egyek","latitude":"47.633331","longitude":"20.900000","country":"HU"},{"id":"721225","name":"Egerszalok","latitude":"47.866669","longitude":"20.333330","country":"HU"},{"id":"721239","name":"Eger","latitude":"47.902649","longitude":"20.373289","country":"HU"},{"id":"721246","name":"Edeleny","latitude":"48.299999","longitude":"20.733330","country":"HU"},{"id":"721257","name":"Ebes","latitude":"47.466671","longitude":"21.500000","country":"HU"},{"id":"721304","name":"Domoszlo","latitude":"47.833328","longitude":"20.116671","country":"HU"},{"id":"721309","name":"Dombrad","latitude":"48.233330","longitude":"21.933331","country":"HU"},{"id":"721314","name":"Dombegyhaz","latitude":"46.333328","longitude":"21.133329","country":"HU"},{"id":"721316","name":"Domaszek","latitude":"46.249168","longitude":"20.011110","country":"HU"},{"id":"721338","name":"Doge","latitude":"48.262459","longitude":"22.063391","country":"HU"},{"id":"721349","name":"Doboz","latitude":"46.733330","longitude":"21.250000","country":"HU"},{"id":"721404","name":"Devavanya","latitude":"47.033329","longitude":"20.966669","country":"HU"},{"id":"721411","name":"Deszk","latitude":"46.218021","longitude":"20.243219","country":"HU"},{"id":"721428","name":"Derecske","latitude":"47.349998","longitude":"21.566669","country":"HU"},{"id":"721444","name":"Demecser","latitude":"48.111080","longitude":"21.917490","country":"HU"},{"id":"721472","name":"Debrecen","latitude":"47.533329","longitude":"21.633329","country":"HU"},{"id":"721559","name":"Csorvas","latitude":"46.633331","longitude":"20.833330","country":"HU"},{"id":"721592","name":"Csongrad","latitude":"46.713322","longitude":"20.142420","country":"HU"},{"id":"721611","name":"Csokmo","latitude":"47.033329","longitude":"21.299999","country":"HU"},{"id":"721712","name":"Cserkeszolo","latitude":"46.863201","longitude":"20.187010","country":"HU"},{"id":"721789","name":"Csenger","latitude":"47.835819","longitude":"22.680960","country":"HU"},{"id":"721856","name":"Csanytelek","latitude":"46.595001","longitude":"20.123421","country":"HU"},{"id":"721861","name":"Csanadpalota","latitude":"46.250000","longitude":"20.733330","country":"HU"},{"id":"721864","name":"Csanadapaca","latitude":"46.549999","longitude":"20.883329","country":"HU"},{"id":"721913","name":"Cigand","latitude":"48.255611","longitude":"21.891951","country":"HU"},{"id":"721923","name":"Cibakhaza","latitude":"46.959759","longitude":"20.197531","country":"HU"},{"id":"721986","name":"Buj","latitude":"48.099998","longitude":"21.650000","country":"HU"},{"id":"722011","name":"Bucsa","latitude":"47.200001","longitude":"21.000000","country":"HU"},{"id":"722057","name":"Borsodnadasd","latitude":"48.116669","longitude":"20.250000","country":"HU"},{"id":"722118","name":"Boldva","latitude":"48.216671","longitude":"20.799999","country":"HU"},{"id":"722133","name":"Bokony","latitude":"47.733330","longitude":"21.750000","country":"HU"},{"id":"722171","name":"Bogacs","latitude":"47.900002","longitude":"20.533331","country":"HU"},{"id":"722223","name":"Bocs","latitude":"48.049999","longitude":"20.966669","country":"HU"},{"id":"722278","name":"Biharnagybajom","latitude":"47.216671","longitude":"21.233330","country":"HU"},{"id":"722281","name":"Biharkeresztes","latitude":"47.133331","longitude":"21.716669","country":"HU"},{"id":"722300","name":"Besenyszog","latitude":"47.299999","longitude":"20.266670","country":"HU"},{"id":"722301","name":"Besenyotelek","latitude":"47.700001","longitude":"20.433331","country":"HU"},{"id":"722324","name":"Berettyoujfalu","latitude":"47.216671","longitude":"21.549999","country":"HU"},{"id":"722424","name":"Belapatfalva","latitude":"48.049999","longitude":"20.366671","country":"HU"},{"id":"722431","name":"Bekesszentandras","latitude":"46.866669","longitude":"20.483330","country":"HU"},{"id":"722432","name":"Bekessamson","latitude":"46.416672","longitude":"20.633329","country":"HU"},{"id":"722437","name":"Bekescsaba","latitude":"46.683331","longitude":"21.100000","country":"HU"},{"id":"722439","name":"Bekes","latitude":"46.766670","longitude":"21.133329","country":"HU"},{"id":"722448","name":"Bekecs","latitude":"48.150002","longitude":"21.183331","country":"HU"},{"id":"722477","name":"Battonya","latitude":"46.283329","longitude":"21.016670","country":"HU"},{"id":"722555","name":"Barand","latitude":"47.299999","longitude":"21.233330","country":"HU"},{"id":"722636","name":"Balmazujvaros","latitude":"47.616669","longitude":"21.350000","country":"HU"},{"id":"722650","name":"Balkany","latitude":"47.770660","longitude":"21.863140","country":"HU"},{"id":"722676","name":"Balastya","latitude":"46.422771","longitude":"20.008160","country":"HU"},{"id":"722682","name":"Baktaloranthaza","latitude":"48.000000","longitude":"22.083330","country":"HU"},{"id":"722691","name":"Baks","latitude":"46.542969","longitude":"20.102131","country":"HU"},{"id":"722738","name":"Bagamer","latitude":"47.448818","longitude":"21.989000","country":"HU"},{"id":"722775","name":"Aszalo","latitude":"48.216671","longitude":"20.966669","country":"HU"},{"id":"722802","name":"Arnot","latitude":"48.130581","longitude":"20.858320","country":"HU"},{"id":"722803","name":"Arlo","latitude":"48.183331","longitude":"20.266670","country":"HU"},{"id":"722823","name":"Aranyosapati","latitude":"48.205952","longitude":"22.259159","country":"HU"},{"id":"722849","name":"Apatfalva","latitude":"46.166672","longitude":"20.583330","country":"HU"},{"id":"722852","name":"Apagy","latitude":"47.964298","longitude":"21.935390","country":"HU"},{"id":"722872","name":"Andornaktalya","latitude":"47.849998","longitude":"20.416670","country":"HU"},{"id":"722876","name":"Anarcs","latitude":"48.176418","longitude":"22.111670","country":"HU"},{"id":"722882","name":"Alsozsolca","latitude":"48.069820","longitude":"20.880461","country":"HU"},{"id":"722973","name":"Alattyan","latitude":"47.427052","longitude":"20.042200","country":"HU"},{"id":"722998","name":"Ajak","latitude":"48.176640","longitude":"22.062731","country":"HU"},{"id":"723030","name":"Abony","latitude":"47.189899","longitude":"20.004761","country":"HU"},{"id":"723036","name":"Abaujszanto","latitude":"48.283329","longitude":"21.200001","country":"HU"},{"id":"723041","name":"Abasar","latitude":"47.797050","longitude":"20.003241","country":"HU"},{"id":"723044","name":"Abadszalok","latitude":"47.466671","longitude":"20.600000","country":"HU"},{"id":"3042441","name":"Zsombo","latitude":"46.325661","longitude":"19.974640","country":"HU"},{"id":"3042504","name":"Zsambok","latitude":"47.543812","longitude":"19.610479","country":"HU"},{"id":"3042507","name":"Zsambek","latitude":"47.548141","longitude":"18.720110","country":"HU"},{"id":"3042516","name":"Zomba","latitude":"46.410839","longitude":"18.565769","country":"HU"},{"id":"3042536","name":"Zirc","latitude":"47.263618","longitude":"17.873730","country":"HU"},{"id":"3042575","name":"Zamoly","latitude":"47.316669","longitude":"18.408100","country":"HU"},{"id":"3042580","name":"Zamardi","latitude":"46.884880","longitude":"17.953659","country":"HU"},{"id":"3042603","name":"Zalaszentgrot","latitude":"46.944740","longitude":"17.079250","country":"HU"},{"id":"3042617","name":"Zalalovo","latitude":"46.848019","longitude":"16.587500","country":"HU"},{"id":"3042621","name":"Zalakomar","latitude":"46.537960","longitude":"17.180941","country":"HU"},{"id":"3042638","name":"Zalaegerszeg","latitude":"46.840000","longitude":"16.843889","country":"HU"},{"id":"3042652","name":"Zakanyszek","latitude":"46.274529","longitude":"19.889750","country":"HU"},{"id":"3042661","name":"Zagyvaszanto","latitude":"47.777031","longitude":"19.670919","country":"HU"},{"id":"3042746","name":"Vonyarcvashegy","latitude":"46.757420","longitude":"17.311720","country":"HU"},{"id":"3042871","name":"Villany","latitude":"45.868889","longitude":"18.453890","country":"HU"},{"id":"3042929","name":"Veszprem","latitude":"47.093269","longitude":"17.911489","country":"HU"},{"id":"3042941","name":"Vertesszolos","latitude":"47.621059","longitude":"18.381300","country":"HU"},{"id":"3042956","name":"Veroce","latitude":"47.824680","longitude":"19.034840","country":"HU"},{"id":"3042968","name":"Veresegyhaz","latitude":"47.645901","longitude":"19.295361","country":"HU"},{"id":"3042977","name":"Vep","latitude":"47.230412","longitude":"16.722481","country":"HU"},{"id":"3042998","name":"Velence","latitude":"47.238548","longitude":"18.654840","country":"HU"},{"id":"3043019","name":"Vecses","latitude":"47.407051","longitude":"19.286480","country":"HU"},{"id":"3043033","name":"Vasvar","latitude":"47.049278","longitude":"16.799540","country":"HU"},{"id":"3043048","name":"Vaskut","latitude":"46.107819","longitude":"18.985140","country":"HU"},{"id":"3043095","name":"Varpalota","latitude":"47.199360","longitude":"18.139540","country":"HU"},{"id":"3043111","name":"Varosfoeld","latitude":"46.816738","longitude":"19.756680","country":"HU"},{"id":"3043210","name":"Vamosgyork","latitude":"47.684280","longitude":"19.929239","country":"HU"},{"id":"3043217","name":"Valko","latitude":"47.563911","longitude":"19.512671","country":"HU"},{"id":"3043224","name":"Val","latitude":"47.362640","longitude":"18.679310","country":"HU"},{"id":"3043278","name":"Vacszentlaszlo","latitude":"47.574001","longitude":"19.537710","country":"HU"},{"id":"3043293","name":"Vac","latitude":"47.775909","longitude":"19.136120","country":"HU"},{"id":"3043317","name":"Urom","latitude":"47.596741","longitude":"19.015829","country":"HU"},{"id":"3043318","name":"Urkut","latitude":"47.085049","longitude":"17.643930","country":"HU"},{"id":"3043321","name":"Uri","latitude":"47.414291","longitude":"19.527620","country":"HU"},{"id":"3043356","name":"Ullo","latitude":"47.387711","longitude":"19.355330","country":"HU"},{"id":"3043358","name":"Ulles","latitude":"46.336109","longitude":"19.844540","country":"HU"},{"id":"3043448","name":"Ujszilvas","latitude":"47.274769","longitude":"19.924770","country":"HU"},{"id":"3043581","name":"Ujhartyan","latitude":"47.219810","longitude":"19.386379","country":"HU"},{"id":"3043678","name":"Tura","latitude":"47.609241","longitude":"19.602791","country":"HU"},{"id":"3043758","name":"Tortel","latitude":"47.122089","longitude":"19.937140","country":"HU"},{"id":"3043778","name":"Toeroekbalint","latitude":"47.429310","longitude":"18.913561","country":"HU"},{"id":"3043820","name":"Tompa","latitude":"46.206051","longitude":"19.539101","country":"HU"},{"id":"3043832","name":"Toltestava","latitude":"47.626091","longitude":"17.733761","country":"HU"},{"id":"3043849","name":"Tolna","latitude":"46.426762","longitude":"18.782480","country":"HU"},{"id":"3043860","name":"Toekoel","latitude":"47.321781","longitude":"18.962490","country":"HU"},{"id":"3043865","name":"Tokod","latitude":"47.722771","longitude":"18.658890","country":"HU"},{"id":"3043887","name":"Toalmas","latitude":"47.507820","longitude":"19.666571","country":"HU"},{"id":"3043946","name":"Tet","latitude":"47.519218","longitude":"17.508020","country":"HU"},{"id":"3043984","name":"Tengelic","latitude":"46.528782","longitude":"18.711170","country":"HU"},{"id":"3044004","name":"Telki","latitude":"47.547901","longitude":"18.828159","country":"HU"},{"id":"3044062","name":"Tazlar","latitude":"46.548241","longitude":"19.514360","country":"HU"},{"id":"3044082","name":"Tatabanya","latitude":"47.584942","longitude":"18.393250","country":"HU"},{"id":"3044083","name":"Tata","latitude":"47.652889","longitude":"18.318380","country":"HU"},{"id":"3044084","name":"Tat","latitude":"47.741482","longitude":"18.648130","country":"HU"},{"id":"3044088","name":"Taszar","latitude":"46.374668","longitude":"17.905939","country":"HU"},{"id":"3044093","name":"Tass","latitude":"47.020950","longitude":"19.029881","country":"HU"},{"id":"3044103","name":"Tarnok","latitude":"47.373268","longitude":"18.845791","country":"HU"},{"id":"3044119","name":"Tarjan","latitude":"47.610420","longitude":"18.510700","country":"HU"},{"id":"3044131","name":"Tar","latitude":"47.953709","longitude":"19.746099","country":"HU"},{"id":"3044141","name":"Tapolca","latitude":"46.881519","longitude":"17.441170","country":"HU"},{"id":"3044144","name":"Taplanszentkereszt","latitude":"47.194962","longitude":"16.696131","country":"HU"},{"id":"3044147","name":"Tapioszolos","latitude":"47.302479","longitude":"19.851330","country":"HU"},{"id":"3044149","name":"Tapioszentmarton","latitude":"47.339901","longitude":"19.746481","country":"HU"},{"id":"3044151","name":"Tapioszele","latitude":"47.336090","longitude":"19.877239","country":"HU"},{"id":"3044153","name":"Tapioszecso","latitude":"47.450001","longitude":"19.609230","country":"HU"},{"id":"3044154","name":"Suelysap","latitude":"47.452061","longitude":"19.533689","country":"HU"},{"id":"3044156","name":"Tapiosag","latitude":"47.402000","longitude":"19.630470","country":"HU"},{"id":"3044160","name":"Tapiogyorgye","latitude":"47.335049","longitude":"19.952761","country":"HU"},{"id":"3044161","name":"Tapiobicske","latitude":"47.360958","longitude":"19.686090","country":"HU"},{"id":"3044171","name":"Tamasi","latitude":"46.633331","longitude":"18.283331","country":"HU"},{"id":"3044181","name":"Taksony","latitude":"47.329681","longitude":"19.066940","country":"HU"},{"id":"3044191","name":"Tahitotfalu","latitude":"47.750000","longitude":"19.100000","country":"HU"},{"id":"3044211","name":"Taborfalva","latitude":"47.099419","longitude":"19.478371","country":"HU"},{"id":"3044221","name":"Tab","latitude":"46.731350","longitude":"18.032009","country":"HU"},{"id":"3044227","name":"Szurdokpuspoki","latitude":"47.859230","longitude":"19.692181","country":"HU"},{"id":"3044305","name":"Szomod","latitude":"47.684921","longitude":"18.340611","country":"HU"},{"id":"3044310","name":"Szombathely","latitude":"47.230881","longitude":"16.621550","country":"HU"},{"id":"3044370","name":"Szodliget","latitude":"47.732590","longitude":"19.147490","country":"HU"},{"id":"3044371","name":"Szod","latitude":"47.724388","longitude":"19.170460","country":"HU"},{"id":"3044380","name":"Szob","latitude":"47.819210","longitude":"18.870199","country":"HU"},{"id":"3044469","name":"Szigetvar","latitude":"46.048649","longitude":"17.805540","country":"HU"},{"id":"3044470","name":"Szigetujfalu","latitude":"47.234169","longitude":"18.927460","country":"HU"},{"id":"3044475","name":"Szigetszentmiklos","latitude":"47.343819","longitude":"19.043350","country":"HU"},{"id":"3044487","name":"Szigethalom","latitude":"47.322281","longitude":"19.002621","country":"HU"},{"id":"3044492","name":"Szigetcsep","latitude":"47.264919","longitude":"18.970480","country":"HU"},{"id":"3044567","name":"Szentmartonkata","latitude":"47.454189","longitude":"19.701429","country":"HU"},{"id":"3044574","name":"Szentlorinckata","latitude":"47.519470","longitude":"19.752859","country":"HU"},{"id":"3044575","name":"Szentlorinc","latitude":"46.040161","longitude":"17.987190","country":"HU"},{"id":"3044600","name":"Szentkiralyszabadja","latitude":"47.057598","longitude":"17.970520","country":"HU"},{"id":"3044607","name":"Szentkiraly","latitude":"46.918919","longitude":"19.918461","country":"HU"},{"id":"3044669","name":"Szentgotthard","latitude":"46.952610","longitude":"16.273581","country":"HU"},{"id":"3044671","name":"Szentgalpuszta","latitude":"46.374790","longitude":"18.626011","country":"HU"},{"id":"3044681","name":"Szentendre","latitude":"47.669430","longitude":"19.075609","country":"HU"},{"id":"3044760","name":"Szekszard","latitude":"46.350140","longitude":"18.709049","country":"HU"},{"id":"3044774","name":"Szekesfehervar","latitude":"47.189949","longitude":"18.410339","country":"HU"},{"id":"3044800","name":"Szedres","latitude":"46.475510","longitude":"18.683050","country":"HU"},{"id":"3044809","name":"Szecseny","latitude":"48.080570","longitude":"19.520189","country":"HU"},{"id":"3044821","name":"Szazhalombatta","latitude":"47.325790","longitude":"18.921419","country":"HU"},{"id":"3044835","name":"Szaszvar","latitude":"46.276730","longitude":"18.375660","country":"HU"},{"id":"3044861","name":"Szarliget","latitude":"47.515808","longitude":"18.494801","country":"HU"},{"id":"3044909","name":"Szany","latitude":"47.464230","longitude":"17.304020","country":"HU"},{"id":"3044916","name":"Szank","latitude":"46.557129","longitude":"19.661030","country":"HU"},{"id":"3044941","name":"Szalkszentmarton","latitude":"46.975651","longitude":"19.011780","country":"HU"},{"id":"3044990","name":"Szada","latitude":"47.633331","longitude":"19.316669","country":"HU"},{"id":"3045017","name":"Szabadszallas","latitude":"46.875751","longitude":"19.223240","country":"HU"},{"id":"3045039","name":"Szabadbattyan","latitude":"47.119019","longitude":"18.368240","country":"HU"},{"id":"3045045","name":"Sutto","latitude":"47.758862","longitude":"18.448730","country":"HU"},{"id":"3045070","name":"Sumeg","latitude":"46.977032","longitude":"17.282089","country":"HU"},{"id":"3045076","name":"Sukosd","latitude":"46.281811","longitude":"18.995239","country":"HU"},{"id":"3045144","name":"Soskut","latitude":"47.406651","longitude":"18.822470","country":"HU"},{"id":"3045190","name":"Sopron","latitude":"47.685009","longitude":"16.590490","country":"HU"},{"id":"3045192","name":"Soponya","latitude":"47.014851","longitude":"18.453430","country":"HU"},{"id":"3045201","name":"Somoskoujfalu","latitude":"48.163738","longitude":"19.823030","country":"HU"},{"id":"3045212","name":"Somogyvar","latitude":"46.581402","longitude":"17.662889","country":"HU"},{"id":"3045294","name":"Solymar","latitude":"47.592461","longitude":"18.932119","country":"HU"},{"id":"3045298","name":"Soltvadkert","latitude":"46.578892","longitude":"19.393890","country":"HU"},{"id":"3045303","name":"Solt","latitude":"46.800671","longitude":"18.999929","country":"HU"},{"id":"3045332","name":"Siofok","latitude":"46.904121","longitude":"18.058001","country":"HU"},{"id":"3045341","name":"Simontornya","latitude":"46.754620","longitude":"18.554899","country":"HU"},{"id":"3045364","name":"Siklos","latitude":"45.854988","longitude":"18.297520","country":"HU"},{"id":"3045386","name":"Seregelyes","latitude":"47.110500","longitude":"18.565001","country":"HU"},{"id":"3045406","name":"Sellye","latitude":"45.872471","longitude":"17.847111","country":"HU"},{"id":"3045411","name":"Segesd","latitude":"46.341419","longitude":"17.351320","country":"HU"},{"id":"3045479","name":"Sasd","latitude":"46.255199","longitude":"18.107759","country":"HU"},{"id":"3045487","name":"Sarvar","latitude":"47.253948","longitude":"16.935249","country":"HU"},{"id":"3045493","name":"Sarszentmihaly","latitude":"47.153210","longitude":"18.338791","country":"HU"},{"id":"3045512","name":"Sarosd","latitude":"47.042728","longitude":"18.643570","country":"HU"},{"id":"3045530","name":"Sarkeresztur","latitude":"47.005402","longitude":"18.543909","country":"HU"},{"id":"3045542","name":"Sarisap","latitude":"47.676998","longitude":"18.679331","country":"HU"},{"id":"3045564","name":"Sarbogard","latitude":"46.886921","longitude":"18.620411","country":"HU"},{"id":"3045643","name":"Salgotarjan","latitude":"48.098721","longitude":"19.803030","country":"HU"},{"id":"3045688","name":"Ruzsa","latitude":"46.288059","longitude":"19.747141","country":"HU"},{"id":"3045704","name":"Rozsaszentmarton","latitude":"47.782001","longitude":"19.742100","country":"HU"},{"id":"3045758","name":"Romhany","latitude":"47.926182","longitude":"19.257231","country":"HU"},{"id":"3045846","name":"Retsag","latitude":"47.928162","longitude":"19.137199","country":"HU"},{"id":"3045884","name":"Repcelak","latitude":"47.421051","longitude":"17.017950","country":"HU"},{"id":"3045991","name":"Rajka","latitude":"47.996429","longitude":"17.198210","country":"HU"},{"id":"3046026","name":"Rackeve","latitude":"47.160950","longitude":"18.944780","country":"HU"},{"id":"3046027","name":"Rackeresztur","latitude":"47.273602","longitude":"18.833429","country":"HU"},{"id":"3046036","name":"Racalmas","latitude":"47.022629","longitude":"18.940559","country":"HU"},{"id":"3046056","name":"Rabapatona","latitude":"47.632240","longitude":"17.480040","country":"HU"},{"id":"3046073","name":"Pusztavam","latitude":"47.429482","longitude":"18.226480","country":"HU"},{"id":"3046087","name":"Pusztaszabolcs","latitude":"47.137180","longitude":"18.767040","country":"HU"},{"id":"3046230","name":"Pomaz","latitude":"47.642269","longitude":"19.027840","country":"HU"},{"id":"3046249","name":"Polgardi","latitude":"47.060989","longitude":"18.302000","country":"HU"},{"id":"3046336","name":"Pincehely","latitude":"46.680950","longitude":"18.439350","country":"HU"},{"id":"3046340","name":"Pilisvorosvar","latitude":"47.613861","longitude":"18.908930","country":"HU"},{"id":"3046343","name":"Pilisszentkereszt","latitude":"47.691429","longitude":"18.905029","country":"HU"},{"id":"3046344","name":"Pilisszentivan","latitude":"47.609638","longitude":"18.899401","country":"HU"},{"id":"3046345","name":"Pilisszanto","latitude":"47.669090","longitude":"18.887621","country":"HU"},{"id":"3046346","name":"Pilismarot","latitude":"47.784641","longitude":"18.875389","country":"HU"},{"id":"3046349","name":"Piliscsev","latitude":"47.679241","longitude":"18.818720","country":"HU"},{"id":"3046353","name":"Piliscsaba","latitude":"47.634171","longitude":"18.828859","country":"HU"},{"id":"3046354","name":"Pilisborosjeno","latitude":"47.607441","longitude":"18.993219","country":"HU"},{"id":"3046355","name":"Pilis","latitude":"47.289040","longitude":"19.548479","country":"HU"},{"id":"3046387","name":"Petofibanya","latitude":"47.779419","longitude":"19.705500","country":"HU"},{"id":"3046396","name":"Petfuerdo","latitude":"47.166672","longitude":"18.116671","country":"HU"},{"id":"3046409","name":"Peteri","latitude":"47.391041","longitude":"19.409809","country":"HU"},{"id":"3046456","name":"Perkata","latitude":"47.047009","longitude":"18.787340","country":"HU"},{"id":"3046487","name":"Perbal","latitude":"47.589569","longitude":"18.760990","country":"HU"},{"id":"3046488","name":"Per","latitude":"47.611530","longitude":"17.806320","country":"HU"},{"id":"3046505","name":"Pecsvarad","latitude":"46.160332","longitude":"18.423210","country":"HU"},{"id":"3046526","name":"Pecs","latitude":"46.083328","longitude":"18.233330","country":"HU"},{"id":"3046531","name":"Pecel","latitude":"47.489620","longitude":"19.341619","country":"HU"},{"id":"3046537","name":"Pazmand","latitude":"47.287552","longitude":"18.653561","country":"HU"},{"id":"3046546","name":"Paty","latitude":"47.517090","longitude":"18.828510","country":"HU"},{"id":"3046580","name":"Paszto","latitude":"47.920189","longitude":"19.698290","country":"HU"},{"id":"3046619","name":"Paradsasvar","latitude":"47.912601","longitude":"19.977091","country":"HU"},{"id":"3046686","name":"Papa","latitude":"47.330040","longitude":"17.467400","country":"HU"},{"id":"3046693","name":"Pannonhalma","latitude":"47.549461","longitude":"17.755350","country":"HU"},{"id":"3046700","name":"Pand","latitude":"47.353329","longitude":"19.635710","country":"HU"},{"id":"3046719","name":"Palmonostora","latitude":"46.624168","longitude":"19.951559","country":"HU"},{"id":"3046768","name":"Paks","latitude":"46.626480","longitude":"18.859619","country":"HU"},{"id":"3046769","name":"Pakozd","latitude":"47.213692","longitude":"18.533060","country":"HU"},{"id":"3046825","name":"Otteveny","latitude":"47.719460","longitude":"17.484739","country":"HU"},{"id":"3046856","name":"Osi","latitude":"47.147221","longitude":"18.188330","country":"HU"},{"id":"3046888","name":"Oroszlany","latitude":"47.486710","longitude":"18.312250","country":"HU"},{"id":"3046916","name":"Orkeny","latitude":"47.129910","longitude":"19.433241","country":"HU"},{"id":"3046940","name":"Orgovany","latitude":"46.750870","longitude":"19.472589","country":"HU"},{"id":"3047127","name":"Orbottyan","latitude":"47.687111","longitude":"19.282391","country":"HU"},{"id":"3047201","name":"Ocseny","latitude":"46.313702","longitude":"18.757490","country":"HU"},{"id":"3047206","name":"Ocsa","latitude":"47.299858","longitude":"19.230570","country":"HU"},{"id":"3047229","name":"Nyul","latitude":"47.590469","longitude":"17.689039","country":"HU"},{"id":"3047282","name":"Nyergesujfalu","latitude":"47.760269","longitude":"18.556940","country":"HU"},{"id":"3047309","name":"Nyarlorinc","latitude":"46.860168","longitude":"19.878361","country":"HU"},{"id":"3047316","name":"Nyaregyhaza","latitude":"47.261749","longitude":"19.501459","country":"HU"},{"id":"3047373","name":"Nemetker","latitude":"46.716370","longitude":"18.763109","country":"HU"},{"id":"3047386","name":"Nemesvamos","latitude":"47.055141","longitude":"17.874769","country":"HU"},{"id":"3047399","name":"Nemesnadudvar","latitude":"46.340500","longitude":"19.051149","country":"HU"},{"id":"3047443","name":"Naszaly","latitude":"47.703289","longitude":"18.257509","country":"HU"},{"id":"3047474","name":"dunaujvaros","latitude":"46.967369","longitude":"18.932880","country":"HU"},{"id":"3047509","name":"Nagytarcsa","latitude":"47.531281","longitude":"19.283430","country":"HU"},{"id":"3047574","name":"Nagyrede","latitude":"47.765430","longitude":"19.848190","country":"HU"},{"id":"3047606","name":"Nagyoroszi","latitude":"48.005032","longitude":"19.090500","country":"HU"},{"id":"3047619","name":"Nagymaros","latitude":"47.792801","longitude":"18.959841","country":"HU"},{"id":"3047622","name":"Nagymanyok","latitude":"46.279110","longitude":"18.454889","country":"HU"},{"id":"3047646","name":"Nagykovacsi","latitude":"47.650002","longitude":"19.016670","country":"HU"},{"id":"3047651","name":"Nagykoros","latitude":"47.034191","longitude":"19.778570","country":"HU"},{"id":"3047669","name":"Nagykata","latitude":"47.415138","longitude":"19.744101","country":"HU"},{"id":"3047679","name":"Nagykanizsa","latitude":"46.453468","longitude":"16.991039","country":"HU"},{"id":"3047689","name":"Nagyigmand","latitude":"47.640942","longitude":"18.081301","country":"HU"},{"id":"3047765","name":"Nagydorog","latitude":"46.627491","longitude":"18.655649","country":"HU"},{"id":"3047804","name":"Nagybaracska","latitude":"46.042480","longitude":"18.905899","country":"HU"},{"id":"3047811","name":"Nagybajom","latitude":"46.392319","longitude":"17.511471","country":"HU"},{"id":"3047819","name":"Nagyatad","latitude":"46.229610","longitude":"17.357880","country":"HU"},{"id":"3047871","name":"Murakeresztur","latitude":"46.364220","longitude":"16.881769","country":"HU"},{"id":"3047896","name":"Mosonmagyarovar","latitude":"47.867882","longitude":"17.269939","country":"HU"},{"id":"3047922","name":"Morahalom","latitude":"46.218060","longitude":"19.885099","country":"HU"},{"id":"3047927","name":"Mor","latitude":"47.377869","longitude":"18.203529","country":"HU"},{"id":"3047942","name":"Monor","latitude":"47.351330","longitude":"19.447340","country":"HU"},{"id":"3047967","name":"Mohacs","latitude":"45.993061","longitude":"18.683060","country":"HU"},{"id":"3047986","name":"Mogyorod","latitude":"47.597481","longitude":"19.240700","country":"HU"},{"id":"3048005","name":"Mocsa","latitude":"47.669991","longitude":"18.185049","country":"HU"},{"id":"3048094","name":"Mezoszilas","latitude":"46.811089","longitude":"18.477890","country":"HU"},{"id":"3048107","name":"Mezofalva","latitude":"46.931839","longitude":"18.771770","country":"HU"},{"id":"3048186","name":"Mende","latitude":"47.431320","longitude":"19.456280","country":"HU"},{"id":"3048194","name":"Melykut","latitude":"46.215092","longitude":"19.381020","country":"HU"},{"id":"3048281","name":"Matraverebely","latitude":"47.974209","longitude":"19.780491","country":"HU"},{"id":"3048282","name":"Matraterenye","latitude":"48.032669","longitude":"19.947620","country":"HU"},{"id":"3048291","name":"Matranovak","latitude":"48.038090","longitude":"19.982571","country":"HU"},{"id":"3048326","name":"Martonvasar","latitude":"47.316010","longitude":"18.790449","country":"HU"},{"id":"3048456","name":"Marcali","latitude":"46.584980","longitude":"17.411961","country":"HU"},{"id":"3048464","name":"Many","latitude":"47.533520","longitude":"18.656269","country":"HU"},{"id":"3048627","name":"Magocs","latitude":"46.349979","longitude":"18.232401","country":"HU"},{"id":"3048630","name":"Maglod","latitude":"47.442581","longitude":"19.364380","country":"HU"},{"id":"3048647","name":"Madocsa","latitude":"46.687901","longitude":"18.957911","country":"HU"},{"id":"3048657","name":"Madaras","latitude":"46.058701","longitude":"19.261209","country":"HU"},{"id":"3048713","name":"Lovasbereny","latitude":"47.309971","longitude":"18.551769","country":"HU"},{"id":"3048725","name":"Lorinci","latitude":"47.732948","longitude":"19.678671","country":"HU"},{"id":"3048762","name":"Liter","latitude":"47.101040","longitude":"18.004539","country":"HU"},{"id":"3048820","name":"Letenye","latitude":"46.433010","longitude":"16.725830","country":"HU"},{"id":"3048835","name":"Lepseny","latitude":"46.990360","longitude":"18.243580","country":"HU"},{"id":"3048847","name":"Lenti","latitude":"46.624031","longitude":"16.538630","country":"HU"},{"id":"3048852","name":"Lengyeltoti","latitude":"46.670132","longitude":"17.643980","country":"HU"},{"id":"3048888","name":"Lebeny","latitude":"47.735741","longitude":"17.390760","country":"HU"},{"id":"3048895","name":"Leanyfalu","latitude":"47.717781","longitude":"19.085850","country":"HU"},{"id":"3048963","name":"Lanycsok","latitude":"46.005428","longitude":"18.625259","country":"HU"},{"id":"3048984","name":"Lakitelek","latitude":"46.876011","longitude":"19.995041","country":"HU"},{"id":"3049002","name":"Lajosmizse","latitude":"47.021332","longitude":"19.561710","country":"HU"},{"id":"3049013","name":"Lajoskomarom","latitude":"46.841999","longitude":"18.337629","country":"HU"},{"id":"3049033","name":"Labod","latitude":"46.205349","longitude":"17.454189","country":"HU"},{"id":"3049036","name":"Labatlan","latitude":"47.747349","longitude":"18.496229","country":"HU"},{"id":"3049100","name":"Kunszentmiklos","latitude":"47.027000","longitude":"19.125750","country":"HU"},{"id":"3049111","name":"Kunfeherto","latitude":"46.360909","longitude":"19.414539","country":"HU"},{"id":"3049277","name":"Kozarmisleny","latitude":"46.029671","longitude":"18.292101","country":"HU"},{"id":"3049366","name":"Koszeg","latitude":"47.389221","longitude":"16.541000","country":"HU"},{"id":"3049377","name":"Kosd","latitude":"47.807911","longitude":"19.178209","country":"HU"},{"id":"3049421","name":"Kornye","latitude":"47.546680","longitude":"18.320801","country":"HU"},{"id":"3049430","name":"Kormend","latitude":"47.010960","longitude":"16.605961","country":"HU"},{"id":"3049491","name":"Kony","latitude":"47.630531","longitude":"17.357170","country":"HU"},{"id":"3049512","name":"Komlo","latitude":"46.192780","longitude":"18.264940","country":"HU"},{"id":"3049519","name":"Komarom","latitude":"47.743179","longitude":"18.119129","country":"HU"},{"id":"3049574","name":"Koka","latitude":"47.485519","longitude":"19.578760","country":"HU"},{"id":"3049630","name":"Kocser","latitude":"47.001652","longitude":"19.920670","country":"HU"},{"id":"3049631","name":"Kocs","latitude":"47.607498","longitude":"18.215170","country":"HU"},{"id":"3049719","name":"Kistelek","latitude":"46.472500","longitude":"19.979719","country":"HU"},{"id":"3049751","name":"Kisszallas","latitude":"46.280090","longitude":"19.489540","country":"HU"},{"id":"3049860","name":"Kislang","latitude":"46.957439","longitude":"18.388130","country":"HU"},{"id":"3049875","name":"Kiskunmajsa","latitude":"46.490280","longitude":"19.740000","country":"HU"},{"id":"3049878","name":"Kiskunlachaza","latitude":"47.188389","longitude":"19.009300","country":"HU"},{"id":"3049880","name":"Kiskunhalas","latitude":"46.434021","longitude":"19.484800","country":"HU"},{"id":"3049885","name":"Kiskunfelegyhaza","latitude":"46.712132","longitude":"19.844580","country":"HU"},{"id":"3049896","name":"Kiskoros","latitude":"46.621391","longitude":"19.285280","country":"HU"},{"id":"3050088","name":"Kisber","latitude":"47.502892","longitude":"18.036650","country":"HU"},{"id":"3050165","name":"Kimle","latitude":"47.817261","longitude":"17.366421","country":"HU"},{"id":"3050204","name":"Kethely","latitude":"46.646049","longitude":"17.393620","country":"HU"},{"id":"3050208","name":"Kesztolc","latitude":"47.712662","longitude":"18.801769","country":"HU"},{"id":"3050212","name":"Keszthely","latitude":"46.768120","longitude":"17.243170","country":"HU"},{"id":"3050290","name":"Kistarcsa","latitude":"47.547569","longitude":"19.262470","country":"HU"},{"id":"3050311","name":"Kerekegyhaza","latitude":"46.937222","longitude":"19.478060","country":"HU"},{"id":"3050406","name":"Kelebia","latitude":"46.196800","longitude":"19.616590","country":"HU"},{"id":"3050434","name":"Kecskemet","latitude":"46.906181","longitude":"19.691280","country":"HU"},{"id":"3050447","name":"Kecsked","latitude":"47.522980","longitude":"18.309389","country":"HU"},{"id":"3050454","name":"Kecel","latitude":"46.525280","longitude":"19.251940","country":"HU"},{"id":"3050459","name":"Kazar","latitude":"48.049519","longitude":"19.861429","country":"HU"},{"id":"3050475","name":"Katymar","latitude":"46.033981","longitude":"19.209351","country":"HU"},{"id":"3050526","name":"Kartal","latitude":"47.671329","longitude":"19.542000","country":"HU"},{"id":"3050572","name":"Karancslapujto","latitude":"48.150002","longitude":"19.733330","country":"HU"},{"id":"3050573","name":"Karancskeszi","latitude":"48.163528","longitude":"19.696859","country":"HU"},{"id":"3050594","name":"Kapuvar","latitude":"47.592239","longitude":"17.028860","country":"HU"},{"id":"3050616","name":"Kaposvar","latitude":"46.366669","longitude":"17.799999","country":"HU"},{"id":"3050627","name":"Kaposmero","latitude":"46.361671","longitude":"17.704000","country":"HU"},{"id":"3050647","name":"Kapolnasnyek","latitude":"47.240040","longitude":"18.675640","country":"HU"},{"id":"3050714","name":"Kaloz","latitude":"46.954639","longitude":"18.482590","country":"HU"},{"id":"3050719","name":"Kalocsa","latitude":"46.526390","longitude":"18.985830","country":"HU"},{"id":"3050750","name":"Kakucs","latitude":"47.242001","longitude":"19.364670","country":"HU"},{"id":"3050785","name":"Kadarkut","latitude":"46.236229","longitude":"17.620140","country":"HU"},{"id":"3050872","name":"Jobbagyi","latitude":"47.832378","longitude":"19.677620","country":"HU"},{"id":"3050901","name":"Jaszszentlaszlo","latitude":"46.566849","longitude":"19.760651","country":"HU"},{"id":"3050907","name":"Jaszbereny","latitude":"47.500000","longitude":"19.916670","country":"HU"},{"id":"3050909","name":"Jaszarokszallas","latitude":"47.642380","longitude":"19.980379","country":"HU"},{"id":"3050927","name":"Janossomorja","latitude":"47.786209","longitude":"17.136030","country":"HU"},{"id":"3050964","name":"Janoshaza","latitude":"47.119370","longitude":"17.165030","country":"HU"},{"id":"3050967","name":"Janoshalma","latitude":"46.298611","longitude":"19.325830","country":"HU"},{"id":"3051001","name":"Jak","latitude":"47.142502","longitude":"16.581480","country":"HU"},{"id":"3051016","name":"Izsak","latitude":"46.804539","longitude":"19.351721","country":"HU"},{"id":"3051035","name":"Ivancsa","latitude":"47.156700","longitude":"18.820299","country":"HU"},{"id":"3051077","name":"Isaszeg","latitude":"47.530109","longitude":"19.402050","country":"HU"},{"id":"3051100","name":"Iregszemcse","latitude":"46.692860","longitude":"18.185810","country":"HU"},{"id":"3051133","name":"Inarcs","latitude":"47.262001","longitude":"19.327000","country":"HU"},{"id":"3051187","name":"Iklad","latitude":"47.665340","longitude":"19.436100","country":"HU"},{"id":"3051280","name":"Hosszuheteny","latitude":"46.164139","longitude":"18.350771","country":"HU"},{"id":"3051324","name":"Hort","latitude":"47.690811","longitude":"19.789301","country":"HU"},{"id":"3051415","name":"Hogyesz","latitude":"46.496971","longitude":"18.418409","country":"HU"},{"id":"3051473","name":"Hidas","latitude":"46.256802","longitude":"18.495399","country":"HU"},{"id":"3051476","name":"Hevizgyoerk","latitude":"47.633331","longitude":"19.516670","country":"HU"},{"id":"3051477","name":"Heviz","latitude":"46.790310","longitude":"17.184080","country":"HU"},{"id":"3051499","name":"Hernad","latitude":"47.162380","longitude":"19.432949","country":"HU"},{"id":"3051512","name":"Herend","latitude":"47.133331","longitude":"17.750000","country":"HU"},{"id":"3051516","name":"Hered","latitude":"47.706379","longitude":"19.633141","country":"HU"},{"id":"3051520","name":"Hercegszanto","latitude":"45.950001","longitude":"18.939171","country":"HU"},{"id":"3051535","name":"Helvecia","latitude":"46.836609","longitude":"19.622511","country":"HU"},{"id":"3051621","name":"Hatvan","latitude":"47.666672","longitude":"19.683331","country":"HU"},{"id":"3051657","name":"Harta","latitude":"46.698460","longitude":"19.030531","country":"HU"},{"id":"3051718","name":"Harkany","latitude":"45.850021","longitude":"18.236679","country":"HU"},{"id":"3051822","name":"Halasztelek","latitude":"47.361729","longitude":"18.981190","country":"HU"},{"id":"3051829","name":"Halaszi","latitude":"47.889301","longitude":"17.326151","country":"HU"},{"id":"3051873","name":"Hajos","latitude":"46.398609","longitude":"19.120560","country":"HU"},{"id":"3051881","name":"Hajmasker","latitude":"47.145130","longitude":"18.019640","country":"HU"},{"id":"3051965","name":"Gyorujbarat","latitude":"47.606419","longitude":"17.648750","country":"HU"},{"id":"3051969","name":"Gyorszemere","latitude":"47.552559","longitude":"17.563560","country":"HU"},{"id":"3052009","name":"Gyor","latitude":"47.683331","longitude":"17.635120","country":"HU"},{"id":"3052013","name":"Gyonk","latitude":"46.556030","longitude":"18.476940","country":"HU"},{"id":"3052021","name":"Gyongyostarjan","latitude":"47.813690","longitude":"19.867241","country":"HU"},{"id":"3052023","name":"Gyongyossolymos","latitude":"47.817242","longitude":"19.936190","country":"HU"},{"id":"3052026","name":"Gyongyospata","latitude":"47.815048","longitude":"19.789240","country":"HU"},{"id":"3052035","name":"Gyongyoshalasz","latitude":"47.741611","longitude":"19.928761","country":"HU"},{"id":"3052040","name":"Gyongyos","latitude":"47.782570","longitude":"19.927999","country":"HU"},{"id":"3052045","name":"Gyomro","latitude":"47.427330","longitude":"19.401331","country":"HU"},{"id":"3052069","name":"Gyenesdias","latitude":"46.770580","longitude":"17.286600","country":"HU"},{"id":"3052101","name":"Gyal","latitude":"47.384491","longitude":"19.221399","country":"HU"},{"id":"3052208","name":"Gomba","latitude":"47.370949","longitude":"19.530569","country":"HU"},{"id":"3052236","name":"Godollo","latitude":"47.596569","longitude":"19.355150","country":"HU"},{"id":"3052241","name":"God","latitude":"47.683239","longitude":"19.134171","country":"HU"},{"id":"3052330","name":"Gencsapati","latitude":"47.284962","longitude":"16.595751","country":"HU"},{"id":"3052381","name":"Gardony","latitude":"47.209419","longitude":"18.636070","country":"HU"},{"id":"3052391","name":"Gara","latitude":"46.031940","longitude":"19.042780","country":"HU"},{"id":"3052417","name":"Galgamacsa","latitude":"47.695621","longitude":"19.387239","country":"HU"},{"id":"3052419","name":"Galgaheviz","latitude":"47.616669","longitude":"19.566669","country":"HU"},{"id":"3052500","name":"Fulopszallas","latitude":"46.820751","longitude":"19.237480","country":"HU"},{"id":"3052542","name":"Fot","latitude":"47.617699","longitude":"19.188700","country":"HU"},{"id":"3052545","name":"Forropuszta","latitude":"47.455040","longitude":"19.660000","country":"HU"},{"id":"3052553","name":"Forraskut","latitude":"46.365280","longitude":"19.909731","country":"HU"},{"id":"3052574","name":"Fonyod","latitude":"46.755520","longitude":"17.579451","country":"HU"},{"id":"3052639","name":"Fertoszentmiklos","latitude":"47.589958","longitude":"16.875170","country":"HU"},{"id":"3052640","name":"Fertorakos","latitude":"47.720169","longitude":"16.650400","country":"HU"},{"id":"3052645","name":"Fertod","latitude":"47.619469","longitude":"16.886761","country":"HU"},{"id":"3052749","name":"Felsoszentivan","latitude":"46.197128","longitude":"19.186859","country":"HU"},{"id":"3052786","name":"Felsopakony","latitude":"47.343281","longitude":"19.236980","country":"HU"},{"id":"3053073","name":"Farmos","latitude":"47.360668","longitude":"19.846189","country":"HU"},{"id":"3053109","name":"Farad","latitude":"47.606331","longitude":"17.200239","country":"HU"},{"id":"3053132","name":"Fadd","latitude":"46.464760","longitude":"18.819250","country":"HU"},{"id":"3053147","name":"Etyek","latitude":"47.447941","longitude":"18.753281","country":"HU"},{"id":"3053163","name":"Esztergom","latitude":"47.792801","longitude":"18.741480","country":"HU"},{"id":"3053199","name":"Ersekvadkert","latitude":"47.996189","longitude":"19.202311","country":"HU"},{"id":"3053203","name":"Ersekcsanad","latitude":"46.253521","longitude":"18.984570","country":"HU"},{"id":"3053253","name":"Erdokertes","latitude":"47.672611","longitude":"19.307859","country":"HU"},{"id":"3053281","name":"Erd","latitude":"47.394890","longitude":"18.913601","country":"HU"},{"id":"3053283","name":"Ercsi","latitude":"47.251942","longitude":"18.896231","country":"HU"},{"id":"3053297","name":"Enying","latitude":"46.930462","longitude":"18.242020","country":"HU"},{"id":"3053321","name":"Eloszallas","latitude":"46.830940","longitude":"18.834810","country":"HU"},{"id":"3053402","name":"Ecser","latitude":"47.443890","longitude":"19.324499","country":"HU"},{"id":"3053406","name":"Ecsed","latitude":"47.732670","longitude":"19.766960","country":"HU"},{"id":"3053423","name":"Dusnok","latitude":"46.390850","longitude":"18.962959","country":"HU"},{"id":"3053432","name":"Dunavecse","latitude":"46.914070","longitude":"18.974331","country":"HU"},{"id":"3053434","name":"Dunavarsany","latitude":"47.278591","longitude":"19.066170","country":"HU"},{"id":"3053438","name":"Dunaujvaros","latitude":"46.983330","longitude":"18.933331","country":"HU"},{"id":"3053450","name":"Dunaszentgyorgy","latitude":"46.528519","longitude":"18.817711","country":"HU"},{"id":"3053454","name":"Dunaszekcso","latitude":"46.086632","longitude":"18.758650","country":"HU"},{"id":"3053459","name":"Dunapataj","latitude":"46.644001","longitude":"18.996321","country":"HU"},{"id":"3053476","name":"Dunakeszi","latitude":"47.636398","longitude":"19.138639","country":"HU"},{"id":"3053485","name":"Dunaharaszti","latitude":"47.354500","longitude":"19.098221","country":"HU"},{"id":"3053489","name":"Dunafoldvar","latitude":"46.807999","longitude":"18.926380","country":"HU"},{"id":"3053495","name":"Dunabogdany","latitude":"47.790520","longitude":"19.041250","country":"HU"},{"id":"3053562","name":"Dorog","latitude":"47.720951","longitude":"18.736401","country":"HU"},{"id":"3053577","name":"Domsod","latitude":"47.090050","longitude":"19.011061","country":"HU"},{"id":"3053583","name":"Domony","latitude":"47.655521","longitude":"19.432289","country":"HU"},{"id":"3053590","name":"Dombovar","latitude":"46.376572","longitude":"18.136959","country":"HU"},{"id":"3053623","name":"Dobrokoz","latitude":"46.421780","longitude":"18.239519","country":"HU"},{"id":"3053682","name":"Diosjeno","latitude":"47.939678","longitude":"19.043171","country":"HU"},{"id":"3053684","name":"Diosd","latitude":"47.409500","longitude":"18.948980","country":"HU"},{"id":"3053712","name":"Devecser","latitude":"47.103161","longitude":"17.438021","country":"HU"},{"id":"3053760","name":"Delegyhaza","latitude":"47.241348","longitude":"19.090191","country":"HU"},{"id":"3053764","name":"Deg","latitude":"46.868069","longitude":"18.450420","country":"HU"},{"id":"3053768","name":"Decs","latitude":"46.284279","longitude":"18.760000","country":"HU"},{"id":"3053779","name":"Davod","latitude":"45.994999","longitude":"18.917219","country":"HU"},{"id":"3053809","name":"Dany","latitude":"47.520000","longitude":"19.544001","country":"HU"},{"id":"3053810","name":"Danszentmiklos","latitude":"47.214859","longitude":"19.546949","country":"HU"},{"id":"3053836","name":"Dabas","latitude":"47.185940","longitude":"19.310909","country":"HU"},{"id":"3053863","name":"Csurgo","latitude":"46.253139","longitude":"17.100599","country":"HU"},{"id":"3053918","name":"Csorna","latitude":"47.611549","longitude":"17.250120","country":"HU"},{"id":"3053971","name":"Csomor","latitude":"47.549999","longitude":"19.233330","country":"HU"},{"id":"3053986","name":"Csolnok","latitude":"47.691158","longitude":"18.716110","country":"HU"},{"id":"3054027","name":"Csobanka","latitude":"47.646370","longitude":"18.961889","country":"HU"},{"id":"3054144","name":"Cseteny","latitude":"47.318062","longitude":"17.992081","country":"HU"},{"id":"3054164","name":"Cserszegtomaj","latitude":"46.801651","longitude":"17.220961","country":"HU"},{"id":"3054260","name":"Csepreg","latitude":"47.400982","longitude":"16.708811","country":"HU"},{"id":"3054280","name":"Csengod","latitude":"46.715431","longitude":"19.268021","country":"HU"},{"id":"3054287","name":"Csengele","latitude":"46.542339","longitude":"19.863581","country":"HU"},{"id":"3054296","name":"Csemo","latitude":"47.117989","longitude":"19.690920","country":"HU"},{"id":"3054328","name":"Csavoly","latitude":"46.189171","longitude":"19.146669","country":"HU"},{"id":"3054352","name":"Csaszartoltes","latitude":"46.421940","longitude":"19.183611","country":"HU"},{"id":"3054359","name":"Csaszar","latitude":"47.498001","longitude":"18.142719","country":"HU"},{"id":"3054400","name":"Csany","latitude":"47.648289","longitude":"19.829720","country":"HU"},{"id":"3054434","name":"Csakvar","latitude":"47.391842","longitude":"18.465010","country":"HU"},{"id":"3054456","name":"Csabrendek","latitude":"47.013561","longitude":"17.291080","country":"HU"},{"id":"3054533","name":"Celldomolk","latitude":"47.257118","longitude":"17.150270","country":"HU"},{"id":"3054542","name":"Cegledbercel","latitude":"47.223701","longitude":"19.668280","country":"HU"},{"id":"3054543","name":"Cegled","latitude":"47.172661","longitude":"19.799520","country":"HU"},{"id":"3054547","name":"Cece","latitude":"46.770561","longitude":"18.628260","country":"HU"},{"id":"3054597","name":"Buk","latitude":"47.384861","longitude":"16.750650","country":"HU"},{"id":"3054600","name":"Bujak","latitude":"47.883518","longitude":"19.543810","country":"HU"},{"id":"3054606","name":"Bugyi","latitude":"47.227482","longitude":"19.146641","country":"HU"},{"id":"3054612","name":"Bugac","latitude":"46.687038","longitude":"19.680740","country":"HU"},{"id":"3054643","name":"Budapest","latitude":"47.498009","longitude":"19.039909","country":"HU"},{"id":"3054646","name":"Budaors","latitude":"47.461811","longitude":"18.958450","country":"HU"},{"id":"3054648","name":"Budakeszi","latitude":"47.510830","longitude":"18.927170","country":"HU"},{"id":"3054693","name":"Aszod","latitude":"47.651741","longitude":"19.478500","country":"HU"},{"id":"3054726","name":"Bosarkany","latitude":"47.688202","longitude":"17.250000","country":"HU"},{"id":"3054795","name":"Bordany","latitude":"46.318432","longitude":"19.923059","country":"HU"},{"id":"3054809","name":"Bonyhad","latitude":"46.299210","longitude":"18.530239","country":"HU"},{"id":"3054811","name":"Bony","latitude":"47.650002","longitude":"17.869770","country":"HU"},{"id":"3054828","name":"Boly","latitude":"45.967220","longitude":"18.518330","country":"HU"},{"id":"3054850","name":"Boldog","latitude":"47.602859","longitude":"19.688391","country":"HU"},{"id":"3054853","name":"Bolcske","latitude":"46.741020","longitude":"18.967360","country":"HU"},{"id":"3054863","name":"Bokod","latitude":"47.491859","longitude":"18.247431","country":"HU"},{"id":"3054874","name":"Bohonye","latitude":"46.413448","longitude":"17.380360","country":"HU"},{"id":"3054878","name":"Bogyiszlo","latitude":"46.386379","longitude":"18.829620","country":"HU"},{"id":"3054945","name":"Bodajk","latitude":"47.323521","longitude":"18.233120","country":"HU"},{"id":"3055030","name":"Bicske","latitude":"47.484192","longitude":"18.644039","country":"HU"},{"id":"3055038","name":"Biatorbagy","latitude":"47.470600","longitude":"18.818920","country":"HU"},{"id":"3055069","name":"Berzence","latitude":"46.209080","longitude":"17.148100","country":"HU"},{"id":"3055091","name":"Berhida","latitude":"47.111309","longitude":"18.129480","country":"HU"},{"id":"3055108","name":"Beremend","latitude":"45.791080","longitude":"18.432631","country":"HU"},{"id":"3055130","name":"Bercel","latitude":"47.870571","longitude":"19.407150","country":"HU"},{"id":"3055196","name":"Beled","latitude":"47.465939","longitude":"17.092939","country":"HU"},{"id":"3055255","name":"Becsehely","latitude":"46.447552","longitude":"16.777100","country":"HU"},{"id":"3055281","name":"Batya","latitude":"46.487999","longitude":"18.954189","country":"HU"},{"id":"3055287","name":"Batonyterenye","latitude":"47.969620","longitude":"19.840759","country":"HU"},{"id":"3055298","name":"Bataszek","latitude":"46.193729","longitude":"18.723070","country":"HU"},{"id":"3055368","name":"Barcs","latitude":"45.959999","longitude":"17.458611","country":"HU"},{"id":"3055410","name":"Baracska","latitude":"47.282249","longitude":"18.758539","country":"HU"},{"id":"3055414","name":"Baracs","latitude":"46.882019","longitude":"18.906580","country":"HU"},{"id":"3055497","name":"Balloszog","latitude":"46.862160","longitude":"19.570921","country":"HU"},{"id":"3055535","name":"Balatonszarszo","latitude":"46.829460","longitude":"17.824261","country":"HU"},{"id":"3055539","name":"Balatonszabadi","latitude":"46.893978","longitude":"18.137381","country":"HU"},{"id":"3055551","name":"Balatonlelle","latitude":"46.783180","longitude":"17.694981","country":"HU"},{"id":"3055556","name":"Balatonkenese","latitude":"47.040192","longitude":"18.106710","country":"HU"},{"id":"3055566","name":"Balatonfured","latitude":"46.961880","longitude":"17.871870","country":"HU"},{"id":"3055568","name":"Balatonfoldvar","latitude":"46.852551","longitude":"17.881229","country":"HU"},{"id":"3055584","name":"Balatonboglar","latitude":"46.775249","longitude":"17.644140","country":"HU"},{"id":"3055590","name":"Balatonalmadi","latitude":"47.035259","longitude":"18.020760","country":"HU"},{"id":"3055601","name":"Balassagyarmat","latitude":"48.072960","longitude":"19.296141","country":"HU"},{"id":"3055623","name":"Bakonyszentlaszlo","latitude":"47.389011","longitude":"17.803209","country":"HU"},{"id":"3055644","name":"Bakonycsernye","latitude":"47.323952","longitude":"18.075090","country":"HU"},{"id":"3055674","name":"Bajna","latitude":"47.653999","longitude":"18.597200","country":"HU"},{"id":"3055685","name":"Baja","latitude":"46.174961","longitude":"18.956390","country":"HU"},{"id":"3055686","name":"Baj","latitude":"47.645931","longitude":"18.364100","country":"HU"},{"id":"3055721","name":"Bag","latitude":"47.633331","longitude":"19.483330","country":"HU"},{"id":"3055730","name":"Badacsonytomaj","latitude":"46.807110","longitude":"17.513849","country":"HU"},{"id":"3055757","name":"Bacsbokod","latitude":"46.125000","longitude":"19.156210","country":"HU"},{"id":"3055760","name":"Bacsalmas","latitude":"46.126480","longitude":"19.332600","country":"HU"},{"id":"3055772","name":"Babolna","latitude":"47.643608","longitude":"17.977980","country":"HU"},{"id":"3055827","name":"Asvanyraro","latitude":"47.827332","longitude":"17.494181","country":"HU"},{"id":"3055835","name":"Asotthalom","latitude":"46.198750","longitude":"19.783340","country":"HU"},{"id":"3055896","name":"Apostag","latitude":"46.882080","longitude":"18.962099","country":"HU"},{"id":"3055901","name":"Apc","latitude":"47.794189","longitude":"19.694290","country":"HU"},{"id":"3056108","name":"Alsonemedi","latitude":"47.315239","longitude":"19.158430","country":"HU"},{"id":"3056290","name":"Almasfuzito","latitude":"47.727520","longitude":"18.261530","country":"HU"},{"id":"3056326","name":"Albertirsa","latitude":"47.243149","longitude":"19.616859","country":"HU"},{"id":"3056331","name":"Alap","latitude":"46.799141","longitude":"18.689381","country":"HU"},{"id":"3056347","name":"Akaszto","latitude":"46.691669","longitude":"19.204229","country":"HU"},{"id":"3056357","name":"Ajka","latitude":"47.101959","longitude":"17.558920","country":"HU"},{"id":"3056380","name":"Agfalva","latitude":"47.689911","longitude":"16.516581","country":"HU"},{"id":"3056414","name":"Adony","latitude":"47.119400","longitude":"18.864929","country":"HU"},{"id":"3056418","name":"Adand","latitude":"46.859310","longitude":"18.164419","country":"HU"},{"id":"3056424","name":"Adacs","latitude":"47.692101","longitude":"19.976959","country":"HU"},{"id":"3056437","name":"Acs","latitude":"47.712311","longitude":"18.011311","country":"HU"},{"id":"3056445","name":"Abda","latitude":"47.694641","longitude":"17.544880","country":"HU"},{"id":"3056450","name":"Aba","latitude":"47.029072","longitude":"18.521721","country":"HU"},{"id":"3338787","name":"Tiszaalpar","latitude":"46.812790","longitude":"19.998409","country":"HU"},{"id":"7284823","name":"Budapest XII. keruelet","latitude":"47.491920","longitude":"19.014931","country":"HU"},{"id":"7284824","name":"Budapest XI. keruelet","latitude":"47.476028","longitude":"19.036051","country":"HU"},{"id":"7284825","name":"Budapest IX. keruelet","latitude":"47.482990","longitude":"19.065910","country":"HU"},{"id":"7284826","name":"Budapest VIII. keruelet","latitude":"47.489189","longitude":"19.070120","country":"HU"},{"id":"7284827","name":"Budapest VII. keruelet","latitude":"47.500450","longitude":"19.068750","country":"HU"},{"id":"7284828","name":"Budapest VI. keruelet","latitude":"47.503689","longitude":"19.065830","country":"HU"},{"id":"7284829","name":"Budapest XIV. keruelet","latitude":"47.518299","longitude":"19.107889","country":"HU"},{"id":"7284830","name":"Budapest XIII. keruelet","latitude":"47.529781","longitude":"19.080681","country":"HU"},{"id":"7284831","name":"Budapest IV. keruelet","latitude":"47.561821","longitude":"19.089090","country":"HU"},{"id":"7284832","name":"Budapest XV. keruelet","latitude":"47.562630","longitude":"19.116810","country":"HU"},{"id":"7284833","name":"Budapest XVI. keruelet","latitude":"47.514820","longitude":"19.170280","country":"HU"},{"id":"7284834","name":"Budapest X. keruelet","latitude":"47.479099","longitude":"19.158350","country":"HU"},{"id":"7284835","name":"Budapest XIX. keruelet","latitude":"47.452930","longitude":"19.149429","country":"HU"},{"id":"7284836","name":"Budapest XVIII. keruelet","latitude":"47.444172","longitude":"19.175949","country":"HU"},{"id":"7284837","name":"Budapest XXIII. keruelet","latitude":"47.397881","longitude":"19.114920","country":"HU"},{"id":"7284838","name":"Budapest XXII. keruelet","latitude":"47.426979","longitude":"19.040159","country":"HU"},{"id":"7284839","name":"Budapest XXI. keruelet","latitude":"47.430470","longitude":"19.070980","country":"HU"},{"id":"7284840","name":"Budapest XX. keruelet","latitude":"47.436741","longitude":"19.100929","country":"HU"},{"id":"7284841","name":"Budapest XVII. keruelet","latitude":"47.479969","longitude":"19.253880","country":"HU"},{"id":"7284842","name":"Budapest III. keruelet","latitude":"47.541569","longitude":"19.045010","country":"HU"},{"id":"7284843","name":"Budapest II. keruelet","latitude":"47.512909","longitude":"19.031839","country":"HU"},{"id":"7284844","name":"Budapest I. keruelet","latitude":"47.497051","longitude":"19.039610","country":"HU"},{"id":"7284899","name":"Algyo","latitude":"46.334721","longitude":"20.208490","country":"HU"},{"id":"7284903","name":"Kismaros","latitude":"47.837421","longitude":"19.004629","country":"HU"},{"id":"7284910","name":"Mosonszentmiklos","latitude":"47.727779","longitude":"17.427839","country":"HU"},{"id":"7284912","name":"Kerepes","latitude":"47.560081","longitude":"19.282890","country":"HU"}]