[{"id":"2562247","name":"Marsaxlokk","latitude":"35.841942","longitude":"14.543060","country":"MT"},{"id":"2562250","name":"Zurrieq","latitude":"35.831108","longitude":"14.474170","country":"MT"},{"id":"2562258","name":"Zejtun","latitude":"35.855831","longitude":"14.533060","country":"MT"},{"id":"2562261","name":"Zebbug","latitude":"35.871941","longitude":"14.441110","country":"MT"},{"id":"2562266","name":"Zabbar","latitude":"35.876110","longitude":"14.535000","country":"MT"},{"id":"2562274","name":"Xewkija","latitude":"36.032780","longitude":"14.258060","country":"MT"},{"id":"2562280","name":"Xaghra","latitude":"36.049999","longitude":"14.264440","country":"MT"},{"id":"2562305","name":"Valletta","latitude":"35.899719","longitude":"14.514720","country":"MT"},{"id":"2562349","name":"Tarxien","latitude":"35.865829","longitude":"14.515000","country":"MT"},{"id":"2562501","name":"Sliema","latitude":"35.912498","longitude":"14.501940","country":"MT"},{"id":"2562504","name":"Siggiewi","latitude":"35.855560","longitude":"14.436390","country":"MT"},{"id":"2562518","name":"Santa Venera","latitude":"35.890831","longitude":"14.474170","country":"MT"},{"id":"2562529","name":"Santa Lucija","latitude":"35.862782","longitude":"14.507500","country":"MT"},{"id":"2562541","name":"San Pawl il-Bahar","latitude":"35.950642","longitude":"14.415610","country":"MT"},{"id":"2562557","name":"San Giljan","latitude":"35.918388","longitude":"14.489770","country":"MT"},{"id":"2562617","name":"Paola","latitude":"35.873058","longitude":"14.498890","country":"MT"},{"id":"2562619","name":"Victoria","latitude":"36.044441","longitude":"14.239720","country":"MT"},{"id":"2562620","name":"Rabat","latitude":"35.874168","longitude":"14.394150","country":"MT"},{"id":"2562622","name":"Qrendi","latitude":"35.834721","longitude":"14.458330","country":"MT"},{"id":"2562629","name":"Qormi","latitude":"35.876011","longitude":"14.472000","country":"MT"},{"id":"2562683","name":"Naxxar","latitude":"35.913609","longitude":"14.443610","country":"MT"},{"id":"2562687","name":"Nadur","latitude":"36.037781","longitude":"14.294170","country":"MT"},{"id":"2562698","name":"Imsida","latitude":"35.892502","longitude":"14.482780","country":"MT"},{"id":"2562701","name":"Mqabba","latitude":"35.847630","longitude":"14.468240","country":"MT"},{"id":"2562704","name":"Mosta","latitude":"35.909168","longitude":"14.425560","country":"MT"},{"id":"2562734","name":"Mgarr","latitude":"36.025280","longitude":"14.295000","country":"MT"},{"id":"2562735","name":"Imgarr","latitude":"35.920559","longitude":"14.366390","country":"MT"},{"id":"2562744","name":"Mellieha","latitude":"35.956390","longitude":"14.362220","country":"MT"},{"id":"2562755","name":"Marsa","latitude":"35.879169","longitude":"14.495280","country":"MT"},{"id":"2562788","name":"Luqa","latitude":"35.858891","longitude":"14.488610","country":"MT"},{"id":"2562792","name":"Senglea","latitude":"35.887501","longitude":"14.516940","country":"MT"},{"id":"2562800","name":"L-Iklin","latitude":"35.904140","longitude":"14.454150","country":"MT"},{"id":"2562801","name":"Lija","latitude":"35.900558","longitude":"14.446390","country":"MT"},{"id":"2562815","name":"Kirkop","latitude":"35.842220","longitude":"14.485280","country":"MT"},{"id":"2562830","name":"Kalkara","latitude":"35.889172","longitude":"14.532780","country":"MT"},{"id":"2562850","name":"Swieqi","latitude":"35.922501","longitude":"14.480000","country":"MT"},{"id":"2562946","name":"Gzira","latitude":"35.905830","longitude":"14.488060","country":"MT"},{"id":"2562955","name":"Floriana","latitude":"35.895828","longitude":"14.508330","country":"MT"},{"id":"2562966","name":"Vittoriosa","latitude":"35.892220","longitude":"14.518330","country":"MT"},{"id":"2562998","name":"Hamrun","latitude":"35.884720","longitude":"14.484440","country":"MT"},{"id":"2563020","name":"Gudja","latitude":"35.849171","longitude":"14.503060","country":"MT"},{"id":"2563046","name":"Ghaxaq","latitude":"35.848888","longitude":"14.516670","country":"MT"},{"id":"2563062","name":"Gharghur","latitude":"35.924171","longitude":"14.451940","country":"MT"},{"id":"2563115","name":"Fgura","latitude":"35.870281","longitude":"14.513330","country":"MT"},{"id":"2563140","name":"Dingli","latitude":"35.861389","longitude":"14.382220","country":"MT"},{"id":"2563181","name":"Cospicua","latitude":"35.885559","longitude":"14.527500","country":"MT"},{"id":"2563189","name":"Birzebbuga","latitude":"35.825829","longitude":"14.526940","country":"MT"},{"id":"2563191","name":"Birkirkara","latitude":"35.897221","longitude":"14.461110","country":"MT"},{"id":"2563217","name":"Balzan","latitude":"35.900280","longitude":"14.455000","country":"MT"},{"id":"2563232","name":"Attard","latitude":"35.889721","longitude":"14.442500","country":"MT"},{"id":"2567539","name":"Saint John","latitude":"35.905560","longitude":"14.476110","country":"MT"}]