[{"id":"174706","name":"Yenikend","latitude":"39.906109","longitude":"44.731709","country":"AM"},{"id":"174710","name":"Yeghegnadzor","latitude":"39.763889","longitude":"45.332390","country":"AM"},{"id":"174713","name":"Vostan","latitude":"39.965149","longitude":"44.559368","country":"AM"},{"id":"174714","name":"Vosketap","latitude":"39.881142","longitude":"44.649170","country":"AM"},{"id":"174717","name":"Verishen","latitude":"39.535568","longitude":"46.312210","country":"AM"},{"id":"174725","name":"Vedi","latitude":"39.914211","longitude":"44.722172","country":"AM"},{"id":"174726","name":"Vayk","latitude":"39.691002","longitude":"45.466530","country":"AM"},{"id":"174743","name":"Tegh","latitude":"39.557919","longitude":"46.477230","country":"AM"},{"id":"174755","name":"Surenavan","latitude":"39.750000","longitude":"44.799999","country":"AM"},{"id":"174769","name":"Shinuhayr","latitude":"39.436699","longitude":"46.317871","country":"AM"},{"id":"174775","name":"Shahumyan","latitude":"39.938450","longitude":"44.569729","country":"AM"},{"id":"174823","name":"Meghri","latitude":"38.902920","longitude":"46.244579","country":"AM"},{"id":"174828","name":"Malishka","latitude":"39.737579","longitude":"45.390041","country":"AM"},{"id":"174849","name":"Khndzoresk","latitude":"39.512241","longitude":"46.432838","country":"AM"},{"id":"174875","name":"Kapan","latitude":"39.207539","longitude":"46.405762","country":"AM"},{"id":"174884","name":"Jermuk","latitude":"39.841728","longitude":"45.672298","country":"AM"},{"id":"174895","name":"Goris","latitude":"39.512878","longitude":"46.338161","country":"AM"},{"id":"174904","name":"Gladzor","latitude":"39.781231","longitude":"45.350430","country":"AM"},{"id":"174931","name":"Dalar","latitude":"39.976528","longitude":"44.526489","country":"AM"},{"id":"174940","name":"Burastan","latitude":"39.983330","longitude":"44.500000","country":"AM"},{"id":"174942","name":"Brrnakot","latitude":"39.497421","longitude":"45.972408","country":"AM"},{"id":"174964","name":"Aygezard","latitude":"39.954361","longitude":"44.602299","country":"AM"},{"id":"174968","name":"Aygavan","latitude":"39.873260","longitude":"44.669842","country":"AM"},{"id":"174969","name":"Avshar","latitude":"39.853600","longitude":"44.679298","country":"AM"},{"id":"174972","name":"Hatsavan","latitude":"39.464050","longitude":"45.970470","country":"AM"},{"id":"174979","name":"Artashat","latitude":"39.961441","longitude":"44.544472","country":"AM"},{"id":"174983","name":"Armash","latitude":"39.765320","longitude":"44.809021","country":"AM"},{"id":"174991","name":"Ararat","latitude":"39.831661","longitude":"44.704891","country":"AM"},{"id":"175002","name":"Aghavnadzor","latitude":"39.782219","longitude":"45.227531","country":"AM"},{"id":"175007","name":"Agarak","latitude":"39.206841","longitude":"46.544601","country":"AM"},{"id":"391233","name":"Aralek","latitude":"39.901951","longitude":"44.651402","country":"AM"},{"id":"616034","name":"Zovuni","latitude":"40.510830","longitude":"44.428890","country":"AM"},{"id":"616052","name":"Yerevan","latitude":"40.181110","longitude":"44.513611","country":"AM"},{"id":"616056","name":"Yeranos","latitude":"40.204281","longitude":"45.192089","country":"AM"},{"id":"616062","name":"Ejmiatsin","latitude":"40.165569","longitude":"44.294621","country":"AM"},{"id":"616065","name":"Yeghvard","latitude":"40.320530","longitude":"44.481380","country":"AM"},{"id":"616071","name":"Voskevaz","latitude":"40.276779","longitude":"44.295090","country":"AM"},{"id":"616094","name":"Verin Getashen","latitude":"40.133282","longitude":"45.250679","country":"AM"},{"id":"616100","name":"Verin Artashat","latitude":"39.990459","longitude":"44.585461","country":"AM"},{"id":"616101","name":"Verin Akhtala","latitude":"41.168381","longitude":"44.758110","country":"AM"},{"id":"616108","name":"Vardenis","latitude":"40.182720","longitude":"45.731098","country":"AM"},{"id":"616109","name":"Vardenik","latitude":"40.139278","longitude":"45.433418","country":"AM"},{"id":"616119","name":"Vaghashen","latitude":"40.135780","longitude":"45.328789","country":"AM"},{"id":"616136","name":"Tsovinar","latitude":"40.157009","longitude":"45.461319","country":"AM"},{"id":"616137","name":"Tsovazard","latitude":"40.470901","longitude":"45.058788","country":"AM"},{"id":"616138","name":"Tsovak","latitude":"40.182541","longitude":"45.632858","country":"AM"},{"id":"616139","name":"Tsovagyugh","latitude":"40.630291","longitude":"44.957378","country":"AM"},{"id":"616174","name":"Tazagyugh","latitude":"40.138199","longitude":"45.190960","country":"AM"},{"id":"616178","name":"Tashir","latitude":"41.120720","longitude":"44.284618","country":"AM"},{"id":"616187","name":"Talin","latitude":"40.384281","longitude":"43.873871","country":"AM"},{"id":"616199","name":"Spitak","latitude":"40.832199","longitude":"44.267300","country":"AM"},{"id":"616211","name":"Solak","latitude":"40.464390","longitude":"44.707958","country":"AM"},{"id":"616220","name":"Shnogh","latitude":"41.146931","longitude":"44.840431","country":"AM"},{"id":"616250","name":"Sevan","latitude":"40.548401","longitude":"44.948681","country":"AM"},{"id":"616255","name":"Sarukhan","latitude":"40.290531","longitude":"45.130589","country":"AM"},{"id":"616278","name":"Samaghar","latitude":"40.185162","longitude":"44.243309","country":"AM"},{"id":"616290","name":"Pshatavan","latitude":"40.038651","longitude":"44.066292","country":"AM"},{"id":"616291","name":"Prroshyan","latitude":"40.248531","longitude":"44.416309","country":"AM"},{"id":"616303","name":"Pemzashen","latitude":"40.585098","longitude":"43.940208","country":"AM"},{"id":"616320","name":"Oshakan","latitude":"40.264599","longitude":"44.314560","country":"AM"},{"id":"616328","name":"Hoktember","latitude":"40.132061","longitude":"44.009689","country":"AM"},{"id":"616330","name":"Odzun","latitude":"41.053211","longitude":"44.613411","country":"AM"},{"id":"616333","name":"Noyemberyan","latitude":"41.172440","longitude":"44.999168","country":"AM"},{"id":"616341","name":"Nor Geghi","latitude":"40.321049","longitude":"44.580269","country":"AM"},{"id":"616350","name":"Norashen","latitude":"39.999599","longitude":"44.589520","country":"AM"},{"id":"616359","name":"Norakert","latitude":"40.192291","longitude":"44.347740","country":"AM"},{"id":"616361","name":"Noratus","latitude":"40.375469","longitude":"45.177181","country":"AM"},{"id":"616375","name":"Nerkin Getashen","latitude":"40.140461","longitude":"45.278999","country":"AM"},{"id":"616385","name":"Nalbandyan","latitude":"40.062359","longitude":"43.986900","country":"AM"},{"id":"616400","name":"Mrgashat","latitude":"40.124619","longitude":"44.065842","country":"AM"},{"id":"616403","name":"Mosesgegh","latitude":"40.905708","longitude":"45.486370","country":"AM"},{"id":"616410","name":"Mets Parni","latitude":"40.833351","longitude":"44.110420","country":"AM"},{"id":"616411","name":"Mets Masrik","latitude":"40.218250","longitude":"45.768089","country":"AM"},{"id":"616412","name":"Mets Mantash","latitude":"40.643761","longitude":"44.056530","country":"AM"},{"id":"616416","name":"Metsavan","latitude":"41.201561","longitude":"44.228771","country":"AM"},{"id":"616417","name":"Metsamor","latitude":"40.073021","longitude":"44.289619","country":"AM"},{"id":"616418","name":"Mertsavan","latitude":"40.181400","longitude":"44.400318","country":"AM"},{"id":"616424","name":"Meghradzor","latitude":"40.606110","longitude":"44.651470","country":"AM"},{"id":"616435","name":"Masis","latitude":"40.067619","longitude":"44.435909","country":"AM"},{"id":"616438","name":"Martuni","latitude":"40.137680","longitude":"45.304501","country":"AM"},{"id":"616441","name":"Marmarashen","latitude":"40.057339","longitude":"44.470119","country":"AM"},{"id":"616445","name":"Margahovit","latitude":"40.733810","longitude":"44.684738","country":"AM"},{"id":"616446","name":"Maralik","latitude":"40.574532","longitude":"43.868622","country":"AM"},{"id":"616464","name":"Lukashin","latitude":"40.175831","longitude":"44.018608","country":"AM"},{"id":"616471","name":"Lichk","latitude":"40.159328","longitude":"45.234669","country":"AM"},{"id":"616480","name":"Lerrnanist","latitude":"40.466759","longitude":"44.792488","country":"AM"},{"id":"616484","name":"Khoronk","latitude":"40.135071","longitude":"44.245411","country":"AM"},{"id":"616488","name":"Lchashen","latitude":"40.517570","longitude":"44.931900","country":"AM"},{"id":"616492","name":"Lanjaghbyur","latitude":"40.271461","longitude":"45.140381","country":"AM"},{"id":"616523","name":"Kosh","latitude":"40.299992","longitude":"44.155842","country":"AM"},{"id":"616530","name":"Vanadzor","latitude":"40.804562","longitude":"44.493900","country":"AM"},{"id":"616554","name":"Kasakh","latitude":"40.536968","longitude":"44.410461","country":"AM"},{"id":"616572","name":"Karchaghbyur","latitude":"40.170479","longitude":"45.577850","country":"AM"},{"id":"616573","name":"Karbi","latitude":"40.332359","longitude":"44.376652","country":"AM"},{"id":"616576","name":"Karanlukh","latitude":"40.104439","longitude":"45.289719","country":"AM"},{"id":"616593","name":"Kanakerravan","latitude":"40.247391","longitude":"44.535110","country":"AM"},{"id":"616599","name":"Gavarr","latitude":"40.353981","longitude":"45.123859","country":"AM"},{"id":"616627","name":"Ijevan","latitude":"40.878319","longitude":"45.149220","country":"AM"},{"id":"616629","name":"Hrazdan","latitude":"40.497478","longitude":"44.766201","country":"AM"},{"id":"616631","name":"Armavir","latitude":"40.154461","longitude":"44.038151","country":"AM"},{"id":"616632","name":"Hayanist","latitude":"40.121658","longitude":"44.375229","country":"AM"},{"id":"616634","name":"Haghartsin","latitude":"40.776138","longitude":"44.968472","country":"AM"},{"id":"616635","name":"Gyumri","latitude":"40.794201","longitude":"43.845280","country":"AM"},{"id":"616639","name":"Gyulagarak","latitude":"40.967152","longitude":"44.471439","country":"AM"},{"id":"616645","name":"Ghukasavan","latitude":"40.125851","longitude":"44.415939","country":"AM"},{"id":"616648","name":"Gugark","latitude":"40.804600","longitude":"44.540249","country":"AM"},{"id":"616668","name":"Getazat","latitude":"40.038441","longitude":"44.563690","country":"AM"},{"id":"616669","name":"Getashen","latitude":"40.044048","longitude":"43.942032","country":"AM"},{"id":"616682","name":"Geghanist","latitude":"40.144932","longitude":"44.430538","country":"AM"},{"id":"616697","name":"Garrni","latitude":"40.119308","longitude":"44.734421","country":"AM"},{"id":"616712","name":"Dzoraghbyur","latitude":"40.204121","longitude":"44.641499","country":"AM"},{"id":"616716","name":"Dzoragyugh","latitude":"40.169571","longitude":"45.183361","country":"AM"},{"id":"616722","name":"Jrashen","latitude":"40.790279","longitude":"44.186642","country":"AM"},{"id":"616735","name":"Janfida","latitude":"40.043911","longitude":"44.023338","country":"AM"},{"id":"616741","name":"Dvin","latitude":"40.019840","longitude":"44.583759","country":"AM"},{"id":"616742","name":"Dsegh","latitude":"40.961700","longitude":"44.650028","country":"AM"},{"id":"616752","name":"Dilijan","latitude":"40.741032","longitude":"44.863621","country":"AM"},{"id":"616757","name":"Ddmashen","latitude":"40.569721","longitude":"44.818508","country":"AM"},{"id":"616769","name":"Dalarik","latitude":"40.226639","longitude":"43.875381","country":"AM"},{"id":"616786","name":"Chambarak","latitude":"40.596550","longitude":"45.354980","country":"AM"},{"id":"616789","name":"Bjni","latitude":"40.455898","longitude":"44.648121","country":"AM"},{"id":"616790","name":"Byureghavan","latitude":"40.314850","longitude":"44.593960","country":"AM"},{"id":"616791","name":"Byurakan","latitude":"40.338001","longitude":"44.271381","country":"AM"},{"id":"616802","name":"Berd","latitude":"40.881489","longitude":"45.389851","country":"AM"},{"id":"616823","name":"Bambakashat","latitude":"40.109928","longitude":"44.016079","country":"AM"},{"id":"616824","name":"Balahovit","latitude":"40.253731","longitude":"44.604259","country":"AM"},{"id":"616828","name":"Bagratashen","latitude":"41.243580","longitude":"44.817371","country":"AM"},{"id":"616835","name":"Azatan","latitude":"40.719589","longitude":"43.827271","country":"AM"},{"id":"616849","name":"Aygestan","latitude":"40.002579","longitude":"44.559052","country":"AM"},{"id":"616853","name":"Aknalich","latitude":"40.143150","longitude":"44.149799","country":"AM"},{"id":"616855","name":"Aygehovit","latitude":"40.979511","longitude":"45.250332","country":"AM"},{"id":"616874","name":"Astghadzor","latitude":"40.122478","longitude":"45.356979","country":"AM"},{"id":"616877","name":"Ashtarak","latitude":"40.299099","longitude":"44.362041","country":"AM"},{"id":"616881","name":"Arzni","latitude":"40.296261","longitude":"44.596642","country":"AM"},{"id":"616882","name":"Arzakan","latitude":"40.449970","longitude":"44.606480","country":"AM"},{"id":"616888","name":"Arteni","latitude":"40.298481","longitude":"43.762199","country":"AM"},{"id":"616898","name":"Arshaluys","latitude":"40.168400","longitude":"44.213749","country":"AM"},{"id":"616902","name":"Armavir","latitude":"40.086578","longitude":"44.053631","country":"AM"},{"id":"616912","name":"Argel","latitude":"40.379429","longitude":"44.598282","country":"AM"},{"id":"616914","name":"Argavand","latitude":"40.060970","longitude":"44.094742","country":"AM"},{"id":"616916","name":"Arevshat","latitude":"40.039631","longitude":"44.541790","country":"AM"},{"id":"616918","name":"Arevik","latitude":"40.099449","longitude":"44.091270","country":"AM"},{"id":"616920","name":"Arevashogh","latitude":"40.860390","longitude":"44.274380","country":"AM"},{"id":"616936","name":"Aramus","latitude":"40.250950","longitude":"44.663509","country":"AM"},{"id":"616944","name":"Aragats","latitude":"40.488869","longitude":"44.352791","country":"AM"},{"id":"616953","name":"Aparan","latitude":"40.593231","longitude":"44.358898","country":"AM"},{"id":"616974","name":"Alaverdi","latitude":"41.097660","longitude":"44.673161","country":"AM"},{"id":"616982","name":"Akunk","latitude":"40.158859","longitude":"45.725681","country":"AM"},{"id":"616989","name":"Akhuryan","latitude":"40.780029","longitude":"43.900269","country":"AM"},{"id":"617002","name":"Aghavnatun","latitude":"40.232380","longitude":"44.249741","country":"AM"},{"id":"617026","name":"Abovyan","latitude":"40.267410","longitude":"44.626560","country":"AM"},{"id":"793693","name":"Nshavan","latitude":"40.027870","longitude":"44.525650","country":"AM"},{"id":"799614","name":"Norabats","latitude":"40.105679","longitude":"44.429878","country":"AM"},{"id":"823723","name":"Berdavan","latitude":"41.205029","longitude":"44.999668","country":"AM"},{"id":"823745","name":"Shirakamut","latitude":"40.860561","longitude":"44.152779","country":"AM"},{"id":"823749","name":"Getahovit","latitude":"40.897820","longitude":"45.139240","country":"AM"},{"id":"823755","name":"Artsvaberd","latitude":"40.833611","longitude":"45.471111","country":"AM"},{"id":"823793","name":"Nor Sasunik","latitude":"40.248692","longitude":"44.339569","country":"AM"},{"id":"823797","name":"Kamaris","latitude":"40.235390","longitude":"44.694592","country":"AM"},{"id":"823800","name":"Gandzak","latitude":"40.314720","longitude":"45.111389","country":"AM"},{"id":"823802","name":"Myasnikyan","latitude":"40.177502","longitude":"43.906391","country":"AM"},{"id":"823808","name":"Gay","latitude":"40.083889","longitude":"44.305561","country":"AM"},{"id":"823809","name":"Baghramyan","latitude":"40.193439","longitude":"44.368320","country":"AM"},{"id":"823810","name":"Musalerr","latitude":"40.153931","longitude":"44.378941","country":"AM"},{"id":"823811","name":"Darakert","latitude":"40.105469","longitude":"44.413342","country":"AM"},{"id":"823818","name":"Artsvanist","latitude":"40.154442","longitude":"45.502220","country":"AM"},{"id":"859714","name":"Vardadzor","latitude":"40.187012","longitude":"45.192120","country":"AM"},{"id":"866091","name":"Hovtashat","latitude":"40.103279","longitude":"44.338909","country":"AM"},{"id":"866093","name":"Voskehat","latitude":"40.141579","longitude":"44.329182","country":"AM"},{"id":"866137","name":"Mrgavet","latitude":"40.027790","longitude":"44.482521","country":"AM"}]