[{"id":"2610095","name":"Vodskov","latitude":"57.108540","longitude":"10.022150","country":"DK"},{"id":"2610140","name":"Vissenbjerg","latitude":"55.384819","longitude":"10.137840","country":"DK"},{"id":"2610159","name":"Virklund","latitude":"56.132179","longitude":"9.555820","country":"DK"},{"id":"2610162","name":"Vipperod","latitude":"55.667679","longitude":"11.739670","country":"DK"},{"id":"2610189","name":"Vindinge","latitude":"55.622978","longitude":"12.138700","country":"DK"},{"id":"2610207","name":"Vindeby","latitude":"55.044891","longitude":"10.613090","country":"DK"},{"id":"2610307","name":"Videbaek","latitude":"56.087601","longitude":"8.628520","country":"DK"},{"id":"2610311","name":"Viby","latitude":"55.548721","longitude":"12.023910","country":"DK"},{"id":"2610319","name":"Viborg","latitude":"56.453190","longitude":"9.402010","country":"DK"},{"id":"2610437","name":"Vester Hassing","latitude":"57.067669","longitude":"10.125580","country":"DK"},{"id":"2610499","name":"Vestbjerg","latitude":"57.131660","longitude":"9.959420","country":"DK"},{"id":"2610566","name":"Vekso","latitude":"55.754730","longitude":"12.238370","country":"DK"},{"id":"2610613","name":"Vejle","latitude":"55.709270","longitude":"9.535700","country":"DK"},{"id":"2610789","name":"Vallensbaek","latitude":"55.633331","longitude":"12.366670","country":"DK"},{"id":"2610823","name":"Vadum","latitude":"57.117901","longitude":"9.857000","country":"DK"},{"id":"2610942","name":"Ullerslev","latitude":"55.361721","longitude":"10.651900","country":"DK"},{"id":"2611132","name":"Tune","latitude":"55.595280","longitude":"12.183190","country":"DK"},{"id":"2611189","name":"Trorod","latitude":"55.839458","longitude":"12.544320","country":"DK"},{"id":"2611256","name":"Trige","latitude":"56.252911","longitude":"10.148400","country":"DK"},{"id":"2611316","name":"Tranbjerg","latitude":"56.090099","longitude":"10.119370","country":"DK"},{"id":"2611486","name":"Torring","latitude":"55.849998","longitude":"9.483330","country":"DK"},{"id":"2611509","name":"Tollose","latitude":"55.612499","longitude":"11.770340","country":"DK"},{"id":"2611565","name":"Toftlund","latitude":"55.188580","longitude":"9.069250","country":"DK"},{"id":"2611738","name":"Thyboron","latitude":"56.698460","longitude":"8.212380","country":"DK"},{"id":"2611742","name":"Thuro By","latitude":"55.047401","longitude":"10.663850","country":"DK"},{"id":"2611817","name":"Taulov","latitude":"55.545818","longitude":"9.615530","country":"DK"},{"id":"2611828","name":"Taastrup","latitude":"55.651730","longitude":"12.292160","country":"DK"},{"id":"2611862","name":"Tarnby","latitude":"55.630299","longitude":"12.600350","country":"DK"},{"id":"2611982","name":"Svogerslev","latitude":"55.634232","longitude":"12.014650","country":"DK"},{"id":"2611999","name":"Svinninge","latitude":"55.721111","longitude":"11.465470","country":"DK"},{"id":"2612045","name":"Svendborg","latitude":"55.059818","longitude":"10.606770","country":"DK"},{"id":"2612053","name":"Svejbaek","latitude":"56.132549","longitude":"9.632890","country":"DK"},{"id":"2612057","name":"Svebolle","latitude":"55.651829","longitude":"11.286580","country":"DK"},{"id":"2612107","name":"Sunds","latitude":"56.204170","longitude":"9.012660","country":"DK"},{"id":"2612121","name":"Sundby","latitude":"54.863998","longitude":"11.793020","country":"DK"},{"id":"2612192","name":"Stubbekobing","latitude":"54.888748","longitude":"12.041020","country":"DK"},{"id":"2612211","name":"Stroby Egede","latitude":"55.413818","longitude":"12.245020","country":"DK"},{"id":"2612224","name":"Strib","latitude":"55.540211","longitude":"9.767480","country":"DK"},{"id":"2612274","name":"Strandby","latitude":"57.491501","longitude":"10.496080","country":"DK"},{"id":"2612301","name":"Storvorde","latitude":"57.003922","longitude":"10.101250","country":"DK"},{"id":"2612411","name":"Store Heddinge","latitude":"55.309650","longitude":"12.388850","country":"DK"},{"id":"2612541","name":"Stilling","latitude":"56.062241","longitude":"9.988220","country":"DK"},{"id":"2612552","name":"Stige","latitude":"55.439411","longitude":"10.409400","country":"DK"},{"id":"2612629","name":"Stenlose","latitude":"55.768280","longitude":"12.197230","country":"DK"},{"id":"2612633","name":"Stenlille","latitude":"55.540218","longitude":"11.591460","country":"DK"},{"id":"2612689","name":"Stege","latitude":"54.987041","longitude":"12.284610","country":"DK"},{"id":"2612695","name":"Stavtrup","latitude":"56.131241","longitude":"10.119870","country":"DK"},{"id":"2612710","name":"Stavnsholt","latitude":"55.814789","longitude":"12.405450","country":"DK"},{"id":"2612730","name":"Starup","latitude":"55.240971","longitude":"9.535030","country":"DK"},{"id":"2612823","name":"Spentrup","latitude":"56.537029","longitude":"10.037920","country":"DK"},{"id":"2612862","name":"Soro","latitude":"55.431839","longitude":"11.555470","country":"DK"},{"id":"2612955","name":"Sonderso","latitude":"55.485260","longitude":"10.255400","country":"DK"},{"id":"2613102","name":"Sonderborg","latitude":"54.909260","longitude":"9.807370","country":"DK"},{"id":"2613172","name":"Soften","latitude":"56.238010","longitude":"10.085100","country":"DK"},{"id":"2613233","name":"Solrod Strand","latitude":"55.532848","longitude":"12.222270","country":"DK"},{"id":"2613234","name":"Solrod","latitude":"55.536282","longitude":"12.182700","country":"DK"},{"id":"2613254","name":"Solbjerg","latitude":"56.042709","longitude":"10.086310","country":"DK"},{"id":"2613293","name":"Snoghoj","latitude":"55.522530","longitude":"9.721250","country":"DK"},{"id":"2613322","name":"Snejbjerg","latitude":"56.138748","longitude":"8.898960","country":"DK"},{"id":"2613345","name":"Smorumnedre","latitude":"55.742321","longitude":"12.302760","country":"DK"},{"id":"2613451","name":"Slangerup","latitude":"55.849998","longitude":"12.183330","country":"DK"},{"id":"2613460","name":"Slagelse","latitude":"55.402760","longitude":"11.354590","country":"DK"},{"id":"2613621","name":"Skovby","latitude":"56.153400","longitude":"9.956950","country":"DK"},{"id":"2613694","name":"Skaelskor","latitude":"55.250580","longitude":"11.293520","country":"DK"},{"id":"2613731","name":"Skive","latitude":"56.566669","longitude":"9.033330","country":"DK"},{"id":"2613766","name":"Skibby","latitude":"55.751221","longitude":"11.960830","country":"DK"},{"id":"2613939","name":"Skagen","latitude":"57.720928","longitude":"10.583940","country":"DK"},{"id":"2614030","name":"Silkeborg","latitude":"56.169701","longitude":"9.545080","country":"DK"},{"id":"2614135","name":"Seden","latitude":"55.426479","longitude":"10.442650","country":"DK"},{"id":"2614172","name":"Saeby","latitude":"57.331879","longitude":"10.522510","country":"DK"},{"id":"2614328","name":"Sakskobing","latitude":"54.799702","longitude":"11.625990","country":"DK"},{"id":"2614343","name":"Sabro","latitude":"56.213329","longitude":"10.034410","country":"DK"},{"id":"2614432","name":"Rudkobing","latitude":"54.936390","longitude":"10.710190","country":"DK"},{"id":"2614481","name":"Roskilde","latitude":"55.641521","longitude":"12.080350","country":"DK"},{"id":"2614547","name":"Ronnede","latitude":"55.257099","longitude":"12.021240","country":"DK"},{"id":"2614553","name":"Ronne","latitude":"55.100910","longitude":"14.706640","country":"DK"},{"id":"2614565","name":"Ronde","latitude":"56.301449","longitude":"10.475060","country":"DK"},{"id":"2614600","name":"Rodovre","latitude":"55.680618","longitude":"12.453730","country":"DK"},{"id":"2614623","name":"Rodding","latitude":"55.365688","longitude":"9.063160","country":"DK"},{"id":"2614624","name":"Rodbyhavn","latitude":"54.654419","longitude":"11.352030","country":"DK"},{"id":"2614626","name":"Rodby","latitude":"54.694950","longitude":"11.388850","country":"DK"},{"id":"2614764","name":"Ringsted","latitude":"55.442600","longitude":"11.790110","country":"DK"},{"id":"2614790","name":"Ringe","latitude":"55.245060","longitude":"10.470650","country":"DK"},{"id":"2615006","name":"Randers","latitude":"56.466671","longitude":"10.050000","country":"DK"},{"id":"2615089","name":"Praesto","latitude":"55.117771","longitude":"12.057270","country":"DK"},{"id":"2615222","name":"Pandrup","latitude":"57.221470","longitude":"9.675690","country":"DK"},{"id":"2615351","name":"Otterup","latitude":"55.515270","longitude":"10.397560","country":"DK"},{"id":"2615359","name":"Osted","latitude":"55.562279","longitude":"11.957860","country":"DK"},{"id":"2615730","name":"Olstykke","latitude":"55.795670","longitude":"12.155090","country":"DK"},{"id":"2615859","name":"Oksbol","latitude":"55.626801","longitude":"8.287570","country":"DK"},{"id":"2615876","name":"Odense","latitude":"55.395939","longitude":"10.388310","country":"DK"},{"id":"2615886","name":"Odder","latitude":"55.973129","longitude":"10.153000","country":"DK"},{"id":"2615932","name":"Nyrad","latitude":"55.005112","longitude":"11.960600","country":"DK"},{"id":"2615961","name":"Nykobing Falster","latitude":"54.769058","longitude":"11.874250","country":"DK"},{"id":"2615962","name":"Nykobing Sjaelland","latitude":"55.924911","longitude":"11.671090","country":"DK"},{"id":"2615964","name":"Nykobing Mors","latitude":"56.793339","longitude":"8.852820","country":"DK"},{"id":"2616015","name":"Nyborg","latitude":"55.312740","longitude":"10.789640","country":"DK"},{"id":"2616038","name":"Naestved","latitude":"55.229919","longitude":"11.760920","country":"DK"},{"id":"2616172","name":"Nordby","latitude":"55.446030","longitude":"8.397860","country":"DK"},{"id":"2616176","name":"Nordborg","latitude":"55.057320","longitude":"9.740800","country":"DK"},{"id":"2616308","name":"Norre Hvalso","latitude":"55.604931","longitude":"11.857330","country":"DK"},{"id":"2616365","name":"Norre Alslev","latitude":"54.897839","longitude":"11.884140","country":"DK"},{"id":"2616368","name":"Norre Aby","latitude":"55.461071","longitude":"9.879400","country":"DK"},{"id":"2616450","name":"Niva","latitude":"55.934052","longitude":"12.504850","country":"DK"},{"id":"2616483","name":"Nibe","latitude":"56.981499","longitude":"9.639170","country":"DK"},{"id":"2616504","name":"Nexo","latitude":"55.060669","longitude":"15.130580","country":"DK"},{"id":"2616540","name":"Neder Holluf","latitude":"55.364510","longitude":"10.448240","country":"DK"},{"id":"2616599","name":"Nakskov","latitude":"54.837341","longitude":"11.128390","country":"DK"},{"id":"2616672","name":"Munkebo","latitude":"55.461842","longitude":"10.555770","country":"DK"},{"id":"2617030","name":"Marstal","latitude":"54.856201","longitude":"10.517260","country":"DK"},{"id":"2617034","name":"Marslet","latitude":"56.063599","longitude":"10.162300","country":"DK"},{"id":"2617072","name":"Maribo","latitude":"54.776619","longitude":"11.500170","country":"DK"},{"id":"2617076","name":"Mariager","latitude":"56.649849","longitude":"9.975150","country":"DK"},{"id":"2617112","name":"Malov","latitude":"55.755280","longitude":"12.323270","country":"DK"},{"id":"2617114","name":"Malling","latitude":"56.036320","longitude":"10.196320","country":"DK"},{"id":"2617220","name":"Lynge","latitude":"55.839409","longitude":"12.277250","country":"DK"},{"id":"2617450","name":"Lojt Kirkeby","latitude":"55.083328","longitude":"9.466670","country":"DK"},{"id":"2617457","name":"Logumkloster","latitude":"55.059410","longitude":"8.955080","country":"DK"},{"id":"2617463","name":"Logten","latitude":"56.274590","longitude":"10.311810","country":"DK"},{"id":"2617467","name":"Logstor","latitude":"56.962448","longitude":"9.258300","country":"DK"},{"id":"2617538","name":"Liseleje","latitude":"56.005310","longitude":"11.948270","country":"DK"},{"id":"2617619","name":"Lind","latitude":"56.099998","longitude":"8.983330","country":"DK"},{"id":"2617626","name":"Vaerlose","latitude":"55.782509","longitude":"12.368560","country":"DK"},{"id":"2617658","name":"Lillerod","latitude":"55.874962","longitude":"12.345790","country":"DK"},{"id":"2617812","name":"Lemvig","latitude":"56.548561","longitude":"8.310190","country":"DK"},{"id":"2617832","name":"Lejre","latitude":"55.604610","longitude":"11.974770","country":"DK"},{"id":"2617936","name":"Langeskov","latitude":"55.356548","longitude":"10.584470","country":"DK"},{"id":"2617981","name":"Langa","latitude":"56.390259","longitude":"9.894860","country":"DK"},{"id":"2618361","name":"Korsor","latitude":"55.329929","longitude":"11.138570","country":"DK"},{"id":"2618415","name":"Koge","latitude":"55.458019","longitude":"12.182140","country":"DK"},{"id":"2618425","name":"Copenhagen","latitude":"55.675941","longitude":"12.565530","country":"DK"},{"id":"2618468","name":"Kongens Lyngby","latitude":"55.770439","longitude":"12.503780","country":"DK"},{"id":"2618489","name":"Kolt","latitude":"56.108452","longitude":"10.069860","country":"DK"},{"id":"2618528","name":"Kolding","latitude":"55.490398","longitude":"9.472160","country":"DK"},{"id":"2618787","name":"Klarup","latitude":"57.011940","longitude":"10.056170","country":"DK"},{"id":"2618814","name":"Kjellerup","latitude":"56.285809","longitude":"9.435280","country":"DK"},{"id":"2618944","name":"Kerteminde","latitude":"55.449032","longitude":"10.657690","country":"DK"},{"id":"2619061","name":"Kas","latitude":"57.197739","longitude":"9.671730","country":"DK"},{"id":"2619068","name":"Karup","latitude":"56.306728","longitude":"9.168350","country":"DK"},{"id":"2619154","name":"Kalundborg","latitude":"55.679539","longitude":"11.088640","country":"DK"},{"id":"2619216","name":"Jyllinge","latitude":"55.758430","longitude":"12.112270","country":"DK"},{"id":"2619221","name":"Jyderup","latitude":"55.663990","longitude":"11.420290","country":"DK"},{"id":"2619251","name":"Juelsminde","latitude":"55.708759","longitude":"10.016680","country":"DK"},{"id":"2619287","name":"Jaegerspris","latitude":"55.855438","longitude":"11.967860","country":"DK"},{"id":"2619377","name":"Ishoj","latitude":"55.615429","longitude":"12.351820","country":"DK"},{"id":"2619426","name":"Ikast","latitude":"56.138828","longitude":"9.157680","country":"DK"},{"id":"2619528","name":"Hvidovre","latitude":"55.657188","longitude":"12.473640","country":"DK"},{"id":"2619537","name":"Hvide Sande","latitude":"56.004520","longitude":"8.129370","country":"DK"},{"id":"2619624","name":"Hurup","latitude":"56.749439","longitude":"8.419520","country":"DK"},{"id":"2619650","name":"Hundested","latitude":"55.966671","longitude":"11.866670","country":"DK"},{"id":"2619669","name":"Humlebaek","latitude":"55.961800","longitude":"12.534100","country":"DK"},{"id":"2619771","name":"Horsens","latitude":"55.860661","longitude":"9.850340","country":"DK"},{"id":"2619807","name":"Hornbaek","latitude":"56.085411","longitude":"12.450480","country":"DK"},{"id":"2619844","name":"Horve","latitude":"55.752918","longitude":"11.452980","country":"DK"},{"id":"2619845","name":"Horuphav","latitude":"54.910172","longitude":"9.898720","country":"DK"},{"id":"2619856","name":"Horsholm","latitude":"55.883331","longitude":"12.500000","country":"DK"},{"id":"2619882","name":"Hong","latitude":"55.511650","longitude":"11.290320","country":"DK"},{"id":"2619967","name":"Hojby","latitude":"55.342178","longitude":"10.436840","country":"DK"},{"id":"2620046","name":"Holstebro","latitude":"56.360088","longitude":"8.616070","country":"DK"},{"id":"2620147","name":"Holbaek","latitude":"55.716671","longitude":"11.716670","country":"DK"},{"id":"2620214","name":"Hjorring","latitude":"57.464169","longitude":"9.982290","country":"DK"},{"id":"2620275","name":"Hjallerup","latitude":"57.164661","longitude":"10.145710","country":"DK"},{"id":"2620279","name":"Hirtshals","latitude":"57.588120","longitude":"9.959220","country":"DK"},{"id":"2620320","name":"Hillerod","latitude":"55.926670","longitude":"12.310910","country":"DK"},{"id":"2620425","name":"Herning","latitude":"56.139320","longitude":"8.973780","country":"DK"},{"id":"2620473","name":"Helsingor","latitude":"56.036060","longitude":"12.613600","country":"DK"},{"id":"2620476","name":"Helsinge","latitude":"56.022831","longitude":"12.197520","country":"DK"},{"id":"2620528","name":"Hellebaek","latitude":"56.068230","longitude":"12.557820","country":"DK"},{"id":"2620664","name":"Havdrup","latitude":"55.544811","longitude":"12.123920","country":"DK"},{"id":"2620712","name":"Haslev","latitude":"55.323460","longitude":"11.963890","country":"DK"},{"id":"2620751","name":"Harlev","latitude":"55.349361","longitude":"12.233820","country":"DK"},{"id":"2620765","name":"Harby","latitude":"55.215019","longitude":"10.122620","country":"DK"},{"id":"2620786","name":"Hanstholm","latitude":"57.116669","longitude":"8.616670","country":"DK"},{"id":"2620835","name":"Hammel","latitude":"56.257622","longitude":"9.863160","country":"DK"},{"id":"2620871","name":"Hals","latitude":"56.996090","longitude":"10.308070","country":"DK"},{"id":"2620952","name":"Hadsund","latitude":"56.714821","longitude":"10.116820","country":"DK"},{"id":"2620964","name":"Haderslev","latitude":"55.253769","longitude":"9.489820","country":"DK"},{"id":"2620997","name":"Gundsomagle","latitude":"55.735649","longitude":"12.151580","country":"DK"},{"id":"2621072","name":"Guderup","latitude":"54.989780","longitude":"9.871740","country":"DK"},{"id":"2621101","name":"Graested","latitude":"56.065578","longitude":"12.285120","country":"DK"},{"id":"2621193","name":"Grindsted","latitude":"55.754002","longitude":"8.912310","country":"DK"},{"id":"2621215","name":"Greve","latitude":"55.583328","longitude":"12.300000","country":"DK"},{"id":"2621279","name":"Gram","latitude":"55.289478","longitude":"9.049130","country":"DK"},{"id":"2621304","name":"Gorlev","latitude":"55.539261","longitude":"11.227080","country":"DK"},{"id":"2621356","name":"Glostrup","latitude":"55.666672","longitude":"12.400000","country":"DK"},{"id":"2621393","name":"Glamsbjerg","latitude":"55.272369","longitude":"10.104830","country":"DK"},{"id":"2621434","name":"Gjellerup Kirkeby","latitude":"56.143410","longitude":"9.049880","country":"DK"},{"id":"2621449","name":"Gistrup","latitude":"56.994301","longitude":"9.990850","country":"DK"},{"id":"2621471","name":"Gilleleje","latitude":"56.121960","longitude":"12.310560","country":"DK"},{"id":"2621614","name":"Ganlose","latitude":"55.791241","longitude":"12.264210","country":"DK"},{"id":"2621710","name":"Galten","latitude":"56.159019","longitude":"9.916910","country":"DK"},{"id":"2621805","name":"Fuglebjerg","latitude":"55.306042","longitude":"11.547660","country":"DK"},{"id":"2621896","name":"Frejlev","latitude":"57.006229","longitude":"9.817110","country":"DK"},{"id":"2621910","name":"Frederiksvaerk","latitude":"55.970730","longitude":"12.022500","country":"DK"},{"id":"2621912","name":"Frederikssund","latitude":"55.839561","longitude":"12.068960","country":"DK"},{"id":"2621927","name":"Frederikshavn","latitude":"57.440731","longitude":"10.536610","country":"DK"},{"id":"2621942","name":"Frederiksberg","latitude":"55.679379","longitude":"12.534630","country":"DK"},{"id":"2621945","name":"Frederiksberg","latitude":"55.416180","longitude":"11.569340","country":"DK"},{"id":"2621951","name":"Fredericia","latitude":"55.565681","longitude":"9.752570","country":"DK"},{"id":"2621956","name":"Fredensborg","latitude":"55.975578","longitude":"12.403140","country":"DK"},{"id":"2621967","name":"Framlev","latitude":"56.156639","longitude":"10.013180","country":"DK"},{"id":"2622002","name":"Forlev","latitude":"55.383331","longitude":"11.283330","country":"DK"},{"id":"2622139","name":"Fjerritslev","latitude":"57.081341","longitude":"9.266430","country":"DK"},{"id":"2622226","name":"Fensmark","latitude":"55.279190","longitude":"11.803820","country":"DK"},{"id":"2622306","name":"Farum","latitude":"55.808578","longitude":"12.360660","country":"DK"},{"id":"2622310","name":"Farso","latitude":"56.772758","longitude":"9.339260","country":"DK"},{"id":"2622369","name":"Fakse Ladeplads","latitude":"55.219799","longitude":"12.170130","country":"DK"},{"id":"2622372","name":"Fakse","latitude":"55.246861","longitude":"12.117640","country":"DK"},{"id":"2622383","name":"Faaborg","latitude":"55.095100","longitude":"10.242260","country":"DK"},{"id":"2622418","name":"Espergaerde","latitude":"56.000000","longitude":"12.566670","country":"DK"},{"id":"2622447","name":"Esbjerg","latitude":"55.466671","longitude":"8.450000","country":"DK"},{"id":"2622664","name":"Ejby","latitude":"55.689232","longitude":"11.847250","country":"DK"},{"id":"2622665","name":"Ejby","latitude":"55.485802","longitude":"12.081710","country":"DK"},{"id":"2622686","name":"Egtved","latitude":"55.617962","longitude":"9.301020","country":"DK"},{"id":"2622793","name":"Ebeltoft","latitude":"56.194420","longitude":"10.682100","country":"DK"},{"id":"2622854","name":"Dybbol","latitude":"54.910789","longitude":"9.736010","country":"DK"},{"id":"2622888","name":"Dronninglund","latitude":"57.160351","longitude":"10.292870","country":"DK"},{"id":"2622937","name":"Dragor","latitude":"55.594551","longitude":"12.666380","country":"DK"},{"id":"2623028","name":"Dianalund","latitude":"55.531330","longitude":"11.492500","country":"DK"},{"id":"2623183","name":"Christiansfeld","latitude":"55.358170","longitude":"9.487010","country":"DK"},{"id":"2623188","name":"Charlottenlund","latitude":"55.753670","longitude":"12.591810","country":"DK"},{"id":"2623247","name":"Bullerup","latitude":"55.426861","longitude":"10.471370","country":"DK"},{"id":"2623306","name":"Brovst","latitude":"57.095619","longitude":"9.528010","country":"DK"},{"id":"2623394","name":"Broager","latitude":"54.887360","longitude":"9.680960","country":"DK"},{"id":"2623516","name":"Braedstrup","latitude":"55.970791","longitude":"9.608550","country":"DK"},{"id":"2623628","name":"Borup","latitude":"55.494720","longitude":"11.975840","country":"DK"},{"id":"2623694","name":"Bording Kirkeby","latitude":"56.168709","longitude":"9.243840","country":"DK"},{"id":"2623857","name":"Bogense","latitude":"55.566910","longitude":"10.088630","country":"DK"},{"id":"2623905","name":"Blovstrod","latitude":"55.870380","longitude":"12.386400","country":"DK"},{"id":"2623978","name":"Bjaeverskov","latitude":"55.457561","longitude":"12.036510","country":"DK"},{"id":"2624112","name":"Birkerod","latitude":"55.847591","longitude":"12.427910","country":"DK"},{"id":"2624144","name":"Billund","latitude":"55.733490","longitude":"9.107850","country":"DK"},{"id":"2624193","name":"Bellinge","latitude":"55.335350","longitude":"10.320450","country":"DK"},{"id":"2624212","name":"Beder","latitude":"56.060249","longitude":"10.211790","country":"DK"},{"id":"2624341","name":"Ballerup","latitude":"55.731651","longitude":"12.363280","country":"DK"},{"id":"2624435","name":"Auning","latitude":"56.430790","longitude":"10.378180","country":"DK"},{"id":"2624439","name":"Augustenborg","latitude":"54.952011","longitude":"9.872160","country":"DK"},{"id":"2624499","name":"Assentoft","latitude":"56.442101","longitude":"10.151700","country":"DK"},{"id":"2624502","name":"Assens","latitude":"55.270229","longitude":"9.900810","country":"DK"},{"id":"2624521","name":"Asnaes","latitude":"55.812290","longitude":"11.501290","country":"DK"},{"id":"2624595","name":"Arslev","latitude":"55.303532","longitude":"10.464280","country":"DK"},{"id":"2624602","name":"Aars","latitude":"56.803989","longitude":"9.514410","country":"DK"},{"id":"2624652","name":"Arhus","latitude":"56.156738","longitude":"10.210760","country":"DK"},{"id":"2624864","name":"Alestrup","latitude":"56.694698","longitude":"9.493360","country":"DK"},{"id":"2624886","name":"Aalborg","latitude":"57.048000","longitude":"9.918700","country":"DK"},{"id":"2624906","name":"Albertslund","latitude":"55.656910","longitude":"12.363810","country":"DK"},{"id":"2624929","name":"Akirkeby","latitude":"55.070801","longitude":"14.919780","country":"DK"},{"id":"2625037","name":"Abybro","latitude":"57.158360","longitude":"9.736720","country":"DK"},{"id":"2625070","name":"Aabenraa","latitude":"55.044338","longitude":"9.417410","country":"DK"}]