[{"id":"1866362","name":"Yonggang-up","latitude":"38.856110","longitude":"125.424438","country":"KP"},{"id":"1866453","name":"Yongbyon","latitude":"39.813332","longitude":"125.804169","country":"KP"},{"id":"1866569","name":"Yonan-up","latitude":"37.908890","longitude":"126.161110","country":"KP"},{"id":"1866587","name":"Yomju-up","latitude":"39.893330","longitude":"124.598061","country":"KP"},{"id":"1866923","name":"Wonsan","latitude":"39.152779","longitude":"127.443611","country":"KP"},{"id":"1867927","name":"Tongchon-up","latitude":"38.953892","longitude":"127.891670","country":"KP"},{"id":"1868998","name":"Sungho 1-tong","latitude":"38.991390","longitude":"125.977783","country":"KP"},{"id":"1869021","name":"Sunan","latitude":"39.198330","longitude":"125.690002","country":"KP"},{"id":"1869446","name":"Songnim","latitude":"38.754169","longitude":"125.644997","country":"KP"},{"id":"1870413","name":"Sil-li","latitude":"39.494720","longitude":"125.473610","country":"KP"},{"id":"1870434","name":"Sinmak","latitude":"38.416672","longitude":"126.233330","country":"KP"},{"id":"1870742","name":"Sinanju","latitude":"39.598061","longitude":"125.609718","country":"KP"},{"id":"1870883","name":"Sariwon","latitude":"38.507221","longitude":"125.755829","country":"KP"},{"id":"1871028","name":"Sangsong-ni","latitude":"39.169441","longitude":"126.885559","country":"KP"},{"id":"1871484","name":"Samho-rodongjagu","latitude":"39.947498","longitude":"127.871109","country":"KP"},{"id":"1871859","name":"Pyongyang","latitude":"39.033852","longitude":"125.754318","country":"KP"},{"id":"1871967","name":"Pyoksong-up","latitude":"38.047501","longitude":"125.556671","country":"KP"},{"id":"1872726","name":"Panghyon-dong","latitude":"39.887218","longitude":"125.241386","country":"KP"},{"id":"1873172","name":"Ongjin","latitude":"37.934719","longitude":"125.361938","country":"KP"},{"id":"1873757","name":"Nampo","latitude":"38.737499","longitude":"125.407784","country":"KP"},{"id":"1875054","name":"Kwaksan","latitude":"39.687500","longitude":"125.082779","country":"KP"},{"id":"1875107","name":"Kusong","latitude":"39.981110","longitude":"125.244720","country":"KP"},{"id":"1875506","name":"Kujang-up","latitude":"39.867222","longitude":"126.030281","country":"KP"},{"id":"1875588","name":"Kowon-up","latitude":"39.438061","longitude":"127.243057","country":"KP"},{"id":"1875632","name":"Kosan","latitude":"38.855831","longitude":"127.418060","country":"KP"},{"id":"1875790","name":"Koksan","latitude":"38.781940","longitude":"126.666389","country":"KP"},{"id":"1876153","name":"Kangdong-up","latitude":"39.142502","longitude":"126.096107","country":"KP"},{"id":"1876373","name":"Kaesong","latitude":"37.970829","longitude":"126.554443","country":"KP"},{"id":"1876873","name":"Hwangju-up","latitude":"38.670280","longitude":"125.776108","country":"KP"},{"id":"1877030","name":"Hungnam","latitude":"39.831669","longitude":"127.618607","country":"KP"},{"id":"1877046","name":"Hukkyo-ri","latitude":"38.798611","longitude":"125.791939","country":"KP"},{"id":"1877148","name":"Hoeyang","latitude":"38.710281","longitude":"127.598328","country":"KP"},{"id":"1877449","name":"Hamhung","latitude":"39.918331","longitude":"127.536392","country":"KP"},{"id":"1877615","name":"Haeju","latitude":"38.040562","longitude":"125.714722","country":"KP"},{"id":"1877872","name":"Chunghwa","latitude":"38.863892","longitude":"125.800003","country":"KP"},{"id":"1878389","name":"Chongju","latitude":"39.693329","longitude":"125.210281","country":"KP"},{"id":"1879029","name":"Changyon","latitude":"38.250832","longitude":"125.096107","country":"KP"},{"id":"1879487","name":"Chaeryong-up","latitude":"38.399170","longitude":"125.615562","country":"KP"},{"id":"1879544","name":"Ayang-ni","latitude":"38.243061","longitude":"125.779999","country":"KP"},{"id":"1879613","name":"Anju","latitude":"39.617779","longitude":"125.664719","country":"KP"},{"id":"1879672","name":"Anbyon-up","latitude":"39.042500","longitude":"127.523888","country":"KP"},{"id":"1879682","name":"Anak","latitude":"38.510830","longitude":"125.494171","country":"KP"},{"id":"1932058","name":"Sinsang-ni","latitude":"39.650280","longitude":"127.405830","country":"KP"},{"id":"2038854","name":"Yuktae-dong","latitude":"40.024719","longitude":"128.159714","country":"KP"},{"id":"2039557","name":"Ungsang-nodongjagu","latitude":"42.357780","longitude":"130.462219","country":"KP"},{"id":"2039623","name":"Uiju","latitude":"40.199440","longitude":"124.531670","country":"KP"},{"id":"2040316","name":"Sungam-nodongjagu","latitude":"41.669720","longitude":"129.668884","country":"KP"},{"id":"2040674","name":"Sonbong","latitude":"42.342220","longitude":"130.396667","country":"KP"},{"id":"2040893","name":"Sinuiju","latitude":"40.100559","longitude":"124.398064","country":"KP"},{"id":"2041533","name":"Sakchu-up","latitude":"40.389439","longitude":"125.046669","country":"KP"},{"id":"2041702","name":"Puryong","latitude":"42.060558","longitude":"129.711670","country":"KP"},{"id":"2041817","name":"Pukchil-lodongjagu","latitude":"40.201939","longitude":"125.748329","country":"KP"},{"id":"2042249","name":"Yonggwang-up","latitude":"40.018330","longitude":"127.454720","country":"KP"},{"id":"2042267","name":"Onsong","latitude":"42.957218","longitude":"129.993332","country":"KP"},{"id":"2042498","name":"Nanam","latitude":"41.713612","longitude":"129.684433","country":"KP"},{"id":"2042503","name":"Namyang-dong","latitude":"42.950001","longitude":"129.866669","country":"KP"},{"id":"2042645","name":"Najin","latitude":"42.248890","longitude":"130.300278","country":"KP"},{"id":"2042738","name":"Musan-up","latitude":"42.226089","longitude":"129.207764","country":"KP"},{"id":"2042985","name":"Kyongwon","latitude":"42.813610","longitude":"130.152786","country":"KP"},{"id":"2042987","name":"Kyongsong","latitude":"41.587780","longitude":"129.606110","country":"KP"},{"id":"2043484","name":"Kilju","latitude":"40.964169","longitude":"129.327774","country":"KP"},{"id":"2043531","name":"Kapsan-up","latitude":"41.090279","longitude":"128.293335","country":"KP"},{"id":"2043572","name":"Kanggye-si","latitude":"40.969460","longitude":"126.585228","country":"KP"},{"id":"2043677","name":"Iwon-up","latitude":"40.323059","longitude":"128.655273","country":"KP"},{"id":"2043835","name":"Hyesan-dong","latitude":"41.397560","longitude":"128.178726","country":"KP"},{"id":"2044050","name":"Hongwon","latitude":"40.025280","longitude":"127.955833","country":"KP"},{"id":"2044091","name":"Hoeryong","latitude":"42.442780","longitude":"129.750824","country":"KP"},{"id":"2044104","name":"Hoemul-li","latitude":"41.433891","longitude":"129.669998","country":"KP"},{"id":"2044149","name":"Hau-ri","latitude":"41.200562","longitude":"129.470276","country":"KP"},{"id":"2044757","name":"Chongjin","latitude":"41.795559","longitude":"129.775833","country":"KP"},{"id":"2045005","name":"Chasong","latitude":"41.460831","longitude":"126.641388","country":"KP"},{"id":"2045311","name":"Aoji-ri","latitude":"42.520561","longitude":"130.395279","country":"KP"},{"id":"2049653","name":"Sungjibaegam","latitude":"41.242779","longitude":"128.798889","country":"KP"},{"id":"2050500","name":"Komusan 1-tong","latitude":"42.109169","longitude":"129.699997","country":"KP"}]