[{"id":"3444091","name":"San Pedro","latitude":"-18.283331","longitude":"-59.816669","country":"BO"},{"id":"3444105","name":"San Matias","latitude":"-16.366671","longitude":"-58.400002","country":"BO"},{"id":"3444176","name":"Robore","latitude":"-18.333330","longitude":"-59.750000","country":"BO"},{"id":"3444201","name":"Puerto Quijarro","latitude":"-17.783331","longitude":"-57.766670","country":"BO"},{"id":"3901178","name":"Yacuiba","latitude":"-22.037991","longitude":"-63.679680","country":"BO"},{"id":"3901301","name":"Warnes","latitude":"-17.500000","longitude":"-63.166672","country":"BO"},{"id":"3901501","name":"Villazon","latitude":"-22.086590","longitude":"-65.594223","country":"BO"},{"id":"3901504","name":"Villa Yapacani","latitude":"-17.400000","longitude":"-63.833328","country":"BO"},{"id":"3901547","name":"Villamontes","latitude":"-21.250000","longitude":"-63.500000","country":"BO"},{"id":"3901874","name":"Vallegrande","latitude":"-18.489719","longitude":"-64.106941","country":"BO"},{"id":"3901903","name":"Uyuni","latitude":"-20.459669","longitude":"-66.825027","country":"BO"},{"id":"3901969","name":"Urubicha","latitude":"-15.383330","longitude":"-62.950001","country":"BO"},{"id":"3902202","name":"Tupiza","latitude":"-21.450001","longitude":"-65.716667","country":"BO"},{"id":"3902377","name":"La Santisima Trinidad","latitude":"-14.833330","longitude":"-64.900002","country":"BO"},{"id":"3902685","name":"Tomas Barron","latitude":"-17.583330","longitude":"-67.516670","country":"BO"},{"id":"3903046","name":"Tiahuanaco","latitude":"-16.549999","longitude":"-68.699997","country":"BO"},{"id":"3903320","name":"Tarija","latitude":"-21.535490","longitude":"-64.729561","country":"BO"},{"id":"3903342","name":"Tarata","latitude":"-17.616671","longitude":"-66.016670","country":"BO"},{"id":"3903391","name":"Tarabuco","latitude":"-19.166670","longitude":"-64.916672","country":"BO"},{"id":"3903987","name":"Sucre","latitude":"-19.033319","longitude":"-65.262741","country":"BO"},{"id":"3904043","name":"Sorata","latitude":"-15.766670","longitude":"-68.633331","country":"BO"},{"id":"3904221","name":"Sipe Sipe","latitude":"-17.450001","longitude":"-66.383331","country":"BO"},{"id":"3904666","name":"Santiago del Torno","latitude":"-17.983330","longitude":"-63.383331","country":"BO"},{"id":"3904793","name":"Santa Rosa","latitude":"-14.166670","longitude":"-66.883331","country":"BO"},{"id":"3904809","name":"Santa Rita","latitude":"-17.966669","longitude":"-63.349998","country":"BO"},{"id":"3904906","name":"Santa Cruz de la Sierra","latitude":"-17.799999","longitude":"-63.166672","country":"BO"},{"id":"3904956","name":"Santa Barbara","latitude":"-20.916670","longitude":"-66.050003","country":"BO"},{"id":"3905088","name":"San Ramon","latitude":"-13.283330","longitude":"-64.716667","country":"BO"},{"id":"3905159","name":"San Pedro","latitude":"-16.237169","longitude":"-68.850632","country":"BO"},{"id":"3905206","name":"San Pablo","latitude":"-16.216669","longitude":"-68.833328","country":"BO"},{"id":"3905453","name":"San Julian","latitude":"-17.783331","longitude":"-62.866669","country":"BO"},{"id":"3905462","name":"San Juan del Surutu","latitude":"-17.483330","longitude":"-63.700001","country":"BO"},{"id":"3905658","name":"San Ignacio de Velasco","latitude":"-16.366671","longitude":"-60.950001","country":"BO"},{"id":"3905775","name":"San Carlos","latitude":"-17.400000","longitude":"-63.750000","country":"BO"},{"id":"3905792","name":"San Borja","latitude":"-14.816670","longitude":"-66.849998","country":"BO"},{"id":"3905951","name":"Samaipata","latitude":"-18.150000","longitude":"-63.866669","country":"BO"},{"id":"3906209","name":"Rurrenabaque","latitude":"-14.441250","longitude":"-67.527809","country":"BO"},{"id":"3906466","name":"Riberalta","latitude":"-10.983330","longitude":"-66.099998","country":"BO"},{"id":"3906478","name":"Reyes","latitude":"-14.316670","longitude":"-67.383331","country":"BO"},{"id":"3906765","name":"Quime","latitude":"-16.983330","longitude":"-67.216667","country":"BO"},{"id":"3907080","name":"Punata","latitude":"-17.549999","longitude":"-65.833328","country":"BO"},{"id":"3907159","name":"Puesto de Pailas","latitude":"-17.650000","longitude":"-62.799999","country":"BO"},{"id":"3907584","name":"Potosi","latitude":"-19.583611","longitude":"-65.753059","country":"BO"},{"id":"3907646","name":"Portachuelo","latitude":"-17.350000","longitude":"-63.400002","country":"BO"},{"id":"3908339","name":"Patacamaya","latitude":"-17.233330","longitude":"-67.916672","country":"BO"},{"id":"3909010","name":"Pailon","latitude":"-17.650000","longitude":"-62.750000","country":"BO"},{"id":"3909038","name":"Padilla","latitude":"-19.299999","longitude":"-64.300003","country":"BO"},{"id":"3909234","name":"Oruro","latitude":"-17.983330","longitude":"-67.150002","country":"BO"},{"id":"3909360","name":"Okinawa Numero Uno","latitude":"-17.233330","longitude":"-62.816669","country":"BO"},{"id":"3910027","name":"Montero","latitude":"-17.333330","longitude":"-63.250000","country":"BO"},{"id":"3910094","name":"Monteagudo","latitude":"-19.816669","longitude":"-63.983330","country":"BO"},{"id":"3910291","name":"Mizque","latitude":"-17.941010","longitude":"-65.340157","country":"BO"},{"id":"3910343","name":"Mineros","latitude":"-17.116671","longitude":"-63.233330","country":"BO"},{"id":"3910758","name":"Mapiri","latitude":"-15.250000","longitude":"-68.166672","country":"BO"},{"id":"3910901","name":"Mairana","latitude":"-18.116671","longitude":"-63.933331","country":"BO"},{"id":"3910971","name":"Machacamarca","latitude":"-18.166670","longitude":"-67.033333","country":"BO"},{"id":"3911120","name":"Los Negros","latitude":"-17.733330","longitude":"-63.433331","country":"BO"},{"id":"3911409","name":"Llallagua","latitude":"-18.416670","longitude":"-66.633331","country":"BO"},{"id":"3911512","name":"Limoncito","latitude":"-18.016670","longitude":"-63.400002","country":"BO"},{"id":"3911925","name":"La Paz","latitude":"-16.500000","longitude":"-68.150002","country":"BO"},{"id":"3912119","name":"Lahuachaca","latitude":"-17.366671","longitude":"-67.666672","country":"BO"},{"id":"3912418","name":"La Belgica","latitude":"-17.549999","longitude":"-63.216671","country":"BO"},{"id":"3913271","name":"Jorochito","latitude":"-18.049999","longitude":"-63.433331","country":"BO"},{"id":"3913985","name":"Isla del Sol","latitude":"-16.016670","longitude":"-69.150002","country":"BO"},{"id":"3914084","name":"Irpa Irpa","latitude":"-17.716669","longitude":"-66.266670","country":"BO"},{"id":"3914715","name":"Huatajata","latitude":"-16.200001","longitude":"-68.683327","country":"BO"},{"id":"3914839","name":"Huanuni","latitude":"-18.266670","longitude":"-66.849998","country":"BO"},{"id":"3915350","name":"Guayaramerin","latitude":"-10.836760","longitude":"-65.361359","country":"BO"},{"id":"3917939","name":"Entre Rios","latitude":"-21.533331","longitude":"-64.199997","country":"BO"},{"id":"3918937","name":"Cotoca","latitude":"-17.816669","longitude":"-63.049999","country":"BO"},{"id":"3919085","name":"Coroico","latitude":"-16.188890","longitude":"-67.727127","country":"BO"},{"id":"3919097","name":"Coripata","latitude":"-16.299999","longitude":"-67.599998","country":"BO"},{"id":"3919352","name":"Concepcion","latitude":"-16.433331","longitude":"-60.900002","country":"BO"},{"id":"3919703","name":"Comarapa","latitude":"-17.900000","longitude":"-64.483330","country":"BO"},{"id":"3919715","name":"Colquiri","latitude":"-17.416670","longitude":"-67.133331","country":"BO"},{"id":"3919813","name":"Colomi","latitude":"-17.350000","longitude":"-65.866669","country":"BO"},{"id":"3919884","name":"Colchani","latitude":"-20.299999","longitude":"-66.933327","country":"BO"},{"id":"3919968","name":"Cochabamba","latitude":"-17.389500","longitude":"-66.156799","country":"BO"},{"id":"3919998","name":"Cobija","latitude":"-11.026710","longitude":"-68.769180","country":"BO"},{"id":"3920016","name":"Cliza","latitude":"-17.600000","longitude":"-65.933327","country":"BO"},{"id":"3920244","name":"Chulumani","latitude":"-16.409620","longitude":"-67.526260","country":"BO"},{"id":"3920736","name":"Chimore","latitude":"-16.983330","longitude":"-65.133331","country":"BO"},{"id":"3921141","name":"Charagua","latitude":"-19.799999","longitude":"-63.216671","country":"BO"},{"id":"3921355","name":"Challapata","latitude":"-18.900000","longitude":"-66.766670","country":"BO"},{"id":"3922125","name":"Capinota","latitude":"-17.716669","longitude":"-66.233330","country":"BO"},{"id":"3922414","name":"Camiri","latitude":"-20.049999","longitude":"-63.516670","country":"BO"},{"id":"3922451","name":"Camargo","latitude":"-20.650000","longitude":"-65.216667","country":"BO"},{"id":"3922965","name":"Buena Vista","latitude":"-17.450001","longitude":"-63.666672","country":"BO"},{"id":"3923015","name":"Boyuibe","latitude":"-20.416670","longitude":"-63.283329","country":"BO"},{"id":"3923145","name":"Betanzos","latitude":"-19.550560","longitude":"-65.453331","country":"BO"},{"id":"3923644","name":"Ascension","latitude":"-15.700000","longitude":"-63.083328","country":"BO"},{"id":"3923770","name":"Arani","latitude":"-17.566669","longitude":"-65.766670","country":"BO"},{"id":"3924341","name":"Aiquile","latitude":"-18.204081","longitude":"-65.180679","country":"BO"},{"id":"3924610","name":"Achacachi","latitude":"-16.049999","longitude":"-68.683327","country":"BO"},{"id":"3924668","name":"Abapo","latitude":"-18.833330","longitude":"-63.466671","country":"BO"}]