[{"id":"3700017","name":"Volcan","latitude":"8.766670","longitude":"-82.633331","country":"PA"},{"id":"3700033","name":"Vista Hermosa","latitude":"8.533330","longitude":"-80.366669","country":"PA"},{"id":"3700038","name":"Vista Alegre","latitude":"8.933330","longitude":"-79.699997","country":"PA"},{"id":"3700070","name":"Villa Rosario","latitude":"8.783330","longitude":"-79.866669","country":"PA"},{"id":"3700164","name":"Veracruz","latitude":"8.883330","longitude":"-79.633331","country":"PA"},{"id":"3700269","name":"Ustupo","latitude":"9.133330","longitude":"-77.933327","country":"PA"},{"id":"3700563","name":"Tocumen","latitude":"9.083330","longitude":"-79.383331","country":"PA"},{"id":"3700888","name":"Sona","latitude":"8.016670","longitude":"-81.316673","country":"PA"},{"id":"3700933","name":"Siogui Abajo","latitude":"8.500000","longitude":"-82.666672","country":"PA"},{"id":"3701117","name":"Santiago de Veraguas","latitude":"8.100000","longitude":"-80.983330","country":"PA"},{"id":"3701163","name":"Santa Marta","latitude":"8.516670","longitude":"-82.699997","country":"PA"},{"id":"3701329","name":"San Miguelito","latitude":"9.033330","longitude":"-79.500000","country":"PA"},{"id":"3701682","name":"Sabanitas","latitude":"9.342220","longitude":"-79.801109","country":"PA"},{"id":"3701810","name":"Rio Sereno","latitude":"8.816670","longitude":"-82.866669","country":"PA"},{"id":"3701861","name":"Rio Hato","latitude":"8.383330","longitude":"-80.166672","country":"PA"},{"id":"3701914","name":"Rio Alejandro","latitude":"9.376390","longitude":"-79.791107","country":"PA"},{"id":"3702269","name":"Quebrada Canoa","latitude":"8.433330","longitude":"-81.783333","country":"PA"},{"id":"3702384","name":"Puerto Pilon","latitude":"9.364440","longitude":"-79.793327","country":"PA"},{"id":"3702412","name":"Puerto Escondido","latitude":"9.193330","longitude":"-80.088333","country":"PA"},{"id":"3702431","name":"Puerto Armuelles","latitude":"8.283330","longitude":"-82.866669","country":"PA"},{"id":"3702509","name":"Progreso","latitude":"8.450000","longitude":"-82.833328","country":"PA"},{"id":"3702538","name":"Potrero Grande","latitude":"8.884440","longitude":"-79.829437","country":"PA"},{"id":"3702631","name":"Pocri","latitude":"8.266670","longitude":"-80.550003","country":"PA"},{"id":"3702647","name":"Playon Chico","latitude":"9.300000","longitude":"-78.233330","country":"PA"},{"id":"3703011","name":"Pese","latitude":"7.900000","longitude":"-80.616669","country":"PA"},{"id":"3703068","name":"Penonome","latitude":"8.516670","longitude":"-80.366669","country":"PA"},{"id":"3703229","name":"Pedregal","latitude":"8.366670","longitude":"-82.433327","country":"PA"},{"id":"3703327","name":"Paso Blanco","latitude":"9.133330","longitude":"-79.233330","country":"PA"},{"id":"3703354","name":"Parita","latitude":"8.000000","longitude":"-80.516670","country":"PA"},{"id":"3703443","name":"Panama","latitude":"8.993600","longitude":"-79.519730","country":"PA"},{"id":"3703647","name":"Pacora","latitude":"9.083330","longitude":"-79.283333","country":"PA"},{"id":"3703786","name":"Ocu","latitude":"7.950000","longitude":"-80.783333","country":"PA"},{"id":"3703818","name":"Nuevo Vigia","latitude":"9.244720","longitude":"-79.608612","country":"PA"},{"id":"3703833","name":"Nuevo Arraijan","latitude":"8.916670","longitude":"-79.716667","country":"PA"},{"id":"3703938","name":"Nata","latitude":"8.333330","longitude":"-80.516670","country":"PA"},{"id":"3704138","name":"Monte Lirio","latitude":"8.783330","longitude":"-82.833328","country":"PA"},{"id":"3704571","name":"Margarita","latitude":"9.331390","longitude":"-79.888893","country":"PA"},{"id":"3704874","name":"Macaracas","latitude":"7.733330","longitude":"-80.550003","country":"PA"},{"id":"3704964","name":"Los Santos","latitude":"7.933330","longitude":"-80.416672","country":"PA"},{"id":"3705562","name":"Los Algarrobos","latitude":"8.500000","longitude":"-82.433327","country":"PA"},{"id":"3705894","name":"Lidice","latitude":"8.750000","longitude":"-79.900002","country":"PA"},{"id":"3706208","name":"Las Tablas","latitude":"7.766670","longitude":"-80.283333","country":"PA"},{"id":"3706410","name":"Las Lomas","latitude":"8.433330","longitude":"-82.400002","country":"PA"},{"id":"3706567","name":"Las Cumbres","latitude":"9.083330","longitude":"-79.533333","country":"PA"},{"id":"3706931","name":"La Pintada","latitude":"8.600000","longitude":"-80.449997","country":"PA"},{"id":"3706974","name":"La Pena","latitude":"8.133330","longitude":"-81.033333","country":"PA"},{"id":"3707150","name":"La Mitra","latitude":"8.842220","longitude":"-79.786667","country":"PA"},{"id":"3707227","name":"La Mesa","latitude":"8.150000","longitude":"-81.183327","country":"PA"},{"id":"3707568","name":"La Herradura","latitude":"8.852220","longitude":"-79.807220","country":"PA"},{"id":"3707758","name":"La Esperanza","latitude":"8.400000","longitude":"-82.800003","country":"PA"},{"id":"3707899","name":"La Concepcion","latitude":"8.516670","longitude":"-82.616669","country":"PA"},{"id":"3707961","name":"La Chorrera","latitude":"8.880280","longitude":"-79.783333","country":"PA"},{"id":"3708066","name":"La Cabima","latitude":"9.133330","longitude":"-79.533333","country":"PA"},{"id":"3708911","name":"Guarare","latitude":"7.816670","longitude":"-80.283333","country":"PA"},{"id":"3708948","name":"Gualaca","latitude":"8.533330","longitude":"-82.300003","country":"PA"},{"id":"3708954","name":"Guadalupe","latitude":"8.855830","longitude":"-79.813332","country":"PA"},{"id":"3708989","name":"Guabito","latitude":"9.500000","longitude":"-82.616669","country":"PA"},{"id":"3710087","name":"El Progreso","latitude":"9.266670","longitude":"-79.116669","country":"PA"},{"id":"3711056","name":"El Coco","latitude":"8.870280","longitude":"-79.815002","country":"PA"},{"id":"3711631","name":"Divala","latitude":"8.416670","longitude":"-82.716667","country":"PA"},{"id":"3711668","name":"David","latitude":"8.427290","longitude":"-82.430847","country":"PA"},{"id":"3712076","name":"Colon","latitude":"9.359170","longitude":"-79.901390","country":"PA"},{"id":"3712384","name":"Chitre","latitude":"7.966670","longitude":"-80.433327","country":"PA"},{"id":"3712419","name":"Chiriqui","latitude":"8.400000","longitude":"-82.316673","country":"PA"},{"id":"3712455","name":"Chilibre","latitude":"9.150000","longitude":"-79.616669","country":"PA"},{"id":"3712462","name":"Chigore","latitude":"8.533330","longitude":"-80.349998","country":"PA"},{"id":"3712505","name":"Chepo","latitude":"9.166670","longitude":"-79.099998","country":"PA"},{"id":"3712560","name":"Changuinola","latitude":"9.433330","longitude":"-82.516670","country":"PA"},{"id":"3712579","name":"Chame","latitude":"8.583330","longitude":"-79.883331","country":"PA"},{"id":"3712636","name":"Cerro Punta","latitude":"8.850000","longitude":"-82.566673","country":"PA"},{"id":"3712884","name":"Cativa","latitude":"9.360560","longitude":"-79.843613","country":"PA"},{"id":"3713047","name":"Capira","latitude":"8.750000","longitude":"-79.883331","country":"PA"},{"id":"3713051","name":"Capellania","latitude":"8.300000","longitude":"-80.550003","country":"PA"},{"id":"3713196","name":"Canazas","latitude":"8.316670","longitude":"-81.216667","country":"PA"},{"id":"3713667","name":"Bugaba","latitude":"8.483330","longitude":"-82.616669","country":"PA"},{"id":"3713715","name":"Buena Vista","latitude":"9.274720","longitude":"-79.695282","country":"PA"},{"id":"3713860","name":"Boquete","latitude":"8.783330","longitude":"-82.433327","country":"PA"},{"id":"3713959","name":"Bocas del Toro","latitude":"9.333330","longitude":"-82.250000","country":"PA"},{"id":"3714201","name":"Bejuco","latitude":"8.600000","longitude":"-79.883331","country":"PA"},{"id":"3714598","name":"Atalaya","latitude":"8.050000","longitude":"-80.933327","country":"PA"},{"id":"3714637","name":"Arraijan","latitude":"8.950000","longitude":"-79.650002","country":"PA"},{"id":"3714710","name":"Anton","latitude":"8.400000","longitude":"-80.266670","country":"PA"},{"id":"3714734","name":"Ancon","latitude":"8.966670","longitude":"-79.550003","country":"PA"},{"id":"3714830","name":"Alto del Espino","latitude":"8.833330","longitude":"-79.849998","country":"PA"},{"id":"3714896","name":"Almirante","latitude":"9.300000","longitude":"-82.400002","country":"PA"},{"id":"3714932","name":"Alcaldediaz","latitude":"9.116670","longitude":"-79.550003","country":"PA"},{"id":"3715042","name":"Aguadulce","latitude":"8.250000","longitude":"-80.550003","country":"PA"},{"id":"3764343","name":"Santa Rita Arriba","latitude":"9.337780","longitude":"-79.779999","country":"PA"}]