[{"id":"783768","name":"Zvecka","latitude":"44.638889","longitude":"20.164721","country":"RS"},{"id":"783814","name":"Zrenjanin","latitude":"45.383610","longitude":"20.381941","country":"RS"},{"id":"783887","name":"Zitiste","latitude":"45.485001","longitude":"20.549721","country":"RS"},{"id":"783920","name":"Zemun","latitude":"44.843060","longitude":"20.401110","country":"RS"},{"id":"784024","name":"Zajecar","latitude":"43.903580","longitude":"22.264050","country":"RS"},{"id":"784068","name":"Zabalj","latitude":"45.372219","longitude":"20.063890","country":"RS"},{"id":"784136","name":"Vrsac","latitude":"45.116669","longitude":"21.303610","country":"RS"},{"id":"784141","name":"Vrnjacka Banja","latitude":"43.616669","longitude":"20.900000","country":"RS"},{"id":"784227","name":"Vranje","latitude":"42.551392","longitude":"21.900280","country":"RS"},{"id":"784236","name":"Vranic","latitude":"44.601391","longitude":"20.326111","country":"RS"},{"id":"784274","name":"Vojvoda Stepa","latitude":"45.680828","longitude":"20.654169","country":"RS"},{"id":"784288","name":"Vojka","latitude":"44.939720","longitude":"20.153891","country":"RS"},{"id":"784352","name":"Vladimirovac","latitude":"45.033058","longitude":"20.863890","country":"RS"},{"id":"784604","name":"Aleksandrovo","latitude":"45.636940","longitude":"20.592779","country":"RS"},{"id":"784635","name":"Velika Mostanica","latitude":"44.663330","longitude":"20.353609","country":"RS"},{"id":"784745","name":"Uzdin","latitude":"45.204441","longitude":"20.620001","country":"RS"},{"id":"784764","name":"Umka","latitude":"44.678059","longitude":"20.304720","country":"RS"},{"id":"784771","name":"Uljma","latitude":"45.041111","longitude":"21.156111","country":"RS"},{"id":"784779","name":"Ugrinovci","latitude":"44.878330","longitude":"20.186939","country":"RS"},{"id":"784873","name":"Trstenik","latitude":"43.616940","longitude":"21.002501","country":"RS"},{"id":"784991","name":"Torda","latitude":"45.585560","longitude":"20.457500","country":"RS"},{"id":"785041","name":"Tomasevac","latitude":"45.267780","longitude":"20.620831","country":"RS"},{"id":"785062","name":"Titel","latitude":"45.206108","longitude":"20.294439","country":"RS"},{"id":"785252","name":"Sutjeska","latitude":"45.384171","longitude":"20.698891","country":"RS"},{"id":"785288","name":"Surcin","latitude":"44.793060","longitude":"20.280279","country":"RS"},{"id":"785358","name":"Stubline","latitude":"44.573891","longitude":"20.141390","country":"RS"},{"id":"785489","name":"Stepojevac","latitude":"44.512779","longitude":"20.295000","country":"RS"},{"id":"785541","name":"Stari Banovci","latitude":"44.986389","longitude":"20.286671","country":"RS"},{"id":"785559","name":"Stara Pazova","latitude":"44.985001","longitude":"20.160830","country":"RS"},{"id":"785598","name":"Stajicevo","latitude":"45.293892","longitude":"20.456671","country":"RS"},{"id":"785600","name":"Srpski Itebej","latitude":"45.570000","longitude":"20.713610","country":"RS"},{"id":"785603","name":"Srpska Crnja","latitude":"45.723331","longitude":"20.688610","country":"RS"},{"id":"785615","name":"Sremcica","latitude":"44.676529","longitude":"20.392321","country":"RS"},{"id":"785753","name":"Smederevska Palanka","latitude":"44.365479","longitude":"20.958851","country":"RS"},{"id":"785756","name":"Smederevo","latitude":"44.662781","longitude":"20.930000","country":"RS"},{"id":"785903","name":"Simanovci","latitude":"44.872501","longitude":"20.091669","country":"RS"},{"id":"785965","name":"Senta","latitude":"45.927502","longitude":"20.077221","country":"RS"},{"id":"786021","name":"Sefkerin","latitude":"45.004719","longitude":"20.482780","country":"RS"},{"id":"786035","name":"Secanj","latitude":"45.366669","longitude":"20.772221","country":"RS"},{"id":"786111","name":"Samoljica","latitude":"42.381939","longitude":"21.744720","country":"RS"},{"id":"786137","name":"Sakule","latitude":"45.146111","longitude":"20.485559","country":"RS"},{"id":"786142","name":"Sajkas","latitude":"45.272221","longitude":"20.089720","country":"RS"},{"id":"786175","name":"Rusanj","latitude":"44.684769","longitude":"20.449930","country":"RS"},{"id":"786532","name":"Rajince","latitude":"42.379169","longitude":"21.695560","country":"RS"},{"id":"786690","name":"Prokuplje","latitude":"43.234169","longitude":"21.588060","country":"RS"},{"id":"786827","name":"Pozarevac","latitude":"44.615280","longitude":"21.182501","country":"RS"},{"id":"787032","name":"Plandiste","latitude":"45.227219","longitude":"21.121670","country":"RS"},{"id":"787050","name":"Pirot","latitude":"43.153061","longitude":"22.586109","country":"RS"},{"id":"787123","name":"Perlez","latitude":"45.208061","longitude":"20.381390","country":"RS"},{"id":"787164","name":"Pavlis","latitude":"45.102779","longitude":"21.240829","country":"RS"},{"id":"787215","name":"Paracin","latitude":"43.860828","longitude":"21.407780","country":"RS"},{"id":"787237","name":"Pancevo","latitude":"44.870831","longitude":"20.640280","country":"RS"},{"id":"787271","name":"Padina","latitude":"45.118061","longitude":"20.727221","country":"RS"},{"id":"787274","name":"Padej","latitude":"45.828892","longitude":"20.166109","country":"RS"},{"id":"787296","name":"Ovca","latitude":"44.883492","longitude":"20.533360","country":"RS"},{"id":"787306","name":"Ostruznica","latitude":"44.728329","longitude":"20.319170","country":"RS"},{"id":"787341","name":"Ostojicevo","latitude":"45.890831","longitude":"20.164169","country":"RS"},{"id":"787391","name":"Orlovat","latitude":"45.243328","longitude":"20.582220","country":"RS"},{"id":"787461","name":"Opovo","latitude":"45.052219","longitude":"20.430281","country":"RS"},{"id":"787516","name":"Obrenovac","latitude":"44.654861","longitude":"20.200171","country":"RS"},{"id":"787584","name":"Novo Milosevo","latitude":"45.721668","longitude":"20.303061","country":"RS"},{"id":"787592","name":"Novi Slankamen","latitude":"45.125278","longitude":"20.239441","country":"RS"},{"id":"787595","name":"Novi Pazar","latitude":"43.136669","longitude":"20.512220","country":"RS"},{"id":"787598","name":"Novi Kozarci","latitude":"45.781670","longitude":"20.622219","country":"RS"},{"id":"787600","name":"Novi Knezevac","latitude":"46.049999","longitude":"20.100000","country":"RS"},{"id":"787601","name":"Novi Karlovci","latitude":"45.080280","longitude":"20.176670","country":"RS"},{"id":"787612","name":"Novi Banovci","latitude":"44.954720","longitude":"20.281940","country":"RS"},{"id":"787615","name":"bar","latitude":"44.943661","longitude":"20.219311","country":"RS"},{"id":"787621","name":"Nova Crnja","latitude":"45.668331","longitude":"20.605000","country":"RS"},{"id":"787657","name":"Nis","latitude":"43.324718","longitude":"21.903330","country":"RS"},{"id":"787663","name":"Nikolinci","latitude":"45.049438","longitude":"21.067221","country":"RS"},{"id":"787718","name":"Negotin","latitude":"44.226391","longitude":"22.530830","country":"RS"},{"id":"787743","name":"Nakovo","latitude":"45.873890","longitude":"20.567221","country":"RS"},{"id":"787837","name":"Mosorin","latitude":"45.302502","longitude":"20.164721","country":"RS"},{"id":"787855","name":"Mol","latitude":"45.764172","longitude":"20.131109","country":"RS"},{"id":"787857","name":"Mokrin","latitude":"45.935829","longitude":"20.407221","country":"RS"},{"id":"787929","name":"Miratovac","latitude":"42.259441","longitude":"21.663610","country":"RS"},{"id":"788040","name":"Melenci","latitude":"45.513889","longitude":"20.317221","country":"RS"},{"id":"788357","name":"Majdanpek","latitude":"44.427711","longitude":"21.945959","country":"RS"},{"id":"788421","name":"Lukicevo","latitude":"45.338612","longitude":"20.498890","country":"RS"},{"id":"788439","name":"Lugavcina","latitude":"44.518890","longitude":"21.068331","country":"RS"},{"id":"788507","name":"Lokve","latitude":"45.152779","longitude":"21.031111","country":"RS"},{"id":"788584","name":"Ljig","latitude":"44.230068","longitude":"20.238190","country":"RS"},{"id":"788709","name":"Leskovac","latitude":"42.998058","longitude":"21.946110","country":"RS"},{"id":"788768","name":"Lazarevo","latitude":"45.388329","longitude":"20.538891","country":"RS"},{"id":"788771","name":"Lazarevac","latitude":"44.385342","longitude":"20.255699","country":"RS"},{"id":"788792","name":"Lapovo","latitude":"44.184238","longitude":"21.097269","country":"RS"},{"id":"788868","name":"Kupinovo","latitude":"44.705559","longitude":"20.048059","country":"RS"},{"id":"788890","name":"Kumane","latitude":"45.538891","longitude":"20.228331","country":"RS"},{"id":"788975","name":"Krusevac","latitude":"43.580002","longitude":"21.333891","country":"RS"},{"id":"789076","name":"Krcedin","latitude":"45.139999","longitude":"20.132219","country":"RS"},{"id":"789107","name":"Kraljevo","latitude":"43.725830","longitude":"20.689440","country":"RS"},{"id":"789124","name":"Krajisnik","latitude":"45.452782","longitude":"20.729170","country":"RS"},{"id":"789128","name":"Kragujevac","latitude":"44.016670","longitude":"20.916670","country":"RS"},{"id":"789168","name":"Kovin","latitude":"44.747501","longitude":"20.976110","country":"RS"},{"id":"789170","name":"Kovilj","latitude":"45.227779","longitude":"20.021669","country":"RS"},{"id":"789178","name":"Kovacica","latitude":"45.111671","longitude":"20.621389","country":"RS"},{"id":"789415","name":"Knicanin","latitude":"45.187500","longitude":"20.318890","country":"RS"},{"id":"789471","name":"Klek","latitude":"45.421940","longitude":"20.480000","country":"RS"},{"id":"789518","name":"Kikinda","latitude":"45.829720","longitude":"20.465281","country":"RS"},{"id":"789600","name":"Kanjiza","latitude":"46.066669","longitude":"20.049999","country":"RS"},{"id":"789875","name":"Jasa Tomic","latitude":"45.446941","longitude":"20.855280","country":"RS"},{"id":"789880","name":"Jarkovac","latitude":"45.268890","longitude":"20.758329","country":"RS"},{"id":"789923","name":"Jagodina","latitude":"43.981392","longitude":"21.262220","country":"RS"},{"id":"789972","name":"Izbiste","latitude":"45.019718","longitude":"21.186390","country":"RS"},{"id":"790015","name":"Ingija","latitude":"45.049171","longitude":"20.079170","country":"RS"},{"id":"790028","name":"Ilandza","latitude":"45.169441","longitude":"20.919439","country":"RS"},{"id":"790035","name":"Tiszahegyes","latitude":"45.828892","longitude":"20.316111","country":"RS"},{"id":"790277","name":"Grabovac","latitude":"44.601391","longitude":"20.104719","country":"RS"},{"id":"790367","name":"Gornji Milanovac","latitude":"44.033329","longitude":"20.450001","country":"RS"},{"id":"790394","name":"Gornji Breg","latitude":"45.919170","longitude":"20.016670","country":"RS"},{"id":"790557","name":"Golubinci","latitude":"44.985001","longitude":"20.068890","country":"RS"},{"id":"790698","name":"Glogovac","latitude":"44.039719","longitude":"21.316389","country":"RS"},{"id":"790842","name":"Elemir","latitude":"45.442780","longitude":"20.298059","country":"RS"},{"id":"790847","name":"Ecka","latitude":"45.318611","longitude":"20.442780","country":"RS"},{"id":"790898","name":"Durdevo","latitude":"45.324718","longitude":"20.064720","country":"RS"},{"id":"791452","name":"Dobrica","latitude":"45.215000","longitude":"20.849440","country":"RS"},{"id":"791471","name":"Dobanovci","latitude":"44.826939","longitude":"20.225559","country":"RS"},{"id":"791589","name":"Debeljaca","latitude":"45.071110","longitude":"20.600000","country":"RS"},{"id":"791672","name":"Curug","latitude":"45.473061","longitude":"20.071390","country":"RS"},{"id":"791678","name":"Cuprija","latitude":"43.927502","longitude":"21.370001","country":"RS"},{"id":"791887","name":"Crepaja","latitude":"45.009441","longitude":"20.635559","country":"RS"},{"id":"791900","name":"Coka","latitude":"45.942501","longitude":"20.143330","country":"RS"},{"id":"791998","name":"Centa","latitude":"45.108330","longitude":"20.387779","country":"RS"},{"id":"792078","name":"Cacak","latitude":"43.891392","longitude":"20.349720","country":"RS"},{"id":"792404","name":"Botos","latitude":"45.308331","longitude":"20.636110","country":"RS"},{"id":"792456","name":"Bor","latitude":"44.078331","longitude":"22.095280","country":"RS"},{"id":"792467","name":"Boljevci","latitude":"44.722221","longitude":"20.222500","country":"RS"},{"id":"792479","name":"Boka","latitude":"45.354439","longitude":"20.829720","country":"RS"},{"id":"792530","name":"Bocar","latitude":"45.771111","longitude":"20.282221","country":"RS"},{"id":"792623","name":"Biljaca","latitude":"42.355831","longitude":"21.749439","country":"RS"},{"id":"792651","name":"Beska","latitude":"45.129719","longitude":"20.066111","country":"RS"},{"id":"792680","name":"Belgrade","latitude":"44.804008","longitude":"20.465130","country":"RS"},{"id":"792764","name":"Belegis","latitude":"45.021671","longitude":"20.335560","country":"RS"},{"id":"792794","name":"Bela Crkva","latitude":"44.897499","longitude":"21.417219","country":"RS"},{"id":"792807","name":"Begejci","latitude":"45.508610","longitude":"20.606390","country":"RS"},{"id":"792811","name":"Becmen","latitude":"44.779442","longitude":"20.208611","country":"RS"},{"id":"792814","name":"Becej","latitude":"45.616322","longitude":"20.033310","country":"RS"},{"id":"792851","name":"Basaid","latitude":"45.641109","longitude":"20.414169","country":"RS"},{"id":"792866","name":"Baric","latitude":"44.652222","longitude":"20.259439","country":"RS"},{"id":"792937","name":"Banatsko Veliko Selo","latitude":"45.827221","longitude":"20.599171","country":"RS"},{"id":"792940","name":"Banatsko Karadordevo","latitude":"45.583328","longitude":"20.563061","country":"RS"},{"id":"792945","name":"Banatski Karlovac","latitude":"45.047218","longitude":"21.016109","country":"RS"},{"id":"792948","name":"Banatski Despotovac","latitude":"45.365280","longitude":"20.664169","country":"RS"},{"id":"793014","name":"Backo Petrovo Selo","latitude":"45.708061","longitude":"20.075279","country":"RS"},{"id":"793015","name":"Backo Gradiste","latitude":"45.532780","longitude":"20.028330","country":"RS"},{"id":"793093","name":"Arilje","latitude":"43.753059","longitude":"20.095560","country":"RS"},{"id":"793111","name":"Arangelovac","latitude":"44.306938","longitude":"20.559999","country":"RS"},{"id":"793112","name":"Aradac","latitude":"45.383060","longitude":"20.301390","country":"RS"},{"id":"793134","name":"Alibunar","latitude":"45.080830","longitude":"20.965830","country":"RS"},{"id":"836698","name":"Rusko Selo","latitude":"45.762779","longitude":"20.571939","country":"RS"},{"id":"3186376","name":"Zmajevo","latitude":"45.453609","longitude":"19.685829","country":"RS"},{"id":"3187297","name":"Vrbas","latitude":"45.571388","longitude":"19.640829","country":"RS"},{"id":"3187641","name":"Visnjicevo","latitude":"44.965832","longitude":"19.290001","country":"RS"},{"id":"3187829","name":"Veternik","latitude":"45.253330","longitude":"19.759439","country":"RS"},{"id":"3188402","name":"Valjevo","latitude":"44.275131","longitude":"19.898211","country":"RS"},{"id":"3188434","name":"Uzice","latitude":"43.858608","longitude":"19.848780","country":"RS"},{"id":"3189595","name":"Subotica","latitude":"46.099998","longitude":"19.666670","country":"RS"},{"id":"3189859","name":"Stitar","latitude":"44.791389","longitude":"19.592779","country":"RS"},{"id":"3189891","name":"Stepanovicevo","latitude":"45.413891","longitude":"19.698330","country":"RS"},{"id":"3190042","name":"Stanisic","latitude":"45.939999","longitude":"19.165279","country":"RS"},{"id":"3190101","name":"Sremski Karlovci","latitude":"45.202499","longitude":"19.934441","country":"RS"},{"id":"3190103","name":"Sremska Mitrovica","latitude":"44.976391","longitude":"19.612221","country":"RS"},{"id":"3190335","name":"Sonta","latitude":"45.594719","longitude":"19.098061","country":"RS"},{"id":"3190342","name":"Sombor","latitude":"45.774170","longitude":"19.112221","country":"RS"},{"id":"3191256","name":"Sasinci","latitude":"44.970280","longitude":"19.742781","country":"RS"},{"id":"3191376","name":"Sabac","latitude":"44.746670","longitude":"19.690001","country":"RS"},{"id":"3191425","name":"Rumenka","latitude":"45.293060","longitude":"19.743891","country":"RS"},{"id":"3191429","name":"Ruma","latitude":"45.008060","longitude":"19.822220","country":"RS"},{"id":"3191660","name":"Ridica","latitude":"45.986389","longitude":"19.105000","country":"RS"},{"id":"3191699","name":"Ribari","latitude":"44.709999","longitude":"19.423889","country":"RS"},{"id":"3191802","name":"Ravno Selo","latitude":"45.450279","longitude":"19.619169","country":"RS"},{"id":"3192185","name":"Putinci","latitude":"44.991940","longitude":"19.971939","country":"RS"},{"id":"3192328","name":"Prnjavor","latitude":"44.698891","longitude":"19.388611","country":"RS"},{"id":"3192420","name":"Prigrevica","latitude":"45.678612","longitude":"19.086670","country":"RS"},{"id":"3193230","name":"Platicevo","latitude":"44.821110","longitude":"19.795280","country":"RS"},{"id":"3193406","name":"Petrovaradin","latitude":"45.246670","longitude":"19.879440","country":"RS"},{"id":"3193540","name":"Pecinci","latitude":"44.908890","longitude":"19.966391","country":"RS"},{"id":"3193944","name":"Osecina","latitude":"44.373058","longitude":"19.601391","country":"RS"},{"id":"3194360","name":"Novi Sad","latitude":"45.251671","longitude":"19.836941","country":"RS"},{"id":"3194498","name":"Nikinci","latitude":"44.851669","longitude":"19.821939","country":"RS"},{"id":"3195895","name":"Majur","latitude":"44.769718","longitude":"19.654440","country":"RS"},{"id":"3195939","name":"Maglic","latitude":"45.362221","longitude":"19.531670","country":"RS"},{"id":"3195962","name":"Macvanska Mitrovica","latitude":"44.965561","longitude":"19.598061","country":"RS"},{"id":"3196331","name":"Ljubovija","latitude":"44.189442","longitude":"19.376671","country":"RS"},{"id":"3196511","name":"Lipolist","latitude":"44.706669","longitude":"19.504440","country":"RS"},{"id":"3196517","name":"Lipnicki Sor","latitude":"44.580280","longitude":"19.266670","country":"RS"},{"id":"3196638","name":"Lesnica","latitude":"44.652500","longitude":"19.309999","country":"RS"},{"id":"3196910","name":"Kupusina","latitude":"45.736111","longitude":"19.009720","country":"RS"},{"id":"3196959","name":"Kulpin","latitude":"45.400829","longitude":"19.586941","country":"RS"},{"id":"3197111","name":"Krupanj","latitude":"44.365559","longitude":"19.361940","country":"RS"},{"id":"3198080","name":"Klenje","latitude":"44.807220","longitude":"19.434441","country":"RS"},{"id":"3198082","name":"Klenak","latitude":"44.788059","longitude":"19.710560","country":"RS"},{"id":"3198637","name":"Jevremovac","latitude":"44.720829","longitude":"19.663891","country":"RS"},{"id":"3198711","name":"Jelenca","latitude":"44.721111","longitude":"19.746670","country":"RS"},{"id":"3198868","name":"Jarak","latitude":"44.916672","longitude":"19.757219","country":"RS"},{"id":"3198963","name":"Jadranska Lesnica","latitude":"44.599171","longitude":"19.353609","country":"RS"},{"id":"3199251","name":"Hrtkovci","latitude":"44.878891","longitude":"19.770559","country":"RS"},{"id":"3200547","name":"Glusci","latitude":"44.890560","longitude":"19.548330","country":"RS"},{"id":"3200560","name":"Glozan","latitude":"45.277222","longitude":"19.568609","country":"RS"},{"id":"3200746","name":"Gakovo","latitude":"45.903332","longitude":"19.063610","country":"RS"},{"id":"3201108","name":"Dublje","latitude":"44.800560","longitude":"19.508060","country":"RS"},{"id":"3201216","name":"Drenovac","latitude":"44.867500","longitude":"19.709440","country":"RS"},{"id":"3201353","name":"Doroslovo","latitude":"45.608608","longitude":"19.190559","country":"RS"},{"id":"3202059","name":"Despotovo","latitude":"45.457779","longitude":"19.524719","country":"RS"},{"id":"3202477","name":"Crna Bara","latitude":"44.873611","longitude":"19.394720","country":"RS"},{"id":"3202798","name":"Celarevo","latitude":"45.269440","longitude":"19.525280","country":"RS"},{"id":"3202900","name":"Cajetina","latitude":"43.749771","longitude":"19.712730","country":"RS"},{"id":"3203139","name":"Budanovci","latitude":"44.892502","longitude":"19.862221","country":"RS"},{"id":"3203822","name":"Bogojevo","latitude":"45.530560","longitude":"19.132780","country":"RS"},{"id":"3203840","name":"Bogatic","latitude":"44.837502","longitude":"19.480560","country":"RS"},{"id":"3204623","name":"Bajina Basta","latitude":"43.970829","longitude":"19.567499","country":"RS"},{"id":"3204635","name":"Badovinci","latitude":"44.785831","longitude":"19.371389","country":"RS"},{"id":"3204665","name":"Backi Petrovac","latitude":"45.360561","longitude":"19.591669","country":"RS"},{"id":"3204672","name":"Backa Topola","latitude":"45.815159","longitude":"19.631800","country":"RS"},{"id":"3204674","name":"Backa Palanka","latitude":"45.250832","longitude":"19.391939","country":"RS"},{"id":"3204793","name":"Apatin","latitude":"45.671108","longitude":"18.984720","country":"RS"},{"id":"3217047","name":"Pocerski Pricinovic","latitude":"44.722221","longitude":"19.707220","country":"RS"},{"id":"3302765","name":"Zlatibor","latitude":"43.716839","longitude":"19.700029","country":"RS"},{"id":"6619277","name":"Knjazevac","latitude":"43.564838","longitude":"22.250231","country":"RS"},{"id":"7577033","name":"Sumulice","latitude":"42.386822","longitude":"21.733999","country":"RS"}]