[{"id":"2627309","name":"Saudarkrokur","latitude":"65.746109","longitude":"-19.639441","country":"IS"},{"id":"2629833","name":"Husavik","latitude":"66.044891","longitude":"-17.338850","country":"IS"},{"id":"2633274","name":"Akureyri","latitude":"65.683533","longitude":"-18.087799","country":"IS"},{"id":"3412093","name":"Vestmannaeyjar","latitude":"63.442730","longitude":"-20.273390","country":"IS"},{"id":"3413604","name":"Selfoss","latitude":"63.933109","longitude":"-20.997120","country":"IS"},{"id":"3413829","name":"Reykjavik","latitude":"64.135483","longitude":"-21.895411","country":"IS"},{"id":"3414222","name":"Njardvik","latitude":"63.980900","longitude":"-22.514500","country":"IS"},{"id":"3414979","name":"Seltjarnarnes","latitude":"64.150002","longitude":"-22.000000","country":"IS"},{"id":"3415021","name":"Mosfellsbaer","latitude":"64.166672","longitude":"-21.700001","country":"IS"},{"id":"3415212","name":"Kopavogur","latitude":"64.112343","longitude":"-21.912979","country":"IS"},{"id":"3415496","name":"Keflavik","latitude":"64.004921","longitude":"-22.562420","country":"IS"},{"id":"3415667","name":"Isafjoerdur","latitude":"66.075493","longitude":"-23.124001","country":"IS"},{"id":"3415761","name":"Hveragerdi","latitude":"64.000572","longitude":"-21.188740","country":"IS"},{"id":"3416706","name":"Hafnarfjordur","latitude":"64.067101","longitude":"-21.937740","country":"IS"},{"id":"3416888","name":"Grindavik","latitude":"63.842400","longitude":"-22.433750","country":"IS"},{"id":"3417195","name":"Gardabar","latitude":"64.088654","longitude":"-21.922979","country":"IS"},{"id":"3417972","name":"Alftanes","latitude":"64.099998","longitude":"-22.016670","country":"IS"},{"id":"3418653","name":"Akranes","latitude":"64.321793","longitude":"-22.074900","country":"IS"},{"id":"6354943","name":"Egilsstadir","latitude":"65.265327","longitude":"-14.394840","country":"IS"}]