[{"id":"610824","name":"Zugdidi","latitude":"42.508801","longitude":"41.870880","country":"GE"},{"id":"610849","name":"Zhinvali","latitude":"42.131809","longitude":"44.772640","country":"GE"},{"id":"610864","name":"Zestaponi","latitude":"42.110001","longitude":"43.052502","country":"GE"},{"id":"611093","name":"Zahesi","latitude":"41.824581","longitude":"44.753609","country":"GE"},{"id":"611219","name":"Vani","latitude":"42.083199","longitude":"42.521629","country":"GE"},{"id":"611230","name":"Vale","latitude":"41.615582","longitude":"42.872238","country":"GE"},{"id":"611373","name":"Tsnori","latitude":"41.620880","longitude":"45.969429","country":"GE"},{"id":"611398","name":"Tsqneti","latitude":"41.694721","longitude":"44.698608","country":"GE"},{"id":"611403","name":"Tskhinvali","latitude":"42.227638","longitude":"43.968609","country":"GE"},{"id":"611492","name":"Tsinandali","latitude":"41.893150","longitude":"45.571289","country":"GE"},{"id":"611551","name":"Tsalenjikha","latitude":"42.604439","longitude":"42.068249","country":"GE"},{"id":"611564","name":"Tsaghveri","latitude":"41.803650","longitude":"43.481941","country":"GE"},{"id":"611583","name":"Tqvarcheli","latitude":"42.840351","longitude":"41.680069","country":"GE"},{"id":"611584","name":"Tqibuli","latitude":"42.351212","longitude":"42.998741","country":"GE"},{"id":"611674","name":"Tetri Tsqaro","latitude":"41.544479","longitude":"44.461529","country":"GE"},{"id":"611694","name":"Telavi","latitude":"41.919781","longitude":"45.473148","country":"GE"},{"id":"611717","name":"Tbilisi","latitude":"41.694111","longitude":"44.833679","country":"GE"},{"id":"611809","name":"Surami","latitude":"42.024311","longitude":"43.555561","country":"GE"},{"id":"611847","name":"Sokhumi","latitude":"43.003334","longitude":"41.015278","country":"GE"},{"id":"611902","name":"Sighnaghi","latitude":"41.620461","longitude":"45.921982","country":"GE"},{"id":"612012","name":"Naghvarevi","latitude":"41.352718","longitude":"44.761780","country":"GE"},{"id":"612053","name":"Senaki","latitude":"42.270420","longitude":"42.067501","country":"GE"},{"id":"612126","name":"Samtredia","latitude":"42.153702","longitude":"42.335171","country":"GE"},{"id":"612230","name":"Sagarejo","latitude":"41.733971","longitude":"45.331478","country":"GE"},{"id":"612287","name":"Rustavi","latitude":"41.549492","longitude":"44.993229","country":"GE"},{"id":"612338","name":"Qvareli","latitude":"41.954922","longitude":"45.817162","country":"GE"},{"id":"612366","name":"Poti","latitude":"42.146160","longitude":"41.671970","country":"GE"},{"id":"612502","name":"Pasanauri","latitude":"42.350601","longitude":"44.689121","country":"GE"},{"id":"612592","name":"Oni","latitude":"42.579441","longitude":"43.442501","country":"GE"},{"id":"612648","name":"Ochkhamuri","latitude":"41.859749","longitude":"41.853088","country":"GE"},{"id":"612652","name":"Ochamchire","latitude":"42.712318","longitude":"41.468632","country":"GE"},{"id":"612691","name":"Ninotsminda","latitude":"41.264580","longitude":"43.591599","country":"GE"},{"id":"612890","name":"Mtskheta","latitude":"41.845139","longitude":"44.718750","country":"GE"},{"id":"612987","name":"Mestia","latitude":"43.045811","longitude":"42.727798","country":"GE"},{"id":"613065","name":"Martvili","latitude":"42.414360","longitude":"42.379238","country":"GE"},{"id":"613074","name":"Marneuli","latitude":"41.475880","longitude":"44.808941","country":"GE"},{"id":"613093","name":"Manglisi","latitude":"41.696980","longitude":"44.384480","country":"GE"},{"id":"613125","name":"Makhinjauri","latitude":"41.673851","longitude":"41.694012","country":"GE"},{"id":"613226","name":"Lentekhi","latitude":"42.785561","longitude":"42.726109","country":"GE"},{"id":"613342","name":"Lagodekhi","latitude":"41.826809","longitude":"46.276669","country":"GE"},{"id":"613559","name":"Kveda Chkhorotsqu","latitude":"42.481030","longitude":"42.096611","country":"GE"},{"id":"613607","name":"Kutaisi","latitude":"42.249611","longitude":"42.699741","country":"GE"},{"id":"613641","name":"Kulashi","latitude":"42.204441","longitude":"42.349442","country":"GE"},{"id":"613762","name":"Kobuleti","latitude":"41.820000","longitude":"41.775280","country":"GE"},{"id":"613902","name":"Khoni","latitude":"42.322601","longitude":"42.420609","country":"GE"},{"id":"613918","name":"Khobi","latitude":"42.315578","longitude":"41.898708","country":"GE"},{"id":"613988","name":"Khashuri","latitude":"41.994141","longitude":"43.599941","country":"GE"},{"id":"614087","name":"Stepantsminda","latitude":"42.656670","longitude":"44.643330","country":"GE"},{"id":"614104","name":"Kaspi","latitude":"41.925201","longitude":"44.425678","country":"GE"},{"id":"614351","name":"Gurjaani","latitude":"41.742920","longitude":"45.801109","country":"GE"},{"id":"614409","name":"Gudauta","latitude":"43.105469","longitude":"40.620670","country":"GE"},{"id":"614455","name":"Gori","latitude":"41.984219","longitude":"44.115780","country":"GE"},{"id":"614575","name":"Gardabani","latitude":"41.460541","longitude":"45.092831","country":"GE"},{"id":"614580","name":"Gantiadi","latitude":"43.381111","longitude":"40.079441","country":"GE"},{"id":"614613","name":"Gali","latitude":"42.626549","longitude":"41.738079","country":"GE"},{"id":"614622","name":"Gagra","latitude":"43.328335","longitude":"40.223888","country":"GE"},{"id":"614740","name":"Jvari","latitude":"42.716919","longitude":"42.051998","country":"GE"},{"id":"614890","name":"Dmanisi","latitude":"41.525139","longitude":"44.347198","country":"GE"},{"id":"614897","name":"Dioknisi","latitude":"41.629330","longitude":"42.391708","country":"GE"},{"id":"614934","name":"Didi Lilo","latitude":"41.736111","longitude":"44.964722","country":"GE"},{"id":"615403","name":"Borjomi","latitude":"41.852718","longitude":"43.412842","country":"GE"},{"id":"615419","name":"Bolnisi","latitude":"41.447941","longitude":"44.538380","country":"GE"},{"id":"615460","name":"Bichvinta","latitude":"43.159168","longitude":"40.337776","country":"GE"},{"id":"615532","name":"Batumi","latitude":"41.641590","longitude":"41.635929","country":"GE"},{"id":"615583","name":"Bakuriani","latitude":"41.749722","longitude":"43.532501","country":"GE"},{"id":"615611","name":"Bagdadi","latitude":"41.816669","longitude":"46.033329","country":"GE"},{"id":"615660","name":"Aspindza","latitude":"41.573891","longitude":"43.248260","country":"GE"},{"id":"615776","name":"Ambrolauri","latitude":"42.521111","longitude":"43.162220","country":"GE"},{"id":"615844","name":"Akhmeta","latitude":"42.031109","longitude":"45.207500","country":"GE"},{"id":"615860","name":"Akhaltsikhe","latitude":"41.639011","longitude":"42.982620","country":"GE"},{"id":"615893","name":"Akhalkalaki","latitude":"41.405140","longitude":"43.486290","country":"GE"},{"id":"615912","name":"Stantsiya Novyy Afon","latitude":"43.080555","longitude":"40.838333","country":"GE"},{"id":"615921","name":"Akhaldaba","latitude":"41.653950","longitude":"42.151630","country":"GE"},{"id":"615943","name":"Agara","latitude":"42.037609","longitude":"43.823818","country":"GE"},{"id":"616022","name":"Abasha","latitude":"42.209591","longitude":"42.221111","country":"GE"},{"id":"824288","name":"Tsqaltubo","latitude":"42.341290","longitude":"42.597599","country":"GE"},{"id":"824385","name":"Naruja","latitude":"41.906940","longitude":"41.954170","country":"GE"},{"id":"6324644","name":"Meria","latitude":"41.692780","longitude":"44.801540","country":"GE"},{"id":"6940391","name":"Tskhinvali","latitude":"42.230000","longitude":"43.970001","country":"GE"}]