[{"id":"2509293","name":"Zurgena","latitude":"37.342178","longitude":"-2.039850","country":"ES"},{"id":"2509300","name":"Zujar","latitude":"37.542850","longitude":"-2.841970","country":"ES"},{"id":"2509305","name":"Zubia","latitude":"37.119061","longitude":"-3.584000","country":"ES"},{"id":"2509329","name":"Zarza de Alange","latitude":"38.818138","longitude":"-6.217560","country":"ES"},{"id":"2509364","name":"Zalamea la Real","latitude":"37.680119","longitude":"-6.659780","country":"ES"},{"id":"2509365","name":"Zalamea de la Serena","latitude":"38.651310","longitude":"-5.660630","country":"ES"},{"id":"2509368","name":"Zahinos","latitude":"38.331348","longitude":"-6.955330","country":"ES"},{"id":"2509377","name":"Zafra","latitude":"38.416672","longitude":"-6.416670","country":"ES"},{"id":"2509379","name":"Zafarraya","latitude":"36.975540","longitude":"-4.144420","country":"ES"},{"id":"2509382","name":"Yunquera","latitude":"36.732521","longitude":"-4.921220","country":"ES"},{"id":"2509386","name":"Yeste","latitude":"38.368519","longitude":"-2.317560","country":"ES"},{"id":"2509389","name":"Yepes","latitude":"39.901981","longitude":"-3.625170","country":"ES"},{"id":"2509402","name":"Yecla","latitude":"38.613651","longitude":"-1.114680","country":"ES"},{"id":"2509406","name":"Yatova","latitude":"39.383331","longitude":"-0.800000","country":"ES"},{"id":"2509408","name":"Yaiza","latitude":"28.956779","longitude":"-13.765350","country":"ES"},{"id":"2509437","name":"Viso del Marques","latitude":"38.522079","longitude":"-3.563480","country":"ES"},{"id":"2509457","name":"Vinalesa","latitude":"39.533329","longitude":"-0.366670","country":"ES"},{"id":"2509463","name":"Villena","latitude":"38.637299","longitude":"-0.865680","country":"ES"},{"id":"2509465","name":"Villavieja","latitude":"39.849998","longitude":"-0.183330","country":"ES"},{"id":"2509466","name":"Villaviciosa de Cordoba","latitude":"38.083328","longitude":"-5.016670","country":"ES"},{"id":"2509468","name":"Villaverde del Rio","latitude":"37.589191","longitude":"-5.874430","country":"ES"},{"id":"2509475","name":"Villatobas","latitude":"39.901871","longitude":"-3.323860","country":"ES"},{"id":"2509477","name":"Villasequilla de Yepes","latitude":"39.875820","longitude":"-3.731100","country":"ES"},{"id":"2509480","name":"Villarta de San Juan","latitude":"39.237850","longitude":"-3.423320","country":"ES"},{"id":"2509486","name":"Villarrubia de Santiago","latitude":"39.985550","longitude":"-3.368980","country":"ES"},{"id":"2509487","name":"Villarrubia de los Ojos","latitude":"39.220852","longitude":"-3.608020","country":"ES"},{"id":"2509488","name":"Villarrubia","latitude":"37.849998","longitude":"-4.900000","country":"ES"},{"id":"2509491","name":"Villarrobledo","latitude":"39.269920","longitude":"-2.601180","country":"ES"},{"id":"2509494","name":"Villarrasa","latitude":"37.389561","longitude":"-6.605840","country":"ES"},{"id":"2509509","name":"Vila-real","latitude":"39.933331","longitude":"-0.100000","country":"ES"},{"id":"2509516","name":"Villar del Rey","latitude":"39.133099","longitude":"-6.847620","country":"ES"},{"id":"2509520","name":"Villar del Arzobispo","latitude":"39.733330","longitude":"-0.816670","country":"ES"},{"id":"2509543","name":"Villanueva del Trabuco","latitude":"37.028320","longitude":"-4.338910","country":"ES"},{"id":"2509544","name":"Villanueva del Rosario","latitude":"36.996792","longitude":"-4.365350","country":"ES"},{"id":"2509545","name":"Villanueva del Rio y Minas","latitude":"37.655022","longitude":"-5.713690","country":"ES"},{"id":"2509550","name":"Villanueva del Fresno","latitude":"38.375999","longitude":"-7.167530","country":"ES"},{"id":"2509553","name":"Villanueva de la Serena","latitude":"38.976551","longitude":"-5.797400","country":"ES"},{"id":"2509555","name":"Villanueva del Arzobispo","latitude":"38.168419","longitude":"-3.007420","country":"ES"},{"id":"2509556","name":"Villanueva del Ariscal","latitude":"37.396229","longitude":"-6.140770","country":"ES"},{"id":"2509557","name":"Villanueva de la Reina","latitude":"38.004318","longitude":"-3.916030","country":"ES"},{"id":"2509558","name":"Villanueva de la Jara","latitude":"39.433331","longitude":"-1.933330","country":"ES"},{"id":"2509560","name":"Villanueva de la Fuente","latitude":"38.694630","longitude":"-2.696370","country":"ES"},{"id":"2509562","name":"Villanueva de Cordoba","latitude":"38.322769","longitude":"-4.628720","country":"ES"},{"id":"2509564","name":"Villanueva de Castellon","latitude":"39.077412","longitude":"-0.511670","country":"ES"},{"id":"2509566","name":"Villanueva de Algaidas","latitude":"37.183498","longitude":"-4.450320","country":"ES"},{"id":"2509567","name":"Villanueva de Alcardete","latitude":"39.673199","longitude":"-3.014450","country":"ES"},{"id":"2509573","name":"Villamayor de Santiago","latitude":"39.730721","longitude":"-2.923570","country":"ES"},{"id":"2509575","name":"Villamartin","latitude":"36.859791","longitude":"-5.644850","country":"ES"},{"id":"2509576","name":"Vilamarxant","latitude":"39.566669","longitude":"-0.616670","country":"ES"},{"id":"2509577","name":"Villamanrique de la Condesa","latitude":"37.244808","longitude":"-6.306650","country":"ES"},{"id":"2509580","name":"Villamalea","latitude":"39.366669","longitude":"-1.583330","country":"ES"},{"id":"2509583","name":"Villalonga","latitude":"38.885658","longitude":"-0.207950","country":"ES"},{"id":"2509587","name":"Villalba del Alcor","latitude":"37.397308","longitude":"-6.474610","country":"ES"},{"id":"2509588","name":"Villajoyosa","latitude":"38.507542","longitude":"-0.233460","country":"ES"},{"id":"2509589","name":"Villahermosa","latitude":"38.750229","longitude":"-2.870660","country":"ES"},{"id":"2509597","name":"Villafranca de los Caballeros","latitude":"39.428242","longitude":"-3.360790","country":"ES"},{"id":"2509598","name":"Villafranca de los Barros","latitude":"38.561440","longitude":"-6.338100","country":"ES"},{"id":"2509599","name":"Villafranca de Cordoba","latitude":"37.962570","longitude":"-4.545470","country":"ES"},{"id":"2509600","name":"Vilafranca de Bonany","latitude":"39.568939","longitude":"3.088150","country":"ES"},{"id":"2509603","name":"Villa del Rio","latitude":"37.981079","longitude":"-4.290030","country":"ES"},{"id":"2509605","name":"Villa de Don Fadrique","latitude":"39.615051","longitude":"-3.219150","country":"ES"},{"id":"2509606","name":"Villacarrillo","latitude":"38.115601","longitude":"-3.084800","country":"ES"},{"id":"2509607","name":"Es Castell","latitude":"39.877602","longitude":"4.289900","country":"ES"},{"id":"2509608","name":"Villacanas","latitude":"39.623669","longitude":"-3.338130","country":"ES"},{"id":"2509609","name":"Villablanca","latitude":"37.302391","longitude":"-7.344130","country":"ES"},{"id":"2509615","name":"Vilches","latitude":"38.206951","longitude":"-3.510250","country":"ES"},{"id":"2509617","name":"Vilaflor","latitude":"28.156231","longitude":"-16.635920","country":"ES"},{"id":"2509650","name":"Vicar","latitude":"36.831551","longitude":"-2.642730","country":"ES"},{"id":"2509660","name":"Viator","latitude":"36.890060","longitude":"-2.426950","country":"ES"},{"id":"2509669","name":"Vergel","latitude":"38.847092","longitude":"0.010340","country":"ES"},{"id":"2509693","name":"Vera","latitude":"37.243450","longitude":"-1.859050","country":"ES"},{"id":"2509768","name":"Velez Rubio","latitude":"37.648441","longitude":"-2.076860","country":"ES"},{"id":"2509769","name":"Velez-Malaga","latitude":"36.772621","longitude":"-4.100450","country":"ES"},{"id":"2509771","name":"Velez de Benaudalla","latitude":"36.832439","longitude":"-3.515390","country":"ES"},{"id":"2509772","name":"Velez Blanco","latitude":"37.691780","longitude":"-2.095870","country":"ES"},{"id":"2509781","name":"Velada","latitude":"39.976871","longitude":"-4.976410","country":"ES"},{"id":"2509783","name":"Vejer de la Frontera","latitude":"36.244560","longitude":"-5.969530","country":"ES"},{"id":"2509799","name":"Vega de San Mateo","latitude":"28.008921","longitude":"-15.533300","country":"ES"},{"id":"2509834","name":"Valverde de Leganes","latitude":"38.670589","longitude":"-6.980360","country":"ES"},{"id":"2509835","name":"Valverde del Camino","latitude":"37.575111","longitude":"-6.754320","country":"ES"},{"id":"2509841","name":"Valverde","latitude":"27.806280","longitude":"-17.915779","country":"ES"},{"id":"2509846","name":"Valsequillo de Gran Canaria","latitude":"27.985620","longitude":"-15.497250","country":"ES"},{"id":"2509864","name":"Valleseco","latitude":"28.043301","longitude":"-15.576230","country":"ES"},{"id":"2509887","name":"Vallehermosa","latitude":"28.179440","longitude":"-17.266640","country":"ES"},{"id":"2509929","name":"Valldemossa","latitude":"39.710419","longitude":"2.622300","country":"ES"},{"id":"2509934","name":"Vallada","latitude":"38.895748","longitude":"-0.691040","country":"ES"},{"id":"2509946","name":"Valencina de la Concepcion","latitude":"37.416180","longitude":"-6.074220","country":"ES"},{"id":"2509947","name":"Valencia del Ventoso","latitude":"38.266670","longitude":"-6.466670","country":"ES"},{"id":"2509950","name":"Valencia de Alcantara","latitude":"39.411480","longitude":"-7.244350","country":"ES"},{"id":"2509954","name":"Valencia","latitude":"39.469749","longitude":"-0.377390","country":"ES"},{"id":"2509974","name":"Valdes","latitude":"36.758350","longitude":"-4.242350","country":"ES"},{"id":"2509980","name":"Valdepenas de Jaen","latitude":"37.589031","longitude":"-3.814500","country":"ES"},{"id":"2509982","name":"Valdepenas","latitude":"38.762112","longitude":"-3.384830","country":"ES"},{"id":"2510073","name":"Utrera","latitude":"37.185162","longitude":"-5.780930","country":"ES"},{"id":"2510075","name":"Utiel","latitude":"39.566669","longitude":"-1.200000","country":"ES"},{"id":"2510079","name":"Usagre","latitude":"38.349998","longitude":"-6.166670","country":"ES"},{"id":"2510083","name":"Urda","latitude":"39.411800","longitude":"-3.714930","country":"ES"},{"id":"2510098","name":"Umbrete","latitude":"37.368809","longitude":"-6.158470","country":"ES"},{"id":"2510103","name":"Ugijar","latitude":"36.960869","longitude":"-3.055230","country":"ES"},{"id":"2510112","name":"Ubrique","latitude":"36.677780","longitude":"-5.446000","country":"ES"},{"id":"2510116","name":"Ubeda","latitude":"38.013279","longitude":"-3.370500","country":"ES"},{"id":"2510124","name":"Turre","latitude":"37.152241","longitude":"-1.894970","country":"ES"},{"id":"2510128","name":"Turis","latitude":"39.383331","longitude":"-0.700000","country":"ES"},{"id":"2510137","name":"Tuineje","latitude":"28.323721","longitude":"-14.047220","country":"ES"},{"id":"2510145","name":"Trujillo","latitude":"39.457859","longitude":"-5.882030","country":"ES"},{"id":"2510165","name":"Trigueros","latitude":"37.386059","longitude":"-6.826800","country":"ES"},{"id":"2510186","name":"Trebujena","latitude":"36.870750","longitude":"-6.175860","country":"ES"},{"id":"2510224","name":"Totana","latitude":"37.768799","longitude":"-1.502290","country":"ES"},{"id":"2510245","name":"Torrox","latitude":"36.757931","longitude":"-3.952330","country":"ES"},{"id":"2510249","name":"Torrijos","latitude":"39.981941","longitude":"-4.283490","country":"ES"},{"id":"2510253","name":"Torrevieja","latitude":"37.978722","longitude":"-0.682220","country":"ES"},{"id":"2510270","name":"Torreperogil","latitude":"38.035400","longitude":"-3.289980","country":"ES"},{"id":"2510271","name":"Torre-Pacheco","latitude":"37.742931","longitude":"-0.953960","country":"ES"},{"id":"2510274","name":"Torrenueva","latitude":"38.639599","longitude":"-3.362590","country":"ES"},{"id":"2510279","name":"Torrent","latitude":"39.437050","longitude":"-0.465460","country":"ES"},{"id":"2510281","name":"Torremolinos","latitude":"36.620350","longitude":"-4.499760","country":"ES"},{"id":"2510295","name":"Torrejoncillo","latitude":"39.896751","longitude":"-6.467120","country":"ES"},{"id":"2510301","name":"Torredonjimeno","latitude":"37.767479","longitude":"-3.957760","country":"ES"},{"id":"2510310","name":"Torre del Campo","latitude":"37.770512","longitude":"-3.897310","country":"ES"},{"id":"2510330","name":"Torreblascopedro","latitude":"37.997501","longitude":"-3.637800","country":"ES"},{"id":"2510349","name":"Torralba de Calatrava","latitude":"39.017849","longitude":"-3.751050","country":"ES"},{"id":"2510392","name":"Tomelloso","latitude":"39.152180","longitude":"-3.024310","country":"ES"},{"id":"2510394","name":"Tomares","latitude":"37.372810","longitude":"-6.045890","country":"ES"},{"id":"2510398","name":"Tolox","latitude":"36.687210","longitude":"-4.905110","country":"ES"},{"id":"2510409","name":"Toledo","latitude":"39.858101","longitude":"-4.022630","country":"ES"},{"id":"2510419","name":"Tocina","latitude":"37.609039","longitude":"-5.734030","country":"ES"},{"id":"2510426","name":"Tobarra","latitude":"38.592129","longitude":"-1.691910","country":"ES"},{"id":"2510455","name":"Tinajo","latitude":"29.063259","longitude":"-13.676470","country":"ES"},{"id":"2510463","name":"Tijola","latitude":"37.346062","longitude":"-2.433260","country":"ES"},{"id":"2510468","name":"Tijarafe","latitude":"28.700001","longitude":"-17.950001","country":"ES"},{"id":"2510485","name":"Tias","latitude":"28.961081","longitude":"-13.645020","country":"ES"},{"id":"2510488","name":"Teulada","latitude":"38.729401","longitude":"0.103830","country":"ES"},{"id":"2510508","name":"Teror","latitude":"28.060619","longitude":"-15.549090","country":"ES"},{"id":"2510540","name":"Tembleque","latitude":"39.695412","longitude":"-3.504290","country":"ES"},{"id":"2510542","name":"Telde","latitude":"27.992420","longitude":"-15.419150","country":"ES"},{"id":"2510558","name":"Tejeda","latitude":"27.995081","longitude":"-15.615430","country":"ES"},{"id":"2510573","name":"Teguise","latitude":"29.060490","longitude":"-13.563980","country":"ES"},{"id":"2510574","name":"Tegueste","latitude":"28.516670","longitude":"-16.316669","country":"ES"},{"id":"2510580","name":"Teba","latitude":"36.983582","longitude":"-4.919130","country":"ES"},{"id":"2510582","name":"Tazacorte","latitude":"28.641859","longitude":"-17.933941","country":"ES"},{"id":"2510599","name":"Tarifa","latitude":"36.013931","longitude":"-5.606950","country":"ES"},{"id":"2510602","name":"Tarazona de la Mancha","latitude":"39.250000","longitude":"-1.916670","country":"ES"},{"id":"2510621","name":"Tanque","latitude":"28.366671","longitude":"-16.833330","country":"ES"},{"id":"2510689","name":"Talayuela","latitude":"39.987011","longitude":"-5.609820","country":"ES"},{"id":"2510692","name":"Talavera La Real","latitude":"38.877941","longitude":"-6.768560","country":"ES"},{"id":"2510693","name":"Talavera de la Reina","latitude":"39.963482","longitude":"-4.830760","country":"ES"},{"id":"2510700","name":"Talarrubias","latitude":"39.036968","longitude":"-5.234220","country":"ES"},{"id":"2510725","name":"Tacoronte","latitude":"28.476879","longitude":"-16.410160","country":"ES"},{"id":"2510743","name":"Tavernes de la Valldigna","latitude":"39.066669","longitude":"-0.266670","country":"ES"},{"id":"2510744","name":"Tavernes Blanques","latitude":"39.500000","longitude":"-0.366670","country":"ES"},{"id":"2510746","name":"Tabernas","latitude":"37.049919","longitude":"-2.390840","country":"ES"},{"id":"2510764","name":"Sueca","latitude":"39.202599","longitude":"-0.311140","country":"ES"},{"id":"2510793","name":"Sorbas","latitude":"37.097610","longitude":"-2.123490","country":"ES"},{"id":"2510799","name":"Son Servera","latitude":"39.620731","longitude":"3.360080","country":"ES"},{"id":"2510801","name":"Sonseca","latitude":"39.677471","longitude":"-3.974480","country":"ES"},{"id":"2510821","name":"Soller","latitude":"39.766232","longitude":"2.715210","country":"ES"},{"id":"2510822","name":"Sollana","latitude":"39.283329","longitude":"-0.366670","country":"ES"},{"id":"2510839","name":"Solana de los Barros","latitude":"38.725269","longitude":"-6.539000","country":"ES"},{"id":"2510852","name":"Socuellamos","latitude":"39.285809","longitude":"-2.792060","country":"ES"},{"id":"2510853","name":"Socovos","latitude":"38.332321","longitude":"-1.984850","country":"ES"},{"id":"2510864","name":"Siruela","latitude":"38.977180","longitude":"-5.049690","country":"ES"},{"id":"2510868","name":"Sineu","latitude":"39.642540","longitude":"3.010340","country":"ES"},{"id":"2510870","name":"Simat de la Valldigna","latitude":"39.033329","longitude":"-0.316670","country":"ES"},{"id":"2510880","name":"Silla","latitude":"39.366669","longitude":"-0.416670","country":"ES"},{"id":"2510895","name":"Sierra de Yeguas","latitude":"37.124199","longitude":"-4.867730","country":"ES"},{"id":"2510911","name":"Sevilla","latitude":"37.382408","longitude":"-5.976130","country":"ES"},{"id":"2510915","name":"Setenil de las Bodegas","latitude":"36.863972","longitude":"-5.181770","country":"ES"},{"id":"2510919","name":"Ses Salines","latitude":"39.338310","longitude":"3.052740","country":"ES"},{"id":"2510940","name":"Serra","latitude":"39.683331","longitude":"-0.433330","country":"ES"},{"id":"2510944","name":"Seron","latitude":"37.344849","longitude":"-2.509130","country":"ES"},{"id":"2510961","name":"Selva","latitude":"39.755039","longitude":"2.900690","country":"ES"},{"id":"2510967","name":"Segura de Leon","latitude":"38.116669","longitude":"-6.516670","country":"ES"},{"id":"2510972","name":"Segorbe","latitude":"39.849998","longitude":"-0.483330","country":"ES"},{"id":"2510975","name":"Sedavi","latitude":"39.433331","longitude":"-0.383330","country":"ES"},{"id":"2511010","name":"Sax","latitude":"38.537289","longitude":"-0.817790","country":"ES"},{"id":"2511012","name":"Sauzal","latitude":"28.466669","longitude":"-16.416670","country":"ES"},{"id":"2511032","name":"San Vicent del Raspeig","latitude":"38.396400","longitude":"-0.525500","country":"ES"},{"id":"2511038","name":"Santo Tome","latitude":"38.028610","longitude":"-3.100920","country":"ES"},{"id":"2511050","name":"Santomera","latitude":"38.061470","longitude":"-1.048770","country":"ES"},{"id":"2511063","name":"Santisteban del Puerto","latitude":"38.248291","longitude":"-3.207620","country":"ES"},{"id":"2511064","name":"Santiponce","latitude":"37.435532","longitude":"-6.041060","country":"ES"},{"id":"2511070","name":"Santiago del Teide","latitude":"28.294001","longitude":"-16.816179","country":"ES"},{"id":"2511091","name":"Santa Ursula","latitude":"28.426130","longitude":"-16.488760","country":"ES"},{"id":"2511102","name":"Santa Pola","latitude":"38.191650","longitude":"-0.565800","country":"ES"},{"id":"2511106","name":"Santanyi","latitude":"39.354610","longitude":"3.129070","country":"ES"},{"id":"2511112","name":"Santa Marta","latitude":"38.614208","longitude":"-6.627990","country":"ES"},{"id":"2511143","name":"Santa Margalida","latitude":"39.701431","longitude":"3.102150","country":"ES"},{"id":"2511150","name":"Santa Lucia","latitude":"27.911739","longitude":"-15.540710","country":"ES"},{"id":"2511162","name":"Santa Eularia des Riu","latitude":"38.984570","longitude":"1.534090","country":"ES"},{"id":"2511170","name":"Santaella","latitude":"37.562939","longitude":"-4.843620","country":"ES"},{"id":"2511174","name":"Santa Cruz de Tenerife","latitude":"28.468241","longitude":"-16.254620","country":"ES"},{"id":"2511175","name":"Santa Cruz de Mudela","latitude":"38.642422","longitude":"-3.466500","country":"ES"},{"id":"2511178","name":"Santa Cruz de la Zarza","latitude":"39.981041","longitude":"-3.187870","country":"ES"},{"id":"2511180","name":"Santa Cruz de la Palma","latitude":"28.683510","longitude":"-17.764210","country":"ES"},{"id":"2511202","name":"Santa Brigida","latitude":"28.031969","longitude":"-15.504250","country":"ES"},{"id":"2511222","name":"Santa Amalia","latitude":"39.011181","longitude":"-6.011580","country":"ES"},{"id":"2511230","name":"San Sebastian de la Gomera","latitude":"28.091631","longitude":"-17.113310","country":"ES"},{"id":"2511239","name":"San Roque","latitude":"36.210670","longitude":"-5.384150","country":"ES"},{"id":"2511247","name":"San Pedro del Pinatar","latitude":"37.835678","longitude":"-0.791020","country":"ES"},{"id":"2511275","name":"San Nicolas","latitude":"27.989100","longitude":"-15.781260","country":"ES"},{"id":"2511277","name":"San Miguel de Salinas","latitude":"37.979721","longitude":"-0.789040","country":"ES"},{"id":"2511287","name":"San Miguel","latitude":"28.098261","longitude":"-16.617081","country":"ES"},{"id":"2511302","name":"Sant Lluis","latitude":"39.852631","longitude":"4.259390","country":"ES"},{"id":"2511304","name":"Sanlucar la Mayor","latitude":"37.387138","longitude":"-6.201060","country":"ES"},{"id":"2511306","name":"Sanlucar de Barrameda","latitude":"36.778080","longitude":"-6.351500","country":"ES"},{"id":"2511326","name":"San Juan del Puerto","latitude":"37.316669","longitude":"-6.841390","country":"ES"},{"id":"2511327","name":"San Juan de la Rambla","latitude":"28.392759","longitude":"-16.650150","country":"ES"},{"id":"2511329","name":"San Juan de Aznalfarache","latitude":"37.358120","longitude":"-6.037310","country":"ES"},{"id":"2511330","name":"San Juan de Alicante","latitude":"38.401482","longitude":"-0.436230","country":"ES"},{"id":"2511331","name":"Sant Joan de Labritja","latitude":"39.078911","longitude":"1.513970","country":"ES"},{"id":"2511352","name":"Sant Josep de sa Talaia","latitude":"38.916672","longitude":"1.283330","country":"ES"},{"id":"2511366","name":"San Javier","latitude":"37.806259","longitude":"-0.837360","country":"ES"},{"id":"2511381","name":"Sant Francesc de Formentera","latitude":"38.700001","longitude":"1.416670","country":"ES"},{"id":"2511388","name":"San Fernando","latitude":"36.475899","longitude":"-6.198170","country":"ES"},{"id":"2511401","name":"La Laguna","latitude":"28.485300","longitude":"-16.320141","country":"ES"},{"id":"2511411","name":"San Clemente","latitude":"39.404099","longitude":"-2.428190","country":"ES"},{"id":"2511420","name":"Sencelles","latitude":"39.645981","longitude":"2.897690","country":"ES"},{"id":"2511440","name":"San Bartolome","latitude":"27.924810","longitude":"-15.573290","country":"ES"},{"id":"2511441","name":"San Bartolome de la Torre","latitude":"37.445148","longitude":"-7.105970","country":"ES"},{"id":"2511447","name":"San Bartolome","latitude":"29.000931","longitude":"-13.613000","country":"ES"},{"id":"2511448","name":"Sant Antoni de Portmany","latitude":"38.980679","longitude":"1.303620","country":"ES"},{"id":"2511477","name":"Salvaleon","latitude":"38.510201","longitude":"-6.786270","country":"ES"},{"id":"2511495","name":"Salteras","latitude":"37.420601","longitude":"-6.110490","country":"ES"},{"id":"2511503","name":"Salobrena","latitude":"36.742771","longitude":"-3.587170","country":"ES"},{"id":"2511551","name":"Salar","latitude":"37.150360","longitude":"-4.065760","country":"ES"},{"id":"2511619","name":"Sagunto","latitude":"39.683331","longitude":"-0.266670","country":"ES"},{"id":"2511633","name":"Sabiote","latitude":"38.069160","longitude":"-3.314480","country":"ES"},{"id":"2511649","name":"Rute","latitude":"37.326900","longitude":"-4.368270","country":"ES"},{"id":"2511651","name":"Rus","latitude":"38.047588","longitude":"-3.462540","country":"ES"},{"id":"2511700","name":"Rota","latitude":"36.622360","longitude":"-6.358590","country":"ES"},{"id":"2511716","name":"Roquetas de Mar","latitude":"36.764191","longitude":"-2.614750","country":"ES"},{"id":"2511730","name":"Ronda","latitude":"36.742310","longitude":"-5.167090","country":"ES"},{"id":"2511752","name":"Rojales","latitude":"38.087990","longitude":"-0.725440","country":"ES"},{"id":"2511771","name":"Rocafort","latitude":"39.533329","longitude":"-0.400000","country":"ES"},{"id":"2511825","name":"Riogordo","latitude":"36.917271","longitude":"-4.293180","country":"ES"},{"id":"2511852","name":"Rincon de la Victoria","latitude":"36.717152","longitude":"-4.275830","country":"ES"},{"id":"2511873","name":"Ribera del Fresno","latitude":"38.551769","longitude":"-6.237680","country":"ES"},{"id":"2511880","name":"Ribarroja","latitude":"39.549999","longitude":"-0.566670","country":"ES"},{"id":"2511930","name":"Requena","latitude":"39.488338","longitude":"-1.100440","country":"ES"},{"id":"2511969","name":"Redovan","latitude":"38.116192","longitude":"-0.909810","country":"ES"},{"id":"2511994","name":"Realejo Alto","latitude":"28.376450","longitude":"-16.585751","country":"ES"},{"id":"2511996","name":"Real de Montroi","latitude":"39.333328","longitude":"-0.600000","country":"ES"},{"id":"2512071","name":"Rafelguaraf","latitude":"39.051262","longitude":"-0.455430","country":"ES"},{"id":"2512075","name":"Rafal","latitude":"38.104580","longitude":"-0.849040","country":"ES"},{"id":"2512095","name":"Quintanar del Rey","latitude":"39.333328","longitude":"-1.933330","country":"ES"},{"id":"2512096","name":"Quintanar de la Orden","latitude":"39.593681","longitude":"-3.041650","country":"ES"},{"id":"2512099","name":"Quintana de la Serena","latitude":"38.745949","longitude":"-5.672330","country":"ES"},{"id":"2512107","name":"Quesada","latitude":"37.843380","longitude":"-3.065610","country":"ES"},{"id":"2512127","name":"Pucol","latitude":"39.616669","longitude":"-0.300000","country":"ES"},{"id":"2512131","name":"Purullena","latitude":"37.317631","longitude":"-3.190560","country":"ES"},{"id":"2512138","name":"Puntallana","latitude":"28.733330","longitude":"-17.733330","country":"ES"},{"id":"2512152","name":"Pulpi","latitude":"37.411541","longitude":"-1.744960","country":"ES"},{"id":"2512155","name":"Pulianas","latitude":"37.223019","longitude":"-3.608320","country":"ES"},{"id":"2512162","name":"Puig","latitude":"39.588692","longitude":"-0.303330","country":"ES"},{"id":"2512164","name":"Puerto Serrano","latitude":"36.922089","longitude":"-5.543040","country":"ES"},{"id":"2512169","name":"Puerto Real","latitude":"36.528191","longitude":"-6.190110","country":"ES"},{"id":"2512177","name":"Puertollano","latitude":"38.687119","longitude":"-4.107340","country":"ES"},{"id":"2512186","name":"Puerto del Rosario","latitude":"28.500380","longitude":"-13.862720","country":"ES"},{"id":"2512196","name":"Puerto de la Cruz","latitude":"28.413971","longitude":"-16.548670","country":"ES"},{"id":"2512232","name":"Puente-Genil","latitude":"37.389431","longitude":"-4.766860","country":"ES"},{"id":"2512238","name":"Puente de Genave","latitude":"38.355438","longitude":"-2.803200","country":"ES"},{"id":"2512250","name":"La Pobla Llarga","latitude":"39.083328","longitude":"-0.466670","country":"ES"},{"id":"2512251","name":"La Pobla de Vallbona","latitude":"39.599998","longitude":"-0.550000","country":"ES"},{"id":"2512253","name":"Puebla de Sancho Perez","latitude":"38.400002","longitude":"-6.400000","country":"ES"},{"id":"2512255","name":"Puebla de Obando","latitude":"39.176300","longitude":"-6.627640","country":"ES"},{"id":"2512263","name":"Puebla de la Calzada","latitude":"38.894409","longitude":"-6.625920","country":"ES"},{"id":"2512264","name":"Puebla de Guzman","latitude":"37.614269","longitude":"-7.248780","country":"ES"},{"id":"2512272","name":"Pruna","latitude":"36.972260","longitude":"-5.222300","country":"ES"},{"id":"2512282","name":"Priego de Cordoba","latitude":"37.438068","longitude":"-4.195230","country":"ES"},{"id":"2512294","name":"Prado del Rey","latitude":"36.787560","longitude":"-5.555900","country":"ES"},{"id":"2512305","name":"Pozuelo de Calatrava","latitude":"38.583328","longitude":"-3.833330","country":"ES"},{"id":"2512337","name":"Pozo-Canada","latitude":"38.803329","longitude":"-1.735320","country":"ES"},{"id":"2512340","name":"Pozoblanco","latitude":"38.379059","longitude":"-4.848270","country":"ES"},{"id":"2512343","name":"Pozo Alcon","latitude":"37.702560","longitude":"-2.933670","country":"ES"},{"id":"2512367","name":"Posadas","latitude":"37.802052","longitude":"-5.107260","country":"ES"},{"id":"2512369","name":"Porzuna","latitude":"39.146179","longitude":"-4.154060","country":"ES"},{"id":"2512398","name":"Porreres","latitude":"39.514339","longitude":"3.021970","country":"ES"},{"id":"2512408","name":"Porcuna","latitude":"37.871021","longitude":"-4.185010","country":"ES"},{"id":"2512427","name":"Polop","latitude":"38.622581","longitude":"-0.130900","country":"ES"},{"id":"2512432","name":"Pollenca","latitude":"39.876781","longitude":"3.016260","country":"ES"},{"id":"2512433","name":"Polinya de Xuquer","latitude":"39.200001","longitude":"-0.366670","country":"ES"},{"id":"2512437","name":"Polan","latitude":"39.787651","longitude":"-4.167920","country":"ES"},{"id":"2512458","name":"Pliego","latitude":"37.989460","longitude":"-1.504440","country":"ES"},{"id":"2512490","name":"Pizarra","latitude":"36.765430","longitude":"-4.708330","country":"ES"},{"id":"2512509","name":"Pinos Puente","latitude":"37.251099","longitude":"-3.749670","country":"ES"},{"id":"2512510","name":"Pinoso","latitude":"38.401642","longitude":"-1.041960","country":"ES"},{"id":"2512571","name":"Piles","latitude":"38.941429","longitude":"-0.132860","country":"ES"},{"id":"2512578","name":"Pilas","latitude":"37.303371","longitude":"-6.300970","country":"ES"},{"id":"2512581","name":"Pilar de la Horadada","latitude":"37.865910","longitude":"-0.792560","country":"ES"},{"id":"2512609","name":"Piedrabuena","latitude":"39.035358","longitude":"-4.175120","country":"ES"},{"id":"2512620","name":"Picassent","latitude":"39.366669","longitude":"-0.450000","country":"ES"},{"id":"2512624","name":"Picanya","latitude":"39.433331","longitude":"-0.433330","country":"ES"},{"id":"2512638","name":"Petra","latitude":"39.613510","longitude":"3.113120","country":"ES"},{"id":"2512660","name":"Periana","latitude":"36.929310","longitude":"-4.191630","country":"ES"},{"id":"2512730","name":"Penarroya-Pueblonuevo","latitude":"38.299999","longitude":"-5.266670","country":"ES"},{"id":"2512746","name":"Penaflor","latitude":"37.708920","longitude":"-5.345040","country":"ES"},{"id":"2512767","name":"Peligros","latitude":"37.232311","longitude":"-3.629010","country":"ES"},{"id":"2512784","name":"Pegalajar","latitude":"37.740082","longitude":"-3.649460","country":"ES"},{"id":"2512794","name":"Pedro Munoz","latitude":"39.402851","longitude":"-2.946640","country":"ES"},{"id":"2512812","name":"Pedro Abad","latitude":"37.966862","longitude":"-4.455600","country":"ES"},{"id":"2512824","name":"Pedrera","latitude":"37.226040","longitude":"-4.894200","country":"ES"},{"id":"2512825","name":"Pedreguer","latitude":"38.793121","longitude":"0.034110","country":"ES"},{"id":"2512837","name":"Pedralba","latitude":"39.599998","longitude":"-0.716670","country":"ES"},{"id":"2512844","name":"Peal de Becerro","latitude":"37.913380","longitude":"-3.121480","country":"ES"},{"id":"2512857","name":"Paterna de Rivera","latitude":"36.522461","longitude":"-5.865780","country":"ES"},{"id":"2512860","name":"Paterna del Campo","latitude":"37.419479","longitude":"-6.402480","country":"ES"},{"id":"2512862","name":"Paterna","latitude":"39.500000","longitude":"-0.433330","country":"ES"},{"id":"2512933","name":"Paradas","latitude":"37.290470","longitude":"-5.497030","country":"ES"},{"id":"2512950","name":"Palos de la Frontera","latitude":"37.234570","longitude":"-6.894710","country":"ES"},{"id":"2512964","name":"Palomares del Rio","latitude":"37.322239","longitude":"-6.058630","country":"ES"},{"id":"2512989","name":"Palma","latitude":"39.569389","longitude":"2.650240","country":"ES"},{"id":"2512990","name":"Palma del Rio","latitude":"37.700241","longitude":"-5.281210","country":"ES"},{"id":"2513026","name":"Pajara","latitude":"28.350389","longitude":"-14.107600","country":"ES"},{"id":"2513029","name":"Paiporta","latitude":"39.433331","longitude":"-0.416670","country":"ES"},{"id":"2513035","name":"Padul","latitude":"37.024620","longitude":"-3.626780","country":"ES"},{"id":"2513045","name":"Otura","latitude":"37.088459","longitude":"-3.633210","country":"ES"},{"id":"2513052","name":"Osuna","latitude":"37.237652","longitude":"-5.107460","country":"ES"},{"id":"2513053","name":"Ossa de Montiel","latitude":"38.963982","longitude":"-2.745530","country":"ES"},{"id":"2513069","name":"Oropesa","latitude":"39.917259","longitude":"-5.173710","country":"ES"},{"id":"2513073","name":"Orjiva","latitude":"36.902592","longitude":"-3.423790","country":"ES"},{"id":"2513076","name":"Orihuela","latitude":"38.084831","longitude":"-0.944010","country":"ES"},{"id":"2513079","name":"Oria","latitude":"37.485298","longitude":"-2.292920","country":"ES"},{"id":"2513081","name":"Orgaz","latitude":"39.648258","longitude":"-3.875770","country":"ES"},{"id":"2513084","name":"Orellana la Vieja","latitude":"39.006168","longitude":"-5.534410","country":"ES"},{"id":"2513094","name":"Orcera","latitude":"38.317421","longitude":"-2.664870","country":"ES"},{"id":"2513098","name":"Orba","latitude":"38.780411","longitude":"-0.062780","country":"ES"},{"id":"2513103","name":"Ontur","latitude":"38.615089","longitude":"-1.497240","country":"ES"},{"id":"2513104","name":"Ontigola","latitude":"40.004211","longitude":"-3.572270","country":"ES"},{"id":"2513106","name":"Ontinyent","latitude":"38.816669","longitude":"-0.616670","country":"ES"},{"id":"2513113","name":"Onil","latitude":"38.626060","longitude":"-0.673130","country":"ES"},{"id":"2513114","name":"Ondara","latitude":"38.828171","longitude":"0.017200","country":"ES"},{"id":"2513115","name":"Onda","latitude":"39.966671","longitude":"-0.250000","country":"ES"},{"id":"2513120","name":"Olvera","latitude":"36.934181","longitude":"-5.266780","country":"ES"},{"id":"2513121","name":"Olula del Rio","latitude":"37.349998","longitude":"-2.300000","country":"ES"},{"id":"2513130","name":"LOlleria","latitude":"38.916672","longitude":"-0.550000","country":"ES"},{"id":"2513140","name":"Olivares","latitude":"37.418018","longitude":"-6.156030","country":"ES"},{"id":"2513143","name":"Oliva de la Frontera","latitude":"38.275951","longitude":"-6.918740","country":"ES"},{"id":"2513145","name":"Oliva","latitude":"38.919708","longitude":"-0.119350","country":"ES"},{"id":"2513146","name":"Olias del Rey","latitude":"39.944359","longitude":"-3.986840","country":"ES"},{"id":"2513163","name":"Ojen","latitude":"36.564861","longitude":"-4.855610","country":"ES"},{"id":"2513167","name":"Ogijares","latitude":"37.119129","longitude":"-3.607720","country":"ES"},{"id":"2513175","name":"Ocana","latitude":"39.957851","longitude":"-3.498200","country":"ES"},{"id":"2513180","name":"Nules","latitude":"39.853619","longitude":"-0.156420","country":"ES"},{"id":"2513184","name":"Nueva-Carteya","latitude":"37.586300","longitude":"-4.467590","country":"ES"},{"id":"2513195","name":"Novelda","latitude":"38.384789","longitude":"-0.767730","country":"ES"},{"id":"2513216","name":"Noblejas","latitude":"39.980610","longitude":"-3.440010","country":"ES"},{"id":"2513217","name":"Noalejo","latitude":"37.530170","longitude":"-3.656150","country":"ES"},{"id":"2513222","name":"Nijar","latitude":"36.966549","longitude":"-2.205950","country":"ES"},{"id":"2513230","name":"Niebla","latitude":"37.362129","longitude":"-6.678940","country":"ES"},{"id":"2513237","name":"Nerva","latitude":"37.696270","longitude":"-6.549680","country":"ES"},{"id":"2513240","name":"Nerja","latitude":"36.758549","longitude":"-3.887270","country":"ES"},{"id":"2513306","name":"Navarres","latitude":"39.101978","longitude":"-0.694690","country":"ES"},{"id":"2513313","name":"Navalvillar de Pela","latitude":"39.094360","longitude":"-5.468100","country":"ES"},{"id":"2513324","name":"Navalmoral de la Mata","latitude":"39.891579","longitude":"-5.540640","country":"ES"},{"id":"2513346","name":"Navahermosa","latitude":"39.635262","longitude":"-4.470120","country":"ES"},{"id":"2513375","name":"Naquera","latitude":"39.650002","longitude":"-0.416670","country":"ES"},{"id":"2513384","name":"Nambroca","latitude":"39.797710","longitude":"-3.944340","country":"ES"},{"id":"2513395","name":"Museros","latitude":"39.566669","longitude":"-0.350000","country":"ES"},{"id":"2513403","name":"Muro del Alcoy","latitude":"38.781200","longitude":"-0.436080","country":"ES"},{"id":"2513406","name":"Muro","latitude":"39.736610","longitude":"3.055590","country":"ES"},{"id":"2513416","name":"Murcia","latitude":"37.987041","longitude":"-1.130040","country":"ES"},{"id":"2513421","name":"Munera","latitude":"39.042171","longitude":"-2.480680","country":"ES"},{"id":"2513436","name":"Mula","latitude":"38.040939","longitude":"-1.490140","country":"ES"},{"id":"2513465","name":"Muchamiel","latitude":"38.415798","longitude":"-0.445290","country":"ES"},{"id":"2513476","name":"Moya","latitude":"28.101360","longitude":"-15.589170","country":"ES"},{"id":"2513477","name":"Motril","latitude":"36.750660","longitude":"-3.517900","country":"ES"},{"id":"2513480","name":"Motilla del Palancar","latitude":"39.566669","longitude":"-1.883330","country":"ES"},{"id":"2513481","name":"Mota del Cuervo","latitude":"39.501881","longitude":"-2.869940","country":"ES"},{"id":"2513509","name":"Moron de la Frontera","latitude":"37.120838","longitude":"-5.454030","country":"ES"},{"id":"2513562","name":"Moratalla","latitude":"38.189281","longitude":"-1.891830","country":"ES"},{"id":"2513579","name":"Moraleda de Zafayona","latitude":"37.167229","longitude":"-3.965050","country":"ES"},{"id":"2513580","name":"Moral de Calatrava","latitude":"38.829891","longitude":"-3.578130","country":"ES"},{"id":"2513588","name":"Mora","latitude":"39.684921","longitude":"-3.773940","country":"ES"},{"id":"2513589","name":"Monturque","latitude":"37.471859","longitude":"-4.581640","country":"ES"},{"id":"2513590","name":"Montuiri","latitude":"39.567421","longitude":"2.981890","country":"ES"},{"id":"2513595","name":"Montoro","latitude":"38.024090","longitude":"-4.383400","country":"ES"},{"id":"2513597","name":"Montizon","latitude":"38.342491","longitude":"-3.104040","country":"ES"},{"id":"2513601","name":"Montilla","latitude":"37.586269","longitude":"-4.638050","country":"ES"},{"id":"2513604","name":"Montijo","latitude":"38.908390","longitude":"-6.617850","country":"ES"},{"id":"2513618","name":"Monterrubio de la Serena","latitude":"38.588760","longitude":"-5.445690","country":"ES"},{"id":"2513632","name":"Montemayor","latitude":"37.647900","longitude":"-4.697790","country":"ES"},{"id":"2513637","name":"Montellano","latitude":"36.995312","longitude":"-5.571450","country":"ES"},{"id":"2513638","name":"Montejicar","latitude":"37.572239","longitude":"-3.505270","country":"ES"},{"id":"2513640","name":"Montefrio","latitude":"37.323078","longitude":"-4.008980","country":"ES"},{"id":"2513649","name":"Montealegre del Castillo","latitude":"38.788559","longitude":"-1.327220","country":"ES"},{"id":"2513659","name":"Montanchez","latitude":"39.225479","longitude":"-6.149140","country":"ES"},{"id":"2513671","name":"Montalban de Cordoba","latitude":"37.579960","longitude":"-4.749350","country":"ES"},{"id":"2513674","name":"Monserrat","latitude":"39.366669","longitude":"-0.600000","country":"ES"},{"id":"2513680","name":"Monovar","latitude":"38.438091","longitude":"-0.840620","country":"ES"},{"id":"2513691","name":"Monforte del Cid","latitude":"38.380268","longitude":"-0.728500","country":"ES"},{"id":"2513692","name":"Monesterio","latitude":"38.083328","longitude":"-6.266670","country":"ES"},{"id":"2513699","name":"Monda","latitude":"36.630268","longitude":"-4.831920","country":"ES"},{"id":"2513700","name":"Moncofar","latitude":"39.809071","longitude":"-0.147010","country":"ES"},{"id":"2513703","name":"Moncada","latitude":"39.545551","longitude":"-0.395510","country":"ES"},{"id":"2513709","name":"Monachil","latitude":"37.133202","longitude":"-3.537240","country":"ES"},{"id":"2513713","name":"Molvizar","latitude":"36.785919","longitude":"-3.607820","country":"ES"},{"id":"2513717","name":"Mollina","latitude":"37.125340","longitude":"-4.656860","country":"ES"},{"id":"2513759","name":"Molina de Segura","latitude":"38.054562","longitude":"-1.207630","country":"ES"},{"id":"2513786","name":"Mojacar","latitude":"37.140202","longitude":"-1.851020","country":"ES"},{"id":"2513791","name":"Moguer","latitude":"37.275589","longitude":"-6.838510","country":"ES"},{"id":"2513794","name":"Mogente","latitude":"38.875980","longitude":"-0.751500","country":"ES"},{"id":"2513798","name":"Mogan","latitude":"27.883850","longitude":"-15.725380","country":"ES"},{"id":"2513801","name":"Moclin","latitude":"37.339588","longitude":"-3.786510","country":"ES"},{"id":"2513803","name":"Mocejon","latitude":"39.939339","longitude":"-3.917160","country":"ES"},{"id":"2513811","name":"Mislata","latitude":"39.475231","longitude":"-0.418250","country":"ES"},{"id":"2513852","name":"Minglanilla","latitude":"39.533329","longitude":"-1.600000","country":"ES"},{"id":"2513882","name":"Mijas","latitude":"36.595749","longitude":"-4.637280","country":"ES"},{"id":"2513885","name":"Miguelturra","latitude":"38.964420","longitude":"-3.890470","country":"ES"},{"id":"2513886","name":"Miguel Esteban","latitude":"39.524479","longitude":"-3.076180","country":"ES"},{"id":"2513893","name":"Miajadas","latitude":"39.151272","longitude":"-5.908410","country":"ES"},{"id":"2513917","name":"Merida","latitude":"38.916111","longitude":"-6.343660","country":"ES"},{"id":"2513922","name":"Es Mercadal","latitude":"39.990139","longitude":"4.093870","country":"ES"},{"id":"2513931","name":"Mengibar","latitude":"37.969780","longitude":"-3.808840","country":"ES"},{"id":"2513935","name":"Menasalbas","latitude":"39.639542","longitude":"-4.284180","country":"ES"},{"id":"2513944","name":"Membrilla","latitude":"38.971981","longitude":"-3.343300","country":"ES"},{"id":"2513947","name":"Melilla","latitude":"35.293690","longitude":"-2.938330","country":"ES"},{"id":"2513949","name":"Meliana","latitude":"39.533329","longitude":"-0.333330","country":"ES"},{"id":"2513961","name":"Medina Sidonia","latitude":"36.456951","longitude":"-5.927170","country":"ES"},{"id":"2513968","name":"Medellin","latitude":"38.962650","longitude":"-5.957850","country":"ES"},{"id":"2513978","name":"Mazo","latitude":"28.609060","longitude":"-17.778009","country":"ES"},{"id":"2513983","name":"Mazarron","latitude":"37.599201","longitude":"-1.314930","country":"ES"},{"id":"2514066","name":"Massamagrell","latitude":"39.566669","longitude":"-0.333330","country":"ES"},{"id":"2514073","name":"Martos","latitude":"37.721069","longitude":"-3.972640","country":"ES"},{"id":"2514084","name":"Martin de la Jara","latitude":"37.108669","longitude":"-4.963470","country":"ES"},{"id":"2514097","name":"Marratxi","latitude":"39.642078","longitude":"2.753880","country":"ES"},{"id":"2514107","name":"Marmolejo","latitude":"38.045490","longitude":"-4.170290","country":"ES"},{"id":"2514120","name":"Marinaleda","latitude":"37.371201","longitude":"-4.959490","country":"ES"},{"id":"2514134","name":"Maria de la Salut","latitude":"39.663059","longitude":"3.073000","country":"ES"},{"id":"2514158","name":"Marchena","latitude":"37.328999","longitude":"-5.416820","country":"ES"},{"id":"2514169","name":"Marbella","latitude":"36.515430","longitude":"-4.885830","country":"ES"},{"id":"2514176","name":"Maracena","latitude":"37.207642","longitude":"-3.634930","country":"ES"},{"id":"2514185","name":"Manzanilla","latitude":"37.389870","longitude":"-6.432950","country":"ES"},{"id":"2514190","name":"Manzanares","latitude":"38.999149","longitude":"-3.369910","country":"ES"},{"id":"2514192","name":"Manuel","latitude":"39.050591","longitude":"-0.489780","country":"ES"},{"id":"2514197","name":"Manises","latitude":"39.491390","longitude":"-0.463490","country":"ES"},{"id":"2514199","name":"Manilva","latitude":"36.376450","longitude":"-5.250260","country":"ES"},{"id":"2514211","name":"Mancha Real","latitude":"37.786270","longitude":"-3.612260","country":"ES"},{"id":"2514216","name":"Manacor","latitude":"39.569641","longitude":"3.209550","country":"ES"},{"id":"2514219","name":"Malpica","latitude":"39.897461","longitude":"-4.549880","country":"ES"},{"id":"2514225","name":"Malpartida de Plasencia","latitude":"39.979622","longitude":"-6.046090","country":"ES"},{"id":"2514227","name":"Malpartida de Caceres","latitude":"39.446640","longitude":"-6.507600","country":"ES"},{"id":"2514252","name":"Malagon","latitude":"39.166679","longitude":"-3.854190","country":"ES"},{"id":"2514256","name":"Malaga","latitude":"36.720161","longitude":"-4.420340","country":"ES"},{"id":"2514287","name":"Mairena del Aljarafe","latitude":"37.344608","longitude":"-6.063910","country":"ES"},{"id":"2514288","name":"Mairena del Alcor","latitude":"37.373009","longitude":"-5.749520","country":"ES"},{"id":"2514301","name":"Mao","latitude":"39.888531","longitude":"4.265830","country":"ES"},{"id":"2514324","name":"Madronera","latitude":"39.425259","longitude":"-5.755680","country":"ES"},{"id":"2514332","name":"Madrigueras","latitude":"39.233330","longitude":"-1.800000","country":"ES"},{"id":"2514333","name":"Madrigalejo","latitude":"39.138580","longitude":"-5.627400","country":"ES"},{"id":"2514334","name":"Madridejos","latitude":"39.468231","longitude":"-3.531960","country":"ES"},{"id":"2514360","name":"Macael","latitude":"37.333179","longitude":"-2.300870","country":"ES"},{"id":"2514367","name":"Luque","latitude":"37.557968","longitude":"-4.279740","country":"ES"},{"id":"2514370","name":"Puerto Lumbreras","latitude":"37.563290","longitude":"-1.809740","country":"ES"},{"id":"2514386","name":"Llutxent","latitude":"38.933331","longitude":"-0.350000","country":"ES"},{"id":"2514389","name":"Lucena del Puerto","latitude":"37.303959","longitude":"-6.729260","country":"ES"},{"id":"2514392","name":"Lucena","latitude":"37.408810","longitude":"-4.485220","country":"ES"},{"id":"2514406","name":"Los Yebenes","latitude":"39.581581","longitude":"-3.870580","country":"ES"},{"id":"2514452","name":"Los Silos","latitude":"28.366100","longitude":"-16.815519","country":"ES"},{"id":"2514460","name":"Los Santos de Maimona","latitude":"38.450001","longitude":"-6.383330","country":"ES"},{"id":"2514553","name":"Los Palacios y Villafranca","latitude":"37.161812","longitude":"-5.924330","country":"ES"},{"id":"2514573","name":"Los Navalucillos","latitude":"39.666649","longitude":"-4.642050","country":"ES"},{"id":"2514574","name":"Los Navalmorales","latitude":"39.725262","longitude":"-4.642270","country":"ES"},{"id":"2514593","name":"Los Montesinos","latitude":"38.028221","longitude":"-0.745010","country":"ES"},{"id":"2514601","name":"Los Molares","latitude":"37.157040","longitude":"-5.718020","country":"ES"},{"id":"2514651","name":"Los Llanos de Aridane","latitude":"28.658510","longitude":"-17.918209","country":"ES"},{"id":"2514747","name":"Los Corrales","latitude":"37.099178","longitude":"-4.984290","country":"ES"},{"id":"2514824","name":"Los Barrios","latitude":"36.184818","longitude":"-5.492130","country":"ES"},{"id":"2514868","name":"Los Alcazares","latitude":"37.744251","longitude":"-0.850410","country":"ES"},{"id":"2514883","name":"Lorqui","latitude":"38.082611","longitude":"-1.251030","country":"ES"},{"id":"2514891","name":"Lorca","latitude":"37.671188","longitude":"-1.701700","country":"ES"},{"id":"2514893","name":"Lora del Rio","latitude":"37.658958","longitude":"-5.527510","country":"ES"},{"id":"2514896","name":"Lopera","latitude":"37.945419","longitude":"-4.214630","country":"ES"},{"id":"2514912","name":"Lomo de Arico","latitude":"28.166670","longitude":"-16.483330","country":"ES"},{"id":"2514946","name":"Loja","latitude":"37.168869","longitude":"-4.151290","country":"ES"},{"id":"2514947","name":"Logrosan","latitude":"39.336411","longitude":"-5.492810","country":"ES"},{"id":"2514964","name":"Lobon","latitude":"38.848759","longitude":"-6.623650","country":"ES"},{"id":"2514984","name":"Llucmajor","latitude":"39.490929","longitude":"2.891080","country":"ES"},{"id":"2514987","name":"Llubi","latitude":"39.699329","longitude":"3.006810","country":"ES"},{"id":"2514988","name":"Lloseta","latitude":"39.718491","longitude":"2.866900","country":"ES"},{"id":"2514989","name":"Llosa de Ranes","latitude":"39.021629","longitude":"-0.538030","country":"ES"},{"id":"2514994","name":"Llombai","latitude":"39.283329","longitude":"-0.566670","country":"ES"},{"id":"2515002","name":"Llerena","latitude":"38.233330","longitude":"-6.016670","country":"ES"},{"id":"2515036","name":"Lliria","latitude":"39.633331","longitude":"-0.600000","country":"ES"},{"id":"2515045","name":"Linares","latitude":"38.095188","longitude":"-3.636020","country":"ES"},{"id":"2515055","name":"Lillo","latitude":"39.723309","longitude":"-3.306180","country":"ES"},{"id":"2515060","name":"Librilla","latitude":"37.886421","longitude":"-1.355570","country":"ES"},{"id":"2515072","name":"Lepe","latitude":"37.254822","longitude":"-7.204330","country":"ES"},{"id":"2515093","name":"Ledana","latitude":"39.366669","longitude":"-1.700000","country":"ES"},{"id":"2515096","name":"Lebrija","latitude":"36.920769","longitude":"-6.075290","country":"ES"},{"id":"2515118","name":"La Victoria de Acentejo","latitude":"28.432310","longitude":"-16.462320","country":"ES"},{"id":"2515151","name":"La Union","latitude":"37.619148","longitude":"-0.877990","country":"ES"},{"id":"2515219","name":"Las Torres de Cotillas","latitude":"38.028221","longitude":"-1.241880","country":"ES"},{"id":"2515261","name":"Las Pedroneras","latitude":"39.449970","longitude":"-2.673940","country":"ES"},{"id":"2515270","name":"Las Palmas de Gran Canaria","latitude":"28.099730","longitude":"-15.413430","country":"ES"},{"id":"2515284","name":"La Solana","latitude":"38.944221","longitude":"-3.238100","country":"ES"},{"id":"2515319","name":"Las Mesas","latitude":"39.388710","longitude":"-2.765240","country":"ES"},{"id":"2515493","name":"Las Cabezas de San Juan","latitude":"36.983799","longitude":"-5.939330","country":"ES"},{"id":"2515550","name":"La Romana","latitude":"38.367531","longitude":"-0.898620","country":"ES"},{"id":"2515554","name":"La Roda de Andalucia","latitude":"37.203812","longitude":"-4.778020","country":"ES"},{"id":"2515555","name":"La Roda","latitude":"39.216671","longitude":"-2.150000","country":"ES"},{"id":"2515562","name":"La Rinconada","latitude":"37.487339","longitude":"-5.982580","country":"ES"},{"id":"2515597","name":"La Rambla","latitude":"37.607601","longitude":"-4.739620","country":"ES"},{"id":"2515617","name":"La Puerta de Segura","latitude":"38.352928","longitude":"-2.739560","country":"ES"},{"id":"2515618","name":"La Pueblanueva","latitude":"39.912079","longitude":"-4.679330","country":"ES"},{"id":"2515619","name":"La Puebla de Montalban","latitude":"39.862968","longitude":"-4.359170","country":"ES"},{"id":"2515620","name":"La Puebla del Rio","latitude":"37.267872","longitude":"-6.062640","country":"ES"},{"id":"2515621","name":"La Puebla de los Infantes","latitude":"37.780899","longitude":"-5.388370","country":"ES"},{"id":"2515622","name":"La Puebla de Cazalla","latitude":"37.221550","longitude":"-5.311530","country":"ES"},{"id":"2515623","name":"La Puebla de Almoradiel","latitude":"39.598621","longitude":"-3.117820","country":"ES"},{"id":"2515624","name":"sa Pobla","latitude":"39.769199","longitude":"3.023940","country":"ES"},{"id":"2515679","name":"La Palma del Condado","latitude":"37.386051","longitude":"-6.552310","country":"ES"},{"id":"2515692","name":"La Orotava","latitude":"28.390760","longitude":"-16.523090","country":"ES"},{"id":"2515698","name":"La Oliva","latitude":"28.610519","longitude":"-13.929120","country":"ES"},{"id":"2515701","name":"la Nucia","latitude":"38.613720","longitude":"-0.126900","country":"ES"},{"id":"2515708","name":"Lanjaron","latitude":"36.918530","longitude":"-3.481800","country":"ES"},{"id":"2515755","name":"La Mojonera","latitude":"37.292332","longitude":"-2.437300","country":"ES"},{"id":"2515772","name":"La Matanza de Acentejo","latitude":"28.452419","longitude":"-16.447201","country":"ES"},{"id":"2515801","name":"La Luisiana","latitude":"37.526020","longitude":"-5.248830","country":"ES"},{"id":"2515812","name":"La Linea de la Concepcion","latitude":"36.168091","longitude":"-5.347770","country":"ES"},{"id":"2515814","name":"La Lantejuela","latitude":"37.353500","longitude":"-5.224770","country":"ES"},{"id":"2515908","name":"La Guardia de Jaen","latitude":"37.743031","longitude":"-3.693120","country":"ES"},{"id":"2515911","name":"La Guancha","latitude":"28.372940","longitude":"-16.660789","country":"ES"},{"id":"2515922","name":"La Gineta","latitude":"39.114521","longitude":"-1.996030","country":"ES"},{"id":"2515929","name":"La Garrovilla","latitude":"38.919609","longitude":"-6.477470","country":"ES"},{"id":"2516004","name":"LEliana","latitude":"39.566669","longitude":"-0.533330","country":"ES"},{"id":"2516049","name":"La Coronada","latitude":"38.920460","longitude":"-5.669780","country":"ES"},{"id":"2516065","name":"La Codosera","latitude":"39.208778","longitude":"-7.173300","country":"ES"},{"id":"2516071","name":"Lachar","latitude":"37.195190","longitude":"-3.832770","country":"ES"},{"id":"2516088","name":"La Carolina","latitude":"38.275589","longitude":"-3.615340","country":"ES"},{"id":"2516089","name":"La Carlota","latitude":"37.673592","longitude":"-4.931220","country":"ES"},{"id":"2516118","name":"La Campana","latitude":"37.568909","longitude":"-5.426700","country":"ES"},{"id":"2516122","name":"La Calzada de Calatrava","latitude":"38.703388","longitude":"-3.775610","country":"ES"},{"id":"2516217","name":"La Algaba","latitude":"37.463669","longitude":"-6.012940","country":"ES"},{"id":"2516255","name":"Jumilla","latitude":"38.479172","longitude":"-1.325000","country":"ES"},{"id":"2516304","name":"Jodar","latitude":"37.840641","longitude":"-3.352620","country":"ES"},{"id":"2516315","name":"Jimena de la Frontera","latitude":"36.435169","longitude":"-5.453870","country":"ES"},{"id":"2516318","name":"Jijona","latitude":"38.540859","longitude":"-0.502630","country":"ES"},{"id":"2516325","name":"Jerez de los Caballeros","latitude":"38.320629","longitude":"-6.772600","country":"ES"},{"id":"2516326","name":"Jerez de la Frontera","latitude":"36.686451","longitude":"-6.136060","country":"ES"},{"id":"2516330","name":"Xeresa","latitude":"39.016670","longitude":"-0.216670","country":"ES"},{"id":"2516336","name":"Javea","latitude":"38.783329","longitude":"0.166670","country":"ES"},{"id":"2516345","name":"Xativa","latitude":"38.983330","longitude":"-0.516670","country":"ES"},{"id":"2516372","name":"Xeraco,Jaraco","latitude":"39.033329","longitude":"-0.216670","country":"ES"},{"id":"2516386","name":"Jamilena","latitude":"37.747162","longitude":"-3.914340","country":"ES"},{"id":"2516389","name":"Jalon","latitude":"38.740631","longitude":"-0.011290","country":"ES"},{"id":"2516395","name":"Jaen","latitude":"37.766670","longitude":"-3.783330","country":"ES"},{"id":"2516404","name":"Jabalquinto","latitude":"38.019348","longitude":"-3.725120","country":"ES"},{"id":"2516414","name":"Iznalloz","latitude":"37.392578","longitude":"-3.527620","country":"ES"},{"id":"2516415","name":"Iznajar","latitude":"37.257660","longitude":"-4.308360","country":"ES"},{"id":"2516431","name":"Isla Cristina","latitude":"37.200001","longitude":"-7.316670","country":"ES"},{"id":"2516440","name":"Iniesta","latitude":"39.433331","longitude":"-1.750000","country":"ES"},{"id":"2516443","name":"Ingenio","latitude":"27.920860","longitude":"-15.440600","country":"ES"},{"id":"2516449","name":"Infantes","latitude":"38.736691","longitude":"-3.012190","country":"ES"},{"id":"2516452","name":"Inca","latitude":"39.721100","longitude":"2.910930","country":"ES"},{"id":"2516455","name":"Illora","latitude":"37.287708","longitude":"-3.881090","country":"ES"},{"id":"2516474","name":"Icod de los Vinos","latitude":"28.372410","longitude":"-16.711880","country":"ES"},{"id":"2516475","name":"Ibros","latitude":"38.021061","longitude":"-3.503130","country":"ES"},{"id":"2516479","name":"Ibiza","latitude":"38.908829","longitude":"1.432960","country":"ES"},{"id":"2516480","name":"Ibi","latitude":"38.625332","longitude":"-0.572250","country":"ES"},{"id":"2516490","name":"Humilladero","latitude":"37.113899","longitude":"-4.702980","country":"ES"},{"id":"2516498","name":"Huetor Vega","latitude":"37.146221","longitude":"-3.570110","country":"ES"},{"id":"2516499","name":"Huetor-Tajar","latitude":"37.198341","longitude":"-4.046920","country":"ES"},{"id":"2516507","name":"Huescar","latitude":"37.811039","longitude":"-2.541160","country":"ES"},{"id":"2516508","name":"Huesa","latitude":"37.764339","longitude":"-3.076390","country":"ES"},{"id":"2516542","name":"Huercal-Overa","latitude":"37.388969","longitude":"-1.945360","country":"ES"},{"id":"2516543","name":"Huercal de Almeria","latitude":"36.885071","longitude":"-2.437600","country":"ES"},{"id":"2516548","name":"Huelva","latitude":"37.258331","longitude":"-6.950830","country":"ES"},{"id":"2516549","name":"Huelma","latitude":"37.647839","longitude":"-3.459850","country":"ES"},{"id":"2516630","name":"Hornachuelos","latitude":"37.833328","longitude":"-5.233330","country":"ES"},{"id":"2516632","name":"Hornachos","latitude":"38.554279","longitude":"-6.068290","country":"ES"},{"id":"2516641","name":"Horcajo de Santiago","latitude":"39.842209","longitude":"-2.997240","country":"ES"},{"id":"2516656","name":"Hondon de las Nieves","latitude":"38.308441","longitude":"-0.853300","country":"ES"},{"id":"2516695","name":"Hinojosa del Duque","latitude":"38.500568","longitude":"-5.146500","country":"ES"},{"id":"2516697","name":"Hinojos","latitude":"37.291729","longitude":"-6.378720","country":"ES"},{"id":"2516723","name":"Higuera la Real","latitude":"38.140881","longitude":"-6.689220","country":"ES"},{"id":"2516728","name":"Higuera de Vargas","latitude":"38.446999","longitude":"-6.975170","country":"ES"},{"id":"2516768","name":"Herrera del Duque","latitude":"39.168400","longitude":"-5.050490","country":"ES"},{"id":"2516773","name":"Herrera","latitude":"37.363960","longitude":"-4.849790","country":"ES"},{"id":"2516785","name":"Hermigua","latitude":"28.167660","longitude":"-17.190510","country":"ES"},{"id":"2516790","name":"Herencia","latitude":"39.366161","longitude":"-3.357350","country":"ES"},{"id":"2516797","name":"Hellin","latitude":"38.510601","longitude":"-1.700960","country":"ES"},{"id":"2516814","name":"Haria","latitude":"29.145531","longitude":"-13.499860","country":"ES"},{"id":"2516852","name":"Guimar","latitude":"28.303900","longitude":"-16.432541","country":"ES"},{"id":"2516855","name":"Guillena","latitude":"37.542622","longitude":"-6.056260","country":"ES"},{"id":"2516860","name":"Guia de Isora","latitude":"28.211540","longitude":"-16.779470","country":"ES"},{"id":"2516861","name":"Guia","latitude":"28.139740","longitude":"-15.632940","country":"ES"},{"id":"2516865","name":"Guevejar","latitude":"37.257591","longitude":"-3.596910","country":"ES"},{"id":"2516873","name":"Guejar-Sierra","latitude":"37.159939","longitude":"-3.438630","country":"ES"},{"id":"2516887","name":"Guarroman","latitude":"38.182819","longitude":"-3.686970","country":"ES"},{"id":"2516892","name":"Guaro","latitude":"36.656300","longitude":"-4.834330","country":"ES"},{"id":"2516896","name":"Guarena","latitude":"38.859520","longitude":"-6.099870","country":"ES"},{"id":"2516902","name":"Guardamar del Segura","latitude":"38.090309","longitude":"-0.655560","country":"ES"},{"id":"2516915","name":"Gualchos","latitude":"36.744671","longitude":"-3.390790","country":"ES"},{"id":"2516925","name":"Guadix","latitude":"37.299320","longitude":"-3.139220","country":"ES"},{"id":"2516944","name":"Guadassuar","latitude":"39.183331","longitude":"-0.466670","country":"ES"},{"id":"2516970","name":"Guadalupe","latitude":"39.450802","longitude":"-5.325880","country":"ES"},{"id":"2517023","name":"Guadahortuna","latitude":"37.557110","longitude":"-3.398590","country":"ES"},{"id":"2517049","name":"Grazalema","latitude":"36.760181","longitude":"-5.368390","country":"ES"},{"id":"2517059","name":"Granja de Torrehermosa","latitude":"38.316669","longitude":"-5.583330","country":"ES"},{"id":"2517060","name":"Granja de Rocamora","latitude":"38.151569","longitude":"-0.891700","country":"ES"},{"id":"2517111","name":"Granadilla de Abona","latitude":"28.118820","longitude":"-16.575991","country":"ES"},{"id":"2517117","name":"Granada","latitude":"37.188171","longitude":"-3.606670","country":"ES"},{"id":"2517197","name":"Gojar","latitude":"37.104561","longitude":"-3.605650","country":"ES"},{"id":"2517199","name":"Godelleta","latitude":"39.416672","longitude":"-0.683330","country":"ES"},{"id":"2517200","name":"Godella","latitude":"39.533329","longitude":"-0.416670","country":"ES"},{"id":"2517217","name":"Gines","latitude":"37.386780","longitude":"-6.077430","country":"ES"},{"id":"2517223","name":"Gilet","latitude":"39.683331","longitude":"-0.316670","country":"ES"},{"id":"2517225","name":"Gilena","latitude":"37.251499","longitude":"-4.914420","country":"ES"},{"id":"2517236","name":"Gibraleon","latitude":"37.376282","longitude":"-6.968950","country":"ES"},{"id":"2517242","name":"Gerindote","latitude":"39.965939","longitude":"-4.302780","country":"ES"},{"id":"2517249","name":"Gerena","latitude":"37.529572","longitude":"-6.154790","country":"ES"},{"id":"2517252","name":"Genoves","latitude":"38.989151","longitude":"-0.469920","country":"ES"},{"id":"2517262","name":"Gelves","latitude":"37.334808","longitude":"-6.026010","country":"ES"},{"id":"2517298","name":"Gata de Gorgos","latitude":"38.774429","longitude":"0.085380","country":"ES"},{"id":"2517310","name":"Garrucha","latitude":"37.181412","longitude":"-1.822520","country":"ES"},{"id":"2517311","name":"Garrovillas","latitude":"39.710819","longitude":"-6.550340","country":"ES"},{"id":"2517346","name":"Garafia","latitude":"28.816669","longitude":"-17.933331","country":"ES"},{"id":"2517349","name":"Garachico","latitude":"28.778061","longitude":"-17.764589","country":"ES"},{"id":"2517350","name":"Garachico","latitude":"28.373650","longitude":"-16.763420","country":"ES"},{"id":"2517367","name":"Gandia","latitude":"38.966671","longitude":"-0.183330","country":"ES"},{"id":"2517383","name":"Galvez","latitude":"39.702080","longitude":"-4.272390","country":"ES"},{"id":"2517409","name":"Galisteo","latitude":"39.976421","longitude":"-6.267820","country":"ES"},{"id":"2517436","name":"Galdar","latitude":"28.147011","longitude":"-15.650200","country":"ES"},{"id":"2517460","name":"Gador","latitude":"36.953220","longitude":"-2.492540","country":"ES"},{"id":"2517493","name":"Fuente Vaqueros","latitude":"37.220188","longitude":"-3.782940","country":"ES"},{"id":"2517498","name":"Fuentes de Leon","latitude":"38.068661","longitude":"-6.538840","country":"ES"},{"id":"2517500","name":"Fuentes de Andalucia","latitude":"37.464088","longitude":"-5.346150","country":"ES"},{"id":"2517512","name":"Fuente Palmera","latitude":"37.704941","longitude":"-5.099650","country":"ES"},{"id":"2517515","name":"Fuente Obejuna","latitude":"38.266670","longitude":"-5.416670","country":"ES"},{"id":"2517523","name":"La Font de la Figuera","latitude":"38.799999","longitude":"-0.883330","country":"ES"},{"id":"2517530","name":"Fuente el Fresno","latitude":"39.228401","longitude":"-3.774870","country":"ES"},{"id":"2517534","name":"Fuente de Piedra","latitude":"37.135262","longitude":"-4.730000","country":"ES"},{"id":"2517547","name":"Fuente del Maestre","latitude":"38.526562","longitude":"-6.447820","country":"ES"},{"id":"2517560","name":"Fuente de Cantos","latitude":"38.250000","longitude":"-6.300000","country":"ES"},{"id":"2517573","name":"Fuentealbilla","latitude":"39.266670","longitude":"-1.550000","country":"ES"},{"id":"2517574","name":"Fuente-Alamo de Murcia","latitude":"37.700001","longitude":"-1.100000","country":"ES"},{"id":"2517576","name":"Fuente-Alamo","latitude":"38.692879","longitude":"-1.431580","country":"ES"},{"id":"2517581","name":"Fuensanta de Martos","latitude":"37.647560","longitude":"-3.908460","country":"ES"},{"id":"2517591","name":"Fuenlabrada de los Montes","latitude":"39.132881","longitude":"-4.935130","country":"ES"},{"id":"2517595","name":"Fuengirola","latitude":"36.539982","longitude":"-4.624730","country":"ES"},{"id":"2517611","name":"Frontera","latitude":"27.754040","longitude":"-18.003670","country":"ES"},{"id":"2517618","name":"Frigiliana","latitude":"36.787472","longitude":"-3.894410","country":"ES"},{"id":"2517643","name":"Fregenal de la Sierra","latitude":"38.169220","longitude":"-6.653700","country":"ES"},{"id":"2517675","name":"Foios","latitude":"39.533329","longitude":"-0.350000","country":"ES"},{"id":"2517679","name":"Fortuna","latitude":"38.181400","longitude":"-1.125900","country":"ES"},{"id":"2517689","name":"Formentera de Segura","latitude":"38.085091","longitude":"-0.746040","country":"ES"},{"id":"2517717","name":"Firgas","latitude":"28.107109","longitude":"-15.562990","country":"ES"},{"id":"2517719","name":"Finestrat","latitude":"38.567371","longitude":"-0.212350","country":"ES"},{"id":"2517720","name":"Fines","latitude":"37.360741","longitude":"-2.258100","country":"ES"},{"id":"2517722","name":"Finana","latitude":"37.171501","longitude":"-2.840110","country":"ES"},{"id":"2517733","name":"Ferreries","latitude":"39.983238","longitude":"4.011810","country":"ES"},{"id":"2517740","name":"Fernan-Nunez","latitude":"37.670441","longitude":"-4.726400","country":"ES"},{"id":"2517750","name":"Felanitx","latitude":"39.469601","longitude":"3.148310","country":"ES"},{"id":"2517755","name":"Faura","latitude":"39.716671","longitude":"-0.250000","country":"ES"},{"id":"2517763","name":"Fasnia","latitude":"28.236380","longitude":"-16.438860","country":"ES"},{"id":"2517816","name":"Estepona","latitude":"36.427639","longitude":"-5.145890","country":"ES"},{"id":"2517820","name":"Estepa","latitude":"37.292629","longitude":"-4.878960","country":"ES"},{"id":"2517880","name":"Esporles","latitude":"39.669701","longitude":"2.578530","country":"ES"},{"id":"2517894","name":"Espiel","latitude":"38.200001","longitude":"-5.016670","country":"ES"},{"id":"2517897","name":"Espera","latitude":"36.874458","longitude":"-5.806000","country":"ES"},{"id":"2517900","name":"Espejo","latitude":"37.679798","longitude":"-4.553550","country":"ES"},{"id":"2517903","name":"Espartinas","latitude":"37.381538","longitude":"-6.125780","country":"ES"},{"id":"2517964","name":"Escacena del Campo","latitude":"37.408360","longitude":"-6.388700","country":"ES"},{"id":"2518011","name":"Enguera","latitude":"38.979740","longitude":"-0.686830","country":"ES"},{"id":"2518019","name":"Encinas Reales","latitude":"37.274189","longitude":"-4.488280","country":"ES"},{"id":"2518040","name":"El Viso del Alcor","latitude":"37.391060","longitude":"-5.719930","country":"ES"},{"id":"2518042","name":"El Viso","latitude":"38.483330","longitude":"-4.950000","country":"ES"},{"id":"2518052","name":"El Varadero","latitude":"36.725208","longitude":"-3.521830","country":"ES"},{"id":"2518078","name":"El Toboso","latitude":"39.513329","longitude":"-2.997260","country":"ES"},{"id":"2518113","name":"El Saucejo","latitude":"37.072369","longitude":"-5.098180","country":"ES"},{"id":"2518129","name":"El Rubio","latitude":"37.356171","longitude":"-4.988960","country":"ES"},{"id":"2518207","name":"El Puerto de Santa Maria","latitude":"36.593891","longitude":"-6.232980","country":"ES"},{"id":"2518224","name":"El Provencio","latitude":"39.377399","longitude":"-2.574480","country":"ES"},{"id":"2518277","name":"El Paso","latitude":"28.650070","longitude":"-17.882740","country":"ES"},{"id":"2518455","name":"El Gastor","latitude":"36.854778","longitude":"-5.323340","country":"ES"},{"id":"2518494","name":"El Ejido","latitude":"36.776291","longitude":"-2.814560","country":"ES"},{"id":"2518505","name":"Elda","latitude":"38.477829","longitude":"-0.791570","country":"ES"},{"id":"2518521","name":"El Coronil","latitude":"37.079540","longitude":"-5.634100","country":"ES"},{"id":"2518555","name":"Elche de la Sierra","latitude":"38.451229","longitude":"-2.047600","country":"ES"},{"id":"2518559","name":"Elche","latitude":"38.262180","longitude":"-0.701070","country":"ES"},{"id":"2518575","name":"El Cerro de Andevalo","latitude":"37.735359","longitude":"-6.936920","country":"ES"},{"id":"2518597","name":"El Casar","latitude":"38.530891","longitude":"-5.925130","country":"ES"},{"id":"2518606","name":"El Carpio de Tajo","latitude":"39.887959","longitude":"-4.453880","country":"ES"},{"id":"2518607","name":"El Carpio","latitude":"37.940849","longitude":"-4.496960","country":"ES"},{"id":"2518682","name":"El Bosque","latitude":"36.758282","longitude":"-5.505350","country":"ES"},{"id":"2518684","name":"El Bonillo","latitude":"38.950481","longitude":"-2.540480","country":"ES"},{"id":"2518723","name":"sArenal","latitude":"39.500000","longitude":"2.750000","country":"ES"},{"id":"2518729","name":"El Arahal","latitude":"37.262730","longitude":"-5.545300","country":"ES"},{"id":"2518770","name":"Ecija","latitude":"37.542198","longitude":"-5.082600","country":"ES"},{"id":"2518774","name":"Durcal","latitude":"36.987881","longitude":"-3.566010","country":"ES"},{"id":"2518791","name":"Dos Torres","latitude":"38.450001","longitude":"-4.900000","country":"ES"},{"id":"2518794","name":"Dos Hermanas","latitude":"37.282871","longitude":"-5.920880","country":"ES"},{"id":"2518796","name":"Dosbarrios","latitude":"39.881981","longitude":"-3.484190","country":"ES"},{"id":"2518820","name":"Don Benito","latitude":"38.956268","longitude":"-5.861620","country":"ES"},{"id":"2518825","name":"Dona Mencia","latitude":"37.553459","longitude":"-4.356020","country":"ES"},{"id":"2518842","name":"Dolores","latitude":"38.140018","longitude":"-0.770880","country":"ES"},{"id":"2518878","name":"Denia","latitude":"38.840778","longitude":"0.105740","country":"ES"},{"id":"2518882","name":"Deifontes","latitude":"37.326199","longitude":"-3.595680","country":"ES"},{"id":"2518921","name":"Dalias","latitude":"36.821789","longitude":"-2.871380","country":"ES"},{"id":"2518923","name":"Daimus","latitude":"38.966671","longitude":"-0.150000","country":"ES"},{"id":"2518924","name":"Daimiel","latitude":"39.070042","longitude":"-3.614980","country":"ES"},{"id":"2518949","name":"Cullera","latitude":"39.166672","longitude":"-0.250000","country":"ES"},{"id":"2518950","name":"Cullar-Vega","latitude":"37.153610","longitude":"-3.670720","country":"ES"},{"id":"2518969","name":"Cuevas de San Marcos","latitude":"37.266659","longitude":"-4.414320","country":"ES"},{"id":"2518981","name":"Cuevas del Campo","latitude":"37.607552","longitude":"-2.929380","country":"ES"},{"id":"2518988","name":"Cuevas del Almanzora","latitude":"37.296459","longitude":"-1.884660","country":"ES"},{"id":"2519061","name":"Quatretonda","latitude":"38.950001","longitude":"-0.400000","country":"ES"},{"id":"2519068","name":"Quart de Poblet","latitude":"39.481392","longitude":"-0.439370","country":"ES"},{"id":"2519110","name":"Crevillente","latitude":"38.249939","longitude":"-0.809750","country":"ES"},{"id":"2519120","name":"Cox","latitude":"38.141640","longitude":"-0.887360","country":"ES"},{"id":"2519198","name":"Cortes de la Frontera","latitude":"36.617100","longitude":"-5.342660","country":"ES"},{"id":"2519199","name":"Cortes de Baza","latitude":"37.655140","longitude":"-2.771660","country":"ES"},{"id":"2519217","name":"Corralejo","latitude":"28.742430","longitude":"-13.868390","country":"ES"},{"id":"2519221","name":"Corral de Almaguer","latitude":"39.759869","longitude":"-3.164520","country":"ES"},{"id":"2519233","name":"Coria del Rio","latitude":"37.287659","longitude":"-6.054100","country":"ES"},{"id":"2519234","name":"Coria","latitude":"39.987881","longitude":"-6.537720","country":"ES"},{"id":"2519240","name":"Cordoba","latitude":"37.883331","longitude":"-4.766670","country":"ES"},{"id":"2519264","name":"Corbera","latitude":"39.150002","longitude":"-0.350000","country":"ES"},{"id":"2519277","name":"Consuegra","latitude":"39.462460","longitude":"-3.608000","country":"ES"},{"id":"2519283","name":"Consell","latitude":"39.668610","longitude":"2.812670","country":"ES"},{"id":"2519289","name":"Conil de la Frontera","latitude":"36.277191","longitude":"-6.088500","country":"ES"},{"id":"2519352","name":"Colmenar","latitude":"36.905190","longitude":"-4.335570","country":"ES"},{"id":"2519367","name":"Coin","latitude":"36.659470","longitude":"-4.756390","country":"ES"},{"id":"2519382","name":"Cocentaina","latitude":"38.739750","longitude":"-0.439760","country":"ES"},{"id":"2519385","name":"Cobisa","latitude":"39.804249","longitude":"-4.025280","country":"ES"},{"id":"2519402","name":"Ciudad Real","latitude":"38.983330","longitude":"-3.933330","country":"ES"},{"id":"2519421","name":"Cijuela","latitude":"37.198002","longitude":"-3.811740","country":"ES"},{"id":"2519425","name":"Cieza","latitude":"38.239979","longitude":"-1.419870","country":"ES"},{"id":"2519436","name":"Churriana de la Vega","latitude":"37.144989","longitude":"-3.646170","country":"ES"},{"id":"2519447","name":"Chucena","latitude":"37.363049","longitude":"-6.393040","country":"ES"},{"id":"2519464","name":"Chiva","latitude":"39.466671","longitude":"-0.716670","country":"ES"},{"id":"2519466","name":"Xirivella","latitude":"39.465881","longitude":"-0.425890","country":"ES"},{"id":"2519477","name":"Chipiona","latitude":"36.736629","longitude":"-6.437030","country":"ES"},{"id":"2519483","name":"Chinchilla de Monte Aragon","latitude":"38.920879","longitude":"-1.720180","country":"ES"},{"id":"2519503","name":"Chilches","latitude":"39.782379","longitude":"-0.187420","country":"ES"},{"id":"2519513","name":"Chiclana de la Frontera","latitude":"36.419151","longitude":"-6.149410","country":"ES"},{"id":"2519522","name":"Cheste","latitude":"39.483330","longitude":"-0.683330","country":"ES"},{"id":"2519528","name":"Chelva","latitude":"39.749298","longitude":"-0.996840","country":"ES"},{"id":"2519529","name":"Chella","latitude":"39.042030","longitude":"-0.659160","country":"ES"},{"id":"2519534","name":"Chauchina","latitude":"37.199772","longitude":"-3.771570","country":"ES"},{"id":"2519579","name":"Ceuti","latitude":"38.078590","longitude":"-1.274670","country":"ES"},{"id":"2519634","name":"Cenes de la Vega","latitude":"37.160061","longitude":"-3.535480","country":"ES"},{"id":"2519651","name":"Cehegin","latitude":"38.092419","longitude":"-1.798500","country":"ES"},{"id":"2519659","name":"Ceclavin","latitude":"39.822311","longitude":"-6.773290","country":"ES"},{"id":"2519664","name":"Cebolla","latitude":"39.948971","longitude":"-4.571750","country":"ES"},{"id":"2519672","name":"Cazorla","latitude":"37.914951","longitude":"-3.003420","country":"ES"},{"id":"2519685","name":"Caudete","latitude":"38.706799","longitude":"-0.987220","country":"ES"},{"id":"2519688","name":"Catral","latitude":"38.160610","longitude":"-0.802090","country":"ES"},{"id":"2519690","name":"Catarroja","latitude":"39.400002","longitude":"-0.400000","country":"ES"},{"id":"2519694","name":"Catadau","latitude":"39.266670","longitude":"-0.566670","country":"ES"},{"id":"2519696","name":"Castuera","latitude":"38.732040","longitude":"-5.543900","country":"ES"},{"id":"2519697","name":"Castro del Rio","latitude":"37.691250","longitude":"-4.480580","country":"ES"},{"id":"2519703","name":"Castril","latitude":"37.795811","longitude":"-2.780020","country":"ES"},{"id":"2519711","name":"Castillo de Locubin","latitude":"37.528580","longitude":"-3.942200","country":"ES"},{"id":"2519738","name":"Castilleja de la Cuesta","latitude":"37.385941","longitude":"-6.052580","country":"ES"},{"id":"2519739","name":"Castilleja de Guzman","latitude":"37.409550","longitude":"-6.055150","country":"ES"},{"id":"2519746","name":"Castilblanco de los Arroyos","latitude":"37.675758","longitude":"-5.988860","country":"ES"},{"id":"2519751","name":"Castello de Rugat","latitude":"38.883331","longitude":"-0.366670","country":"ES"},{"id":"2519752","name":"Castello de la Plana","latitude":"39.983330","longitude":"-0.033330","country":"ES"},{"id":"2519762","name":"Castellar de Santiago","latitude":"38.539280","longitude":"-3.275730","country":"ES"},{"id":"2519763","name":"Castellar de la Frontera","latitude":"36.317360","longitude":"-5.454070","country":"ES"},{"id":"2519783","name":"Castalla","latitude":"38.596939","longitude":"-0.672070","country":"ES"},{"id":"2519786","name":"Casinos","latitude":"39.700001","longitude":"-0.700000","country":"ES"},{"id":"2519879","name":"Casasimarro","latitude":"39.366669","longitude":"-2.033330","country":"ES"},{"id":"2519880","name":"Casas Ibanez","latitude":"39.283329","longitude":"-1.466670","country":"ES"},{"id":"2519979","name":"Casariche","latitude":"37.293892","longitude":"-4.759720","country":"ES"},{"id":"2519980","name":"Casares","latitude":"36.446892","longitude":"-5.285800","country":"ES"},{"id":"2519985","name":"Casar de Caceres","latitude":"39.561062","longitude":"-6.419440","country":"ES"},{"id":"2519988","name":"Casarabonela","latitude":"36.786160","longitude":"-4.842760","country":"ES"},{"id":"2520045","name":"Casabermeja","latitude":"36.892601","longitude":"-4.429380","country":"ES"},{"id":"2520052","name":"Cartaya","latitude":"37.281139","longitude":"-7.150710","country":"ES"},{"id":"2520053","name":"Estacion de Cartama","latitude":"36.733330","longitude":"-4.616670","country":"ES"},{"id":"2520055","name":"Cartama","latitude":"36.710678","longitude":"-4.632970","country":"ES"},{"id":"2520058","name":"Cartagena","latitude":"37.605122","longitude":"-0.986230","country":"ES"},{"id":"2520071","name":"Carrion de los Cespedes","latitude":"37.370071","longitude":"-6.329230","country":"ES"},{"id":"2520072","name":"Carrion de Calatrava","latitude":"39.018978","longitude":"-3.816830","country":"ES"},{"id":"2520118","name":"Carmona","latitude":"37.471249","longitude":"-5.646080","country":"ES"},{"id":"2520121","name":"Carlet","latitude":"39.233330","longitude":"-0.516670","country":"ES"},{"id":"2520144","name":"Carcer","latitude":"39.066669","longitude":"-0.566670","country":"ES"},{"id":"2520150","name":"Carcaixent","latitude":"39.133331","longitude":"-0.450000","country":"ES"},{"id":"2520151","name":"Carcabuey","latitude":"37.444199","longitude":"-4.274710","country":"ES"},{"id":"2520163","name":"Carboneras","latitude":"36.996658","longitude":"-1.896510","country":"ES"},{"id":"2520171","name":"Caravaca","latitude":"38.105579","longitude":"-1.863420","country":"ES"},{"id":"2520200","name":"Capdepera","latitude":"39.702629","longitude":"3.433570","country":"ES"},{"id":"2520209","name":"Cantoria","latitude":"37.351460","longitude":"-2.192090","country":"ES"},{"id":"2520215","name":"Cantillana","latitude":"37.610321","longitude":"-5.824720","country":"ES"},{"id":"2520254","name":"Canillas de Aceituno","latitude":"36.873032","longitude":"-4.082540","country":"ES"},{"id":"2520261","name":"Caniles","latitude":"37.436710","longitude":"-2.724820","country":"ES"},{"id":"2520266","name":"Canete la Real","latitude":"36.951542","longitude":"-5.024400","country":"ES"},{"id":"2520268","name":"Canete de las Torres","latitude":"37.867168","longitude":"-4.318350","country":"ES"},{"id":"2520271","name":"Canet dEn Berenguer","latitude":"39.683331","longitude":"-0.216670","country":"ES"},{"id":"2520272","name":"Canena","latitude":"38.049301","longitude":"-3.483100","country":"ES"},{"id":"2520283","name":"Candelaria","latitude":"28.354799","longitude":"-16.372681","country":"ES"},{"id":"2520320","name":"Canals","latitude":"38.962509","longitude":"-0.584430","country":"ES"},{"id":"2520344","name":"Canada Rosal","latitude":"37.599239","longitude":"-5.210160","country":"ES"},{"id":"2520402","name":"Campos del Rio","latitude":"38.039661","longitude":"-1.353060","country":"ES"},{"id":"2520413","name":"Campo de Criptana","latitude":"39.404629","longitude":"-3.124920","country":"ES"},{"id":"2520428","name":"Campillos","latitude":"37.048260","longitude":"-4.863080","country":"ES"},{"id":"2520435","name":"Campillo de Arenas","latitude":"37.555351","longitude":"-3.635520","country":"ES"},{"id":"2520447","name":"el Campello","latitude":"38.428848","longitude":"-0.397740","country":"ES"},{"id":"2520453","name":"Campanet","latitude":"39.774700","longitude":"2.965060","country":"ES"},{"id":"2520456","name":"Campanario","latitude":"38.864399","longitude":"-5.617440","country":"ES"},{"id":"2520476","name":"Cambil","latitude":"37.679340","longitude":"-3.565380","country":"ES"},{"id":"2520477","name":"Camas","latitude":"37.402020","longitude":"-6.033140","country":"ES"},{"id":"2520493","name":"Calvia","latitude":"39.565701","longitude":"2.506210","country":"ES"},{"id":"2520496","name":"Calp","latitude":"38.644699","longitude":"0.044500","country":"ES"},{"id":"2520502","name":"Callosa de Segura","latitude":"38.124969","longitude":"-0.878220","country":"ES"},{"id":"2520528","name":"Calera y Chozas","latitude":"39.882778","longitude":"-4.982130","country":"ES"},{"id":"2520558","name":"Calasparra","latitude":"38.229969","longitude":"-1.699860","country":"ES"},{"id":"2520566","name":"Calanas","latitude":"37.655682","longitude":"-6.880500","country":"ES"},{"id":"2520568","name":"Calamonte","latitude":"38.888611","longitude":"-6.387910","country":"ES"},{"id":"2520592","name":"Cajar","latitude":"37.133820","longitude":"-3.572740","country":"ES"},{"id":"2520600","name":"Cadiz","latitude":"36.533611","longitude":"-6.299440","country":"ES"},{"id":"2520611","name":"Caceres","latitude":"39.476490","longitude":"-6.372240","country":"ES"},{"id":"2520641","name":"Cabra del Santo Cristo","latitude":"37.703789","longitude":"-3.287650","country":"ES"},{"id":"2520645","name":"Cabra","latitude":"37.472488","longitude":"-4.442060","country":"ES"},{"id":"2520672","name":"Cabeza del Buey","latitude":"38.722271","longitude":"-5.219460","country":"ES"},{"id":"2520698","name":"Busot","latitude":"38.482059","longitude":"-0.419180","country":"ES"},{"id":"2520709","name":"Burriana","latitude":"39.889011","longitude":"-0.084990","country":"ES"},{"id":"2520712","name":"Burjassot","latitude":"39.516670","longitude":"-0.416670","country":"ES"},{"id":"2520714","name":"Burguillos del Cerro","latitude":"38.380081","longitude":"-6.590380","country":"ES"},{"id":"2520715","name":"Burguillos","latitude":"37.584400","longitude":"-5.966540","country":"ES"},{"id":"2520724","name":"Bunyola","latitude":"39.696339","longitude":"2.699550","country":"ES"},{"id":"2520726","name":"Bunol","latitude":"39.416672","longitude":"-0.783330","country":"ES"},{"id":"2520727","name":"Bullas","latitude":"38.046669","longitude":"-1.672270","country":"ES"},{"id":"2520735","name":"Bujalance","latitude":"37.895561","longitude":"-4.380740","country":"ES"},{"id":"2520760","name":"Buenavista del Norte","latitude":"28.374580","longitude":"-16.860979","country":"ES"},{"id":"2520790","name":"Brozas","latitude":"39.612782","longitude":"-6.777700","country":"ES"},{"id":"2520798","name":"Brenes","latitude":"37.549438","longitude":"-5.871390","country":"ES"},{"id":"2520799","name":"Brena Baja","latitude":"28.630110","longitude":"-17.789530","country":"ES"},{"id":"2520800","name":"Brena Alta","latitude":"28.650000","longitude":"-17.783331","country":"ES"},{"id":"2520832","name":"Bornos","latitude":"36.816769","longitude":"-5.744480","country":"ES"},{"id":"2520833","name":"Bormujos","latitude":"37.373581","longitude":"-6.072320","country":"ES"},{"id":"2520850","name":"Bonares","latitude":"37.324230","longitude":"-6.680730","country":"ES"},{"id":"2520869","name":"Bollullos par del Condado","latitude":"37.341270","longitude":"-6.539700","country":"ES"},{"id":"2520870","name":"Bollullos de la Mitacion","latitude":"37.340141","longitude":"-6.137190","country":"ES"},{"id":"2520875","name":"Bolanos de Calatrava","latitude":"38.906898","longitude":"-3.663460","country":"ES"},{"id":"2520898","name":"Bocairent","latitude":"38.766670","longitude":"-0.616670","country":"ES"},{"id":"2520940","name":"Blanca","latitude":"38.179100","longitude":"-1.374730","country":"ES"},{"id":"2520943","name":"Binissalem","latitude":"39.687439","longitude":"2.843960","country":"ES"},{"id":"2520955","name":"Bigastro","latitude":"38.062370","longitude":"-0.898410","country":"ES"},{"id":"2520957","name":"Bienvenida","latitude":"38.299999","longitude":"-6.200000","country":"ES"},{"id":"2520964","name":"Biar","latitude":"38.631168","longitude":"-0.764580","country":"ES"},{"id":"2520968","name":"Betera","latitude":"39.583328","longitude":"-0.450000","country":"ES"},{"id":"2521015","name":"Berlanga","latitude":"38.283329","longitude":"-5.816670","country":"ES"},{"id":"2521016","name":"Berja","latitude":"36.846931","longitude":"-2.949660","country":"ES"},{"id":"2521044","name":"Benitachell","latitude":"38.732731","longitude":"0.143540","country":"ES"},{"id":"2521049","name":"Benisano","latitude":"39.616669","longitude":"-0.566670","country":"ES"},{"id":"2521050","name":"Benissa","latitude":"38.714920","longitude":"0.048490","country":"ES"},{"id":"2521060","name":"Benimodo","latitude":"39.216671","longitude":"-0.533330","country":"ES"},{"id":"2521072","name":"Benijofar","latitude":"38.077850","longitude":"-0.736800","country":"ES"},{"id":"2521075","name":"Beniganim","latitude":"38.950001","longitude":"-0.433330","country":"ES"},{"id":"2521080","name":"Benifaio","latitude":"39.284389","longitude":"-0.425980","country":"ES"},{"id":"2521085","name":"Benifairo de les Valls","latitude":"39.733330","longitude":"-0.266670","country":"ES"},{"id":"2521086","name":"Beniel","latitude":"38.046360","longitude":"-1.002330","country":"ES"},{"id":"2521088","name":"Benidorm","latitude":"38.538158","longitude":"-0.130980","country":"ES"},{"id":"2521105","name":"Benetusser","latitude":"39.416672","longitude":"-0.400000","country":"ES"},{"id":"2521106","name":"Benejuzar","latitude":"38.077278","longitude":"-0.839420","country":"ES"},{"id":"2521108","name":"Beneixama","latitude":"38.700001","longitude":"-0.766670","country":"ES"},{"id":"2521128","name":"Benamocarra","latitude":"36.790741","longitude":"-4.161460","country":"ES"},{"id":"2521130","name":"Benameji","latitude":"37.268330","longitude":"-4.541230","country":"ES"},{"id":"2521131","name":"Benamaurel","latitude":"37.608261","longitude":"-2.702500","country":"ES"},{"id":"2521137","name":"Benalua de Guadix","latitude":"37.351898","longitude":"-3.164040","country":"ES"},{"id":"2521139","name":"Benalmadena","latitude":"36.595482","longitude":"-4.569370","country":"ES"},{"id":"2521146","name":"Benahavis","latitude":"36.523609","longitude":"-5.046310","country":"ES"},{"id":"2521147","name":"Benahadux","latitude":"36.924931","longitude":"-2.459410","country":"ES"},{"id":"2521148","name":"Benaguasil","latitude":"39.599998","longitude":"-0.583330","country":"ES"},{"id":"2521154","name":"Benacazon","latitude":"37.352879","longitude":"-6.196620","country":"ES"},{"id":"2521165","name":"Belmonte","latitude":"39.557461","longitude":"-2.704610","country":"ES"},{"id":"2521167","name":"Belmez","latitude":"38.266670","longitude":"-5.200000","country":"ES"},{"id":"2521172","name":"Bellreguard","latitude":"38.950001","longitude":"-0.166670","country":"ES"},{"id":"2521183","name":"Belalcazar","latitude":"38.575661","longitude":"-5.166540","country":"ES"},{"id":"2521192","name":"Begijar","latitude":"37.984921","longitude":"-3.530940","country":"ES"},{"id":"2521207","name":"Beas de Segura","latitude":"38.252399","longitude":"-2.888750","country":"ES"},{"id":"2521212","name":"Beas","latitude":"37.425701","longitude":"-6.793180","country":"ES"},{"id":"2521215","name":"Baza","latitude":"37.490730","longitude":"-2.772590","country":"ES"},{"id":"2521273","name":"Barrax","latitude":"39.046070","longitude":"-2.201520","country":"ES"},{"id":"2521309","name":"Barlovento","latitude":"28.827080","longitude":"-17.803770","country":"ES"},{"id":"2521316","name":"Bargas","latitude":"39.941132","longitude":"-4.019790","country":"ES"},{"id":"2521329","name":"Barcarrota","latitude":"38.514729","longitude":"-6.849230","country":"ES"},{"id":"2521335","name":"Barbate de Franco","latitude":"36.192371","longitude":"-5.921860","country":"ES"},{"id":"2521351","name":"Banos de la Encina","latitude":"38.173790","longitude":"-3.774770","country":"ES"},{"id":"2521390","name":"Balazote","latitude":"38.884441","longitude":"-2.151800","country":"ES"},{"id":"2521410","name":"Bailen","latitude":"38.096390","longitude":"-3.777860","country":"ES"},{"id":"2521413","name":"Baeza","latitude":"37.993839","longitude":"-3.471030","country":"ES"},{"id":"2521415","name":"Baena","latitude":"37.616699","longitude":"-4.322450","country":"ES"},{"id":"2521417","name":"Badolatosa","latitude":"37.307850","longitude":"-4.672960","country":"ES"},{"id":"2521420","name":"Badajoz","latitude":"38.877892","longitude":"-6.970610","country":"ES"},{"id":"2521436","name":"Azuaga","latitude":"38.266670","longitude":"-5.683330","country":"ES"},{"id":"2521439","name":"Aznalcollar","latitude":"37.519138","longitude":"-6.269880","country":"ES"},{"id":"2521440","name":"Aznalcazar","latitude":"37.304218","longitude":"-6.249630","country":"ES"},{"id":"2521451","name":"Ayora","latitude":"39.058521","longitude":"-1.056350","country":"ES"},{"id":"2521455","name":"Aielo de Malferit","latitude":"38.883331","longitude":"-0.583330","country":"ES"},{"id":"2521456","name":"Ayamonte","latitude":"37.209942","longitude":"-7.402660","country":"ES"},{"id":"2521485","name":"Atarfe","latitude":"37.224789","longitude":"-3.686860","country":"ES"},{"id":"2521510","name":"Aspe","latitude":"38.345112","longitude":"-0.767220","country":"ES"},{"id":"2521519","name":"Arucas","latitude":"28.119829","longitude":"-15.523250","country":"ES"},{"id":"2521534","name":"Arta","latitude":"39.693150","longitude":"3.349790","country":"ES"},{"id":"2521549","name":"Arroyo de San Servan","latitude":"38.854431","longitude":"-6.454020","country":"ES"},{"id":"2521550","name":"Arroyo del Ojanco","latitude":"38.320648","longitude":"-2.894860","country":"ES"},{"id":"2521555","name":"Arroyo de la Luz","latitude":"39.485111","longitude":"-6.584010","country":"ES"},{"id":"2521566","name":"Arriate","latitude":"36.800049","longitude":"-5.140800","country":"ES"},{"id":"2521570","name":"Arrecife","latitude":"28.963020","longitude":"-13.547690","country":"ES"},{"id":"2521577","name":"Arquillos","latitude":"38.181480","longitude":"-3.428270","country":"ES"},{"id":"2521582","name":"Arona","latitude":"28.099621","longitude":"-16.681021","country":"ES"},{"id":"2521590","name":"Armilla","latitude":"37.141022","longitude":"-3.618540","country":"ES"},{"id":"2521593","name":"Arjonilla","latitude":"37.974220","longitude":"-4.106770","country":"ES"},{"id":"2521594","name":"Arjona","latitude":"37.934929","longitude":"-4.054780","country":"ES"},{"id":"2521602","name":"Cruce de Arinaga","latitude":"27.876560","longitude":"-15.427980","country":"ES"},{"id":"2521619","name":"Argamasilla de Calatrava","latitude":"38.729851","longitude":"-4.076270","country":"ES"},{"id":"2521620","name":"Argamasilla de Alba","latitude":"39.129169","longitude":"-3.092470","country":"ES"},{"id":"2521637","name":"Arenas del Rey","latitude":"36.957989","longitude":"-3.893620","country":"ES"},{"id":"2521661","name":"Ardales","latitude":"36.878040","longitude":"-4.846940","country":"ES"},{"id":"2521665","name":"Arcos de la Frontera","latitude":"36.750751","longitude":"-5.810560","country":"ES"},{"id":"2521673","name":"Archidona","latitude":"37.096539","longitude":"-4.388690","country":"ES"},{"id":"2521676","name":"Archena","latitude":"38.116310","longitude":"-1.300430","country":"ES"},{"id":"2521683","name":"Arboleas","latitude":"37.350239","longitude":"-2.073840","country":"ES"},{"id":"2521692","name":"Arafo","latitude":"28.339710","longitude":"-16.422440","country":"ES"},{"id":"2521694","name":"Aracena","latitude":"37.893959","longitude":"-6.561160","country":"ES"},{"id":"2521706","name":"Antigua","latitude":"28.423071","longitude":"-14.013790","country":"ES"},{"id":"2521710","name":"Antequera","latitude":"37.019379","longitude":"-4.561230","country":"ES"},{"id":"2521714","name":"Antas","latitude":"37.245361","longitude":"-1.917600","country":"ES"},{"id":"2521718","name":"Anover de Tajo","latitude":"39.988731","longitude":"-3.765780","country":"ES"},{"id":"2521722","name":"Anna","latitude":"39.020290","longitude":"-0.646210","country":"ES"},{"id":"2521738","name":"Andujar","latitude":"38.039219","longitude":"-4.050780","country":"ES"},{"id":"2521741","name":"Andratx","latitude":"39.575531","longitude":"2.420170","country":"ES"},{"id":"2521793","name":"Altura","latitude":"39.849998","longitude":"-0.516670","country":"ES"},{"id":"2521804","name":"Altea","latitude":"38.598850","longitude":"-0.051390","country":"ES"},{"id":"2521836","name":"Alpera","latitude":"38.966671","longitude":"-1.216670","country":"ES"},{"id":"2521838","name":"Alozaina","latitude":"36.727360","longitude":"-4.857610","country":"ES"},{"id":"2521839","name":"Alosno","latitude":"37.548611","longitude":"-7.114700","country":"ES"},{"id":"2521840","name":"Alora","latitude":"36.823582","longitude":"-4.705750","country":"ES"},{"id":"2521845","name":"Almussafes","latitude":"39.283329","longitude":"-0.416670","country":"ES"},{"id":"2521847","name":"Almunecar","latitude":"36.733929","longitude":"-3.690720","country":"ES"},{"id":"2521855","name":"Almoradi","latitude":"38.108791","longitude":"-0.791970","country":"ES"},{"id":"2521857","name":"Almonte","latitude":"37.264702","longitude":"-6.516670","country":"ES"},{"id":"2521864","name":"Almoharin","latitude":"39.176849","longitude":"-6.042830","country":"ES"},{"id":"2521866","name":"Almogia","latitude":"36.825500","longitude":"-4.540700","country":"ES"},{"id":"2521867","name":"Almodovar del Rio","latitude":"37.810699","longitude":"-5.020370","country":"ES"},{"id":"2521869","name":"Almodovar del Campo","latitude":"38.709358","longitude":"-4.179080","country":"ES"},{"id":"2521886","name":"Almeria","latitude":"36.838139","longitude":"-2.459740","country":"ES"},{"id":"2521887","name":"Almensilla","latitude":"37.310989","longitude":"-6.109980","country":"ES"},{"id":"2521893","name":"Almendralejo","latitude":"38.683159","longitude":"-6.407470","country":"ES"},{"id":"2521899","name":"Almenara","latitude":"39.750000","longitude":"-0.216670","country":"ES"},{"id":"2521905","name":"Almedinilla","latitude":"37.439018","longitude":"-4.090520","country":"ES"},{"id":"2521909","name":"Almassora","latitude":"39.950001","longitude":"-0.050000","country":"ES"},{"id":"2521913","name":"Almargen","latitude":"37.002102","longitude":"-5.021780","country":"ES"},{"id":"2521923","name":"Almansa","latitude":"38.869171","longitude":"-1.097130","country":"ES"},{"id":"2521928","name":"Almagro","latitude":"38.889408","longitude":"-3.711320","country":"ES"},{"id":"2521945","name":"Almachar","latitude":"36.808922","longitude":"-4.216140","country":"ES"},{"id":"2521964","name":"Aljaraque","latitude":"37.269901","longitude":"-7.023120","country":"ES"},{"id":"2521978","name":"Alicante","latitude":"38.345169","longitude":"-0.481490","country":"ES"},{"id":"2521984","name":"Alhendin","latitude":"37.108791","longitude":"-3.645570","country":"ES"},{"id":"2521985","name":"Alhaurin el Grande","latitude":"36.643002","longitude":"-4.687280","country":"ES"},{"id":"2521986","name":"Alhaurin de la Torre","latitude":"36.664009","longitude":"-4.561390","country":"ES"},{"id":"2521992","name":"Alhama de Murcia","latitude":"37.851028","longitude":"-1.425070","country":"ES"},{"id":"2521993","name":"Alhama de Granada","latitude":"37.006889","longitude":"-3.989630","country":"ES"},{"id":"2521994","name":"Alhama de Almeria","latitude":"36.956921","longitude":"-2.568610","country":"ES"},{"id":"2522000","name":"Alguazas","latitude":"38.053558","longitude":"-1.250510","country":"ES"},{"id":"2522001","name":"Algorfa","latitude":"38.086361","longitude":"-0.796460","country":"ES"},{"id":"2522005","name":"Algodonales","latitude":"36.880440","longitude":"-5.405360","country":"ES"},{"id":"2522007","name":"Alginet","latitude":"39.266670","longitude":"-0.466670","country":"ES"},{"id":"2522012","name":"Algemesi","latitude":"39.183331","longitude":"-0.433330","country":"ES"},{"id":"2522013","name":"Algeciras","latitude":"36.133259","longitude":"-5.450510","country":"ES"},{"id":"2522019","name":"Algarrobo","latitude":"36.773880","longitude":"-4.039520","country":"ES"},{"id":"2522023","name":"Algarinejo","latitude":"37.325260","longitude":"-4.158500","country":"ES"},{"id":"2522036","name":"Algaida","latitude":"39.558990","longitude":"2.895410","country":"ES"},{"id":"2522052","name":"Alfara del Patriarca","latitude":"39.549999","longitude":"-0.383330","country":"ES"},{"id":"2522057","name":"Alfafar","latitude":"39.416672","longitude":"-0.383330","country":"ES"},{"id":"2522058","name":"Alfacar","latitude":"37.237438","longitude":"-3.568070","country":"ES"},{"id":"2522072","name":"Aldea del Rey","latitude":"38.738300","longitude":"-3.840170","country":"ES"},{"id":"2522077","name":"Aldaia","latitude":"39.465691","longitude":"-0.460050","country":"ES"},{"id":"2522079","name":"Alcuescar","latitude":"39.180908","longitude":"-6.229170","country":"ES"},{"id":"2522084","name":"LAlcudia de Crespins","latitude":"38.966671","longitude":"-0.583330","country":"ES"},{"id":"2522085","name":"LAlcudia","latitude":"39.200001","longitude":"-0.500000","country":"ES"},{"id":"2522091","name":"Alcudia","latitude":"39.853161","longitude":"3.121380","country":"ES"},{"id":"2522098","name":"Alcoy","latitude":"38.705448","longitude":"-0.474320","country":"ES"},{"id":"2522112","name":"Alconchel","latitude":"38.516479","longitude":"-7.071610","country":"ES"},{"id":"2522117","name":"Alcolea del Rio","latitude":"37.615059","longitude":"-5.666940","country":"ES"},{"id":"2522129","name":"Alzira","latitude":"39.150002","longitude":"-0.433330","country":"ES"},{"id":"2522131","name":"Alcazar de San Juan","latitude":"39.390110","longitude":"-3.208270","country":"ES"},{"id":"2522137","name":"Alcaudete","latitude":"37.590912","longitude":"-4.082370","country":"ES"},{"id":"2522152","name":"Alcantarilla","latitude":"37.969391","longitude":"-1.217140","country":"ES"},{"id":"2522160","name":"Alcala la Real","latitude":"37.461399","longitude":"-3.923010","country":"ES"},{"id":"2522161","name":"Alcala del Valle","latitude":"36.904480","longitude":"-5.172400","country":"ES"},{"id":"2522162","name":"Alcala de los Gazules","latitude":"36.462120","longitude":"-5.723820","country":"ES"},{"id":"2522165","name":"Alcala de Guadaira","latitude":"37.337910","longitude":"-5.839510","country":"ES"},{"id":"2522179","name":"Alcasser","latitude":"39.366669","longitude":"-0.433330","country":"ES"},{"id":"2522183","name":"Alburquerque","latitude":"39.220760","longitude":"-7.002340","country":"ES"},{"id":"2522187","name":"Albunol","latitude":"36.792030","longitude":"-3.205000","country":"ES"},{"id":"2522191","name":"Albuixech","latitude":"39.549999","longitude":"-0.316670","country":"ES"},{"id":"2522200","name":"Albox","latitude":"37.388561","longitude":"-2.149500","country":"ES"},{"id":"2522203","name":"Alboraya","latitude":"39.500000","longitude":"-0.350000","country":"ES"},{"id":"2522208","name":"Albolote","latitude":"37.230881","longitude":"-3.655100","country":"ES"},{"id":"2522222","name":"Alberic","latitude":"39.116669","longitude":"-0.516670","country":"ES"},{"id":"2522228","name":"Albatera","latitude":"38.179020","longitude":"-0.870590","country":"ES"},{"id":"2522244","name":"Albalat dels Sorells","latitude":"39.533329","longitude":"-0.350000","country":"ES"},{"id":"2522245","name":"Albalat de la Ribera","latitude":"39.200001","longitude":"-0.383330","country":"ES"},{"id":"2522250","name":"Albal","latitude":"39.400002","longitude":"-0.416670","country":"ES"},{"id":"2522251","name":"Albaida del Aljarafe","latitude":"37.423538","longitude":"-6.166750","country":"ES"},