[{"id":"2272491","name":"Zwedru","latitude":"6.066670","longitude":"-8.128060","country":"LR"},{"id":"2272790","name":"New Yekepa","latitude":"7.579440","longitude":"-8.537780","country":"LR"},{"id":"2273312","name":"Voinjama","latitude":"8.421940","longitude":"-9.747780","country":"LR"},{"id":"2273435","name":"Tubmanburg","latitude":"6.870830","longitude":"-10.817220","country":"LR"},{"id":"2273638","name":"Fish Town","latitude":"5.196390","longitude":"-7.875560","country":"LR"},{"id":"2274129","name":"Sanniquellie","latitude":"7.362220","longitude":"-8.706110","country":"LR"},{"id":"2274275","name":"Robertsport","latitude":"6.753330","longitude":"-11.368610","country":"LR"},{"id":"2274895","name":"Monrovia","latitude":"6.300540","longitude":"-10.796900","country":"LR"},{"id":"2276086","name":"Kakata","latitude":"6.530000","longitude":"-10.351670","country":"LR"},{"id":"2276492","name":"Harper","latitude":"4.375000","longitude":"-7.716940","country":"LR"},{"id":"2276600","name":"Greenville","latitude":"5.011110","longitude":"-9.038890","country":"LR"},{"id":"2277060","name":"Gbarnga","latitude":"6.995560","longitude":"-9.472220","country":"LR"},{"id":"2277197","name":"Ganta","latitude":"7.302220","longitude":"-8.530830","country":"LR"},{"id":"2278158","name":"Buchanan","latitude":"5.880830","longitude":"-10.046670","country":"LR"},{"id":"2278248","name":"Bopolu","latitude":"7.066670","longitude":"-10.487500","country":"LR"},{"id":"2278682","name":"Bensonville","latitude":"6.446110","longitude":"-10.612500","country":"LR"},{"id":"2278889","name":"Barclayville","latitude":"4.679720","longitude":"-8.233890","country":"LR"}]